$GPGSV,4,1,13,03,12,258,19,09,07,320,17,14,35,160,23,16,65,298,27*77
$GPGSV,4,2,13,21,12,092,21,22,08,239,17,23,30,309,37,26,61,009,36*70
$GPGSV,4,3,13,27,38,187,22,31,47,080,37,08,09,202,,29,10,036,*7F
$GPGSV,4,4,13,32,08,154,*42
$GLGSV,3,1,09,70,40,258,27,82,40,104,19,73,14,289,19,80,46,354,33*66
$GLGSV,3,2,09,79,23,059,23,69,16,195,23,81,24,045,29,71,22,316,34*6B
$GLGSV,3,3,09,83,18,156,*5C
$GAGSV,1,1,0,*74
$PQGSV,1,1,03,193,19,175,17,194,67,049,33,195,54,133,29,0,5*69
$PQGSV,4,1,16,01,48,146,25,03,49,199,25,06,59,182,28,07,69,314,31,0,4*6F
$PQGSV,4,2,16,09,71,251,28,10,48,271,26,16,61,189,34,02,34,233,,0,4*64
$PQGSV,4,3,16,04,34,122,,05,13,253,,19,28,264,,20,20,209,,0,4*63
$PQGSV,4,4,16,22,08,313,,27,46,126,,28,29,057,,30,18,181,,0,4*66
$GNGSA,A,3,14,16,21,23,26,27,31,,,,,,1.0,0.6,0.8,1*3D
$GNGSA,A,3,69,70,73,79,80,81,82,,,,,,1.0,0.6,0.8,2*34
$PQGSA,A,2,02,03,,,,,,,,,,,1.0,0.6,0.8,5*32
$PQGSA,A,3,01,03,06,07,09,10,,,,,,,1.0,0.6,0.8,4*38
$GNVTG,,T,,M,0.0,N,0.0,K,A*3D
$GNRMC,102604.00,A,3117.240825,N,12129.894278,E,0.0,,161219,4.6,W,A*14
$GNGGA,102604.00,3117.240825,N,12129.894278,E,1,12,0.6,-3.7,M,9.7,M,,*6D
$GPGSV,4,1,13,09,07,320,19,14,35,160,24,16,65,298,36,21,12,092,22*72
$GPGSV,4,2,13,22,08,239,17,23,30,309,36,26,61,009,38,27,38,187,17*71
$GPGSV,4,3,13,31,47,080,39,03,12,258,,08,09,202,,29,10,036,*7E
$GPGSV,4,4,13,32,08,154,*42
$GLGSV,3,1,09,70,40,258,25,82,40,104,23,73,14,289,20,80,46,354,31*65
$GLGSV,3,2,09,79,23,059,21,69,16,195,22,81,24,045,25,71,22,316,32*62
$GLGSV,3,3,09,83,18,156,*5C
$GAGSV,1,1,0,*74
$PQGSV,1,1,03,193,19,175,16,194,67,049,33,195,54,133,30,0,5*60
$PQGSV,4,1,16,01,48,146,32,03,49,199,24,04,34,122,20,06,59,182,31,0,4*6C
$PQGSV,4,2,16,07,69,314,32,09,71,251,28,10,48,271,24,16,61,189,35,0,4*6F
$PQGSV,4,3,16,02,34,233,,05,13,253,,19,28,264,,20,20,209,,0,4*66
$PQGSV,4,4,16,22,08,313,,27,46,126,,28,29,057,,30,18,181,,0,4*66
$GNGSA,A,3,14,16,21,23,26,27,31,,,,,,1.0,0.6,0.8,1*3D
$GNGSA,A,3,69,70,73,79,80,81,82,,,,,,1.0,0.6,0.8,2*34
$PQGSA,A,2,02,03,,,,,,,,,,,1.0,0.6,0.8,5*32
$PQGSA,A,3,01,03,04,06,07,09,10,,,,,,1.0,0.6,0.8,4*3C
$GNVTG,,T,,M,0.0,N,0.0,K,A*3D
$GNRMC,102605.00,A,3117.240770,N,12129.894174,E,0.0,,161219,4.6,W,A*15
$GNGGA,102605.00,3117.240770,N,12129.894174,E,1,12,0.6,-3.7,M,9.7,M,,*6C
$GPGSV,4,1,13,09,07,320,18,14,35,160,23,16,65,298,32,21,12,092,24*76
$GPGSV,4,2,13,22,08,239,17,23,30,309,40,26,61,009,35,27,38,187,19*73
$GPGSV,4,3,13,31,47,080,34,03,12,258,,08,09,202,,29,10,036,*73
$GPGSV,4,4,13,32,08,154,*42
$GLGSV,3,1,09,70,40,258,26,82,40,104,21,73,14,289,19,80,46,354,31*6E
$GLGSV,3,2,09,79,23,059,25,69,16,195,24,81,24,045,27,71,22,316,30*60
$GLGSV,3,3,09,83,18,156,*5C
$GAGSV,1,1,0,*74
$PQGSV,1,1,03,193,19,175,16,194,67,049,30,195,54,133,30,0,5*63
$PQGSV,4,1,16,01,48,146,29,03,49,199,24,04,34,122,22,06,59,182,29,0,4*6D
$PQGSV,4,2,16,07,69,314,30,09,71,251,32,10,48,271,31,16,61,189,31,0,4*66
$PQGSV,4,3,16,19,28,264,27,20,20,209,21,27,46,126,32,28,29,057,32,0,4*65
$PQGSV,4,4,16,02,34,233,,05,13,253,,22,08,313,,30,18,181,,0,4*63
$GNGSA,A,3,14,16,21,23,26,27,31,,,,,,1.0,0.6,0.8,1*3D
$GNGSA,A,3,69,70,73,79,80,81,82,,,,,,1.0,0.6,0.8,2*34
$PQGSA,A,2,02,03,,,,,,,,,,,1.0,0.6,0.8,5*32
$PQGSA,A,3,01,03,04,06,07,09,10,,,,,,1.0,0.6,0.8,4*3C
$GNVTG,252.2,T,252.2,M,0.7,N,1.3,K,A*38
$GNRMC,102606.00,A,3117.240830,N,12129.893763,E,0.7,252.2,161219,4.6,W,A*34
$GNGGA,102606.00,3117.240830,N,12129.893763,E,1,12,0.6,-3.2,M,9.7,M,,*66
$GPGSV,4,1,14,04,00,000,32,09,07,320,19,14,35,160,18,16,65,298,32*70
$GPGSV,4,2,14,21,12,092,18,22,08,239,16,23,30,309,36,26,61,009,35*7E
$GPGSV,4,3,14,27,38,187,20,31,47,080,28,03,12,258,,08,09,202,*74
$GPGSV,4,4,14,29,10,036,,32,08,154,*7A
$GLGSV,3,1,09,70,40,258,26,82,40,104,21,73,14,289,19,80,46,354,30*6F
$GLGSV,3,2,09,79,23,059,25,69,16,195,23,81,24,045,28,71,22,316,33*6B
$GLGSV,3,3,09,83,18,156,*5C
$GAGSV,1,1,0,*74
$PQGSV,1,1,03,193,19,175,17,194,67,049,34,195,54,133,30,0,5*66
$PQGSV,4,1,16,01,48,146,28,03,49,199,24,04,34,122,22,06,59,182,28,0,4*6D
$PQGSV,4,2,16,07,69,314,29,09,71,251,31,10,48,271,28,16,61,189,35,0,4*61
$PQGSV,4,3,16,19,28,264,28,20,20,209,25,22,08,313,19,27,46,126,26,0,4*68
$PQGSV,4,4,16,28,29,057,24,30,18,181,23,02,34,233,,05,13,253,,0,4*6E
$GNGSA,A,3,14,16,21,23,26,27,31,,,,,,1.0,0.6,0.8,1*3D
$GNGSA,A,3,69,70,73,79,80,81,82,,,,,,1.0,0.6,0.8,2*34
$PQGSA,A,2,02,03,,,,,,,,,,,1.0,0.6,0.8,5*32
$PQGSA,A,3,01,03,04,06,07,09,10,,,,,,1.0,0.6,0.8,4*3C
$GNVTG,252.7,T,252.7,M,0.6,N,1.0,K,A*3A
$GNRMC,102607.00,A,3117.240981,N,12129.893319,E,0.6,252.7,161219,4.6,W,A*33
$GNGGA,102607.00,3117.240981,N,12129.893319,E,1,12,0.6,-3.2,M,9.7,M,,*65
$GPGSV,4,1,14,04,00,000,39,09,07,320,19,14,35,160,22,16,65,298,38*78
$GPGSV,4,2,14,21,12,092,22,22,08,239,16,23,30,309,42,26,61,009,37*76
$GPGSV,4,3,14,27,38,187,25,31,47,080,30,03,12,258,,08,09,202,*78
$GPGSV,4,4,14,29,10,036,,32,08,154,*7A
$GLGSV,3,1,09,70,40,258,27,82,40,104,23,73,14,289,23,80,46,354,29*6D
$GLGSV,3,2,09,79,23,059,26,69,16,195,26,81,24,045,31,71,22,316,33*65
$GLGSV,3,3,09,83,18,156,*5C
$GAGSV,1,1,0,*74
$PQGSV,1,1,03,193,19,175,17,194,67,049,31,195,54,133,30,0,5*63
$PQGSV,4,1,16,01,48,146,31,03,49,199,24,04,34,122,22,06,59,182,26,0,4*6B
$PQGSV,4,2,16,07,69,314,30,09,71,251,25,10,48,271,28,16,61,189,34,0,4*6D
$PQGSV,4,3,16,19,28,264,24,20,20,209,18,22,08,313,20,27,46,126,29,0,4*6F
$PQGSV,4,4,16,28,29,057,26,30,18,181,18,02,34,233,,05,13,253,,0,4*64
$GNGSA,A,3,14,16,21,23,26,27,31,,,,,,1.0,0.6,0.8,1*3D
$GNGSA,A,3,69,70,73,79,80,81,82,,,,,,1.0,0.6,0.8,2*34
$PQGSA,A,2,02,03,,,,,,,,,,,1.0,0.6,0.8,5*32
$PQGSA,A,3,01,03,04,06,07,09,10,,,,,,1.0,0.6,0.8,4*3C
$GNVTG,230.0,T,230.0,M,0.5,N,0.9,K,A*31
$GNRMC,102608.00,A,3117.241115,N,12129.893065,E,0.5,230.0,161219,4.6,W,A*30
$GNGGA,102608.00,3117.241115,N,12129.893065,E,1,12,0.6,-2.7,M,9.7,M,,*62
$GPGSV,4,1,14,04,00,000,38,09,07,320,19,14,35,160,22,16,65,298,37*76
$GPGSV,4,2,14,21,12,092,19,22,08,239,15,23,30,309,40,26,61,009,34*7C
$GPGSV,4,3,14,31,47,080,26,03,12,258,,08,09,202,,27,38,187,*78
$GPGSV,4,4,14,29,10,036,,32,08,154,*7A
$GLGSV,3,1,09,70,40,258,27,82,40,104,20,73,14,289,20,80,46,354,32*67
$GLGSV,3,2,09,79,23,059,29,69,16,195,26,81,24,045,24,71,22,316,29*65
$GLGSV,3,3,09,83,18,156,*5C
$GAGSV,1,1,0,*74
$PQGSV,1,1,03,193,19,175,17,194,67,049,28,195,54,133,29,0,5*63
$PQGSV,4,1,16,01,48,146,29,03,49,199,20,04,34,122,22,06,59,182,22,0,4*62
$PQGSV,4,2,16,07,69,314,34,09,71,251,28,10,48,271,29,16,61,189,33,0,4*62
$PQGSV,4,3,16,19,28,264,26,20,20,209,20,22,08,313,21,27,46,126,27,0,4*69
$PQGSV,4,4,16,28,29,057,29,30,18,181,18,02,34,233,,05,13,253,,0,4*6B
$GNGSA,A,3,14,16,21,23,26,27,31,,,,,,1.0,0.6,0.8,1*3D
$GNGSA,A,3,69,70,73,79,80,81,82,,,,,,1.0,0.6,0.8,2*34
$PQGSA,A,2,02,03,,,,,,,,,,,1.0,0.6,0.8,5*32
$PQGSA,A,3,01,03,04,06,07,09,10,,,,,,1.0,0.6,0.8,4*3C
$GNVTG,230.0,T,230.0,M,0.5,N,1.0,K,A*39
$GNRMC,102609.00,A,3117.241232,N,12129.892811,E,0.5,230.0,161219,4.6,W,A*3D
$GNGGA,102609.00,3117.241232,N,12129.892811,E,1,12,0.6,-3.6,M,9.7,M,,*6F
$GPGSV,4,1,14,03,12,258,23,04,00,000,37,09,07,320,18,14,35,160,21*76
$GPGSV,4,2,14,16,65,298,32,21,12,092,22,22,08,239,15,23,30,309,34*7C
$GPGSV,4,3,14,26,61,009,31,27,38,187,25,31,47,080,28,08,09,202,*76
$GPGSV,4,4,14,29,10,036,,32,08,154,*7A
$GLGSV,3,1,09,70,40,258,25,82,40,104,23,73,14,289,26,80,46,354,30*62
$GLGSV,3,2,09,79,23,059,28,69,16,195,28,81,24,045,25,71,22,316,31*62
$GLGSV,3,3,09,83,18,156,*5C
$GAGSV,1,1,0,*74
$PQGSV,1,1,03,193,19,175,18,194,67,049,27,195,54,133,27,0,5*6D
$PQGSV,4,1,16,01,48,146,28,03,49,199,20,04,34,122,22,06,59,182,31,0,4*61
$PQGSV,4,2,16,07,69,314,33,09,71,251,30,10,48,271,30,19,28,264,25,0,4*61
$PQGSV,4,3,16,20,20,209,17,22,08,313,21,27,46,126,28,28,29,057,28,0,4*6D
$PQGSV,4,4,16,30,18,181,20,02,34,233,,05,13,253,,16,61,189,,0,4*68
$GNGSA,A,3,03,09,14,16,21,22,23,26,27,31,,,0.8,0.5,0.7,1*32
$GNGSA,A,3,69,70,73,79,80,81,82,,,,,,0.8,0.5,0.7,2*31
$PQGSA,A,2,01,02,03,,,,,,,,,,0.8,0.5,0.7,5*36
$PQGSA,A,3,01,03,04,06,07,09,10,,,,,,0.8,0.5,0.7,4*39
$GNVTG,230.0,T,230.0,M,1.7,N,3.1,K,A*39
$GNRMC,102610.00,A,3117.241427,N,12129.892371,E,1.7,230.0,161219,4.6,W,A*39
$GNGGA,102610.00,3117.241427,N,12129.892371,E,1,12,0.5,-2.9,M,9.7,M,,*65
$GPGSV,4,1,13,04,00,000,37,08,09,202,20,09,07,320,18,14,35,160,24*79
$GPGSV,4,2,13,16,65,298,39,21,12,092,28,22,08,239,15,23,30,309,41*78
$GPGSV,4,3,13,26,61,009,33,27,38,187,24,31,47,080,30,29,10,036,*75
$GPGSV,4,4,13,32,08,154,*42
$GLGSV,3,1,09,70,40,258,27,82,40,104,24,73,14,289,23,80,46,354,29*6A
$GLGSV,3,2,09,79,23,059,25,69,16,195,27,81,24,045,33,71,22,316,36*60
$GLGSV,3,3,09,83,18,156,*5C
$GAGSV,1,1,0,*74
$PQGSV,1,1,03,193,19,175,18,194,67,049,29,195,54,133,31,0,5*64
$PQGSV,1,1,0,*73
$GNGSA,A,3,03,09,14,16,21,22,23,26,27,31,,,0.8,0.5,0.7,1*32
$GNGSA,A,3,69,70,73,79,80,81,82,,,,,,0.8,0.5,0.7,2*31
$PQGSA,A,2,01,02,03,,,,,,,,,,0.8,0.5,0.7,5*36
$PQGSA,A,3,01,03,04,06,07,09,10,,,,,,0.8,0.5,0.7,4*39
$GNVTG,278.4,T,278.4,M,3.1,N,5.8,K,A*32
$GNRMC,102611.00,A,3117.241652,N,12129.891446,E,3.1,278.4,161219,4.6,W,A*34
$GNGGA,102611.00,3117.241652,N,12129.891446,E,1,12,0.5,-2.9,M,9.7,M,,*64
$GPGSV,3,1,12,04,00,000,37,08,09,202,20,09,07,320,18,16,65,298,41*7F
$GPGSV,3,2,12,21,12,092,23,22,08,239,15,23,30,309,35,26,61,009,39*7B
$GPGSV,3,3,12,27,38,187,26,31,47,080,29,03,12,258,,32,08,154,*7A
$GLGSV,2,1,08,70,40,258,27,82,40,104,28,73,14,289,28,80,46,354,32*67
$GLGSV,2,2,08,79,23,059,33,81,24,045,31,71,22,316,36,83,18,156,*65
$GAGSV,1,1,0,*74
$PQGSV,1,1,03,193,19,175,18,194,67,049,27,195,54,133,27,0,5*6D
$PQGSV,1,1,0,*73
$GNGSA,A,3,03,09,14,16,21,22,23,26,27,31,,,0.8,0.5,0.7,1*32
$GNGSA,A,3,69,70,73,79,80,81,82,,,,,,0.8,0.5,0.7,2*31
$PQGSA,A,2,01,02,03,,,,,,,,,,0.8,0.5,0.7,5*36
$PQGSA,A,3,01,03,04,06,07,09,10,,,,,,0.8,0.5,0.7,4*39
$GNVTG,278.6,T,278.6,M,3.2,N,5.9,K,A*30
$GNRMC,102612.00,A,3117.241928,N,12129.890379,E,3.2,278.6,161219,4.6,W,A*3E
$GNGGA,102612.00,3117.241928,N,12129.890379,E,1,12,0.5,-3.3,M,9.7,M,,*64
$GPGSV,4,1,14,04,00,000,37,14,35,160,23,16,65,298,37,21,12,092,23*75
$GPGSV,4,2,14,23,30,309,29,26,61,009,41,27,38,187,24,31,47,080,32*78
$GPGSV,4,3,14,03,12,258,,08,09,202,,09,07,320,,22,08,239,*7A
$GPGSV,4,4,14,29,10,036,,32,08,154,*7A
$GLGSV,2,1,08,70,40,258,29,82,40,104,29,80,46,354,33,79,23,059,25*65
$GLGSV,2,2,08,81,24,045,33,71,22,316,32,69,16,195,,83,18,156,*65
$GAGSV,1,1,0,*74
$PQGSV,1,1,03,194,67,049,30,195,54,133,31,193,19,175,,0,5*65
$PQGSV,1,1,0,*73
$GNGSA,A,3,03,09,14,16,21,22,23,26,27,31,,,0.8,0.5,0.7,1*32
$GNGSA,A,3,69,70,73,79,80,81,82,,,,,,0.8,0.5,0.7,2*31
$PQGSA,A,2,01,02,03,,,,,,,,,,0.8,0.5,0.7,5*36
$PQGSA,A,3,01,04,06,07,09,10,,,,,,,0.8,0.5,0.7,4*3A
$GNVTG,289.7,T,289.7,M,3.5,N,6.4,K,A*39
$GNRMC,102613.00,A,3117.242396,N,12129.889235,E,3.5,289.7,161219,4.6,W,A*3A
$GNGGA,102613.00,3117.242396,N,12129.889235,E,1,12,0.5,-2.7,M,9.7,M,,*6D
$GPGSV,4,1,14,04,00,000,37,09,07,320,21,14,35,160,27,16,65,298,40*77
$GPGSV,4,2,14,21,12,092,25,23,30,309,34,26,61,009,41,27,38,187,23*77
$GPGSV,4,3,14,29,10,036,27,31,47,080,30,03,12,258,,08,09,202,*75
$GPGSV,4,4,14,22,08,239,,32,08,154,*75
$GLGSV,3,1,09,70,40,258,30,82,40,104,23,73,14,289,28,80,46,354,31*69
$GLGSV,3,2,09,79,23,059,29,81,24,045,30,71,22,316,25,69,16,195,*68
$GLGSV,3,3,09,83,18,156,*5C
$GAGSV,1,1,0,*74
$PQGSV,1,1,03,193,19,175,22,194,67,049,32,195,54,133,28,0,5*6F
$PQGSV,1,1,0,*73
$GNGSA,A,3,03,09,14,16,21,22,23,26,27,29,31,,0.8,0.5,0.6,1*38
$GNGSA,A,3,69,70,73,79,80,81,82,,,,,,0.8,0.5,0.6,2*30
$PQGSA,A,2,01,02,03,,,,,,,,,,0.8,0.5,0.6,5*37
$PQGSA,A,3,01,04,06,07,09,10,,,,,,,0.8,0.5,0.6,4*3B
$GNVTG,299.8,T,299.8,M,4.7,N,8.7,K,A*31
$GNRMC,102614.00,A,3117.243140,N,12129.887970,E,4.7,299.8,161219,4.6,W,A*3A
$GNGGA,102614.00,3117.243140,N,12129.887970,E,1,12,0.5,-2.1,M,9.7,M,,*60
$GPGSV,3,1,12,04,00,000,37,14,35,160,22,16,65,298,36,21,12,092,26*71
$GPGSV,3,2,12,23,30,309,38,26,61,009,37,27,38,187,22,31,47,080,30*7C
$GPGSV,3,3,12,32,08,154,22,03,12,258,,08,09,202,,22,08,239,*7D
$GLGSV,3,1,09,70,40,258,24,82,40,104,23,73,14,289,25,80,46,354,34*64
$GLGSV,3,2,09,79,23,059,27,81,24,045,31,71,22,316,27,69,16,195,*65
$GLGSV,3,3,09,83,18,156,*5C
$GAGSV,1,1,0,*74
$PQGSV,1,1,02,194,67,049,33,195,54,133,24,0,5*63
$PQGSV,1,1,0,*73
$GNGSA,A,3,03,09,14,16,21,22,23,26,27,29,31,32,0.8,0.5,0.6,1*39
$GNGSA,A,3,69,70,73,79,80,81,82,,,,,,0.8,0.5,0.6,2*30
$PQGSA,A,2,01,02,03,,,,,,,,,,0.8,0.5,0.6,5*37
$PQGSA,A,3,01,04,06,07,09,10,,,,,,,0.8,0.5,0.6,4*3B
$GNVTG,304.0,T,304.0,M,5.2,N,9.6,K,A*35
$GNRMC,102615.00,A,3117.244118,N,12129.886546,E,5.2,304.0,161219,4.6,W,A*30
$GNGGA,102615.00,3117.244118,N,12129.886546,E,1,12,0.5,-1.9,M,9.7,M,,*68
$GPGSV,3,1,12,04,00,000,37,14,35,160,24,16,65,298,43,21,12,092,27*74
$GPGSV,3,2,12,23,30,309,41,26,61,009,40,27,38,187,25,31,47,080,32*77
$GPGSV,3,3,12,03,12,258,,08,09,202,,09,07,320,,22,08,239,*7B
$GLGSV,3,1,09,70,40,258,27,82,40,104,29,73,14,289,26,80,46,354,29*62
$GLGSV,3,2,09,79,23,059,33,81,24,045,32,71,22,316,30,69,16,195,*65
$GLGSV,3,3,09,83,18,156,*5C
$GAGSV,1,1,0,*74
$PQGSV,1,1,03,194,67,049,28,195,54,133,27,193,19,175,,0,5*6B
$PQGSV,1,1,0,*73
$GNGSA,A,3,09,14,16,21,23,26,27,29,31,32,,,0.9,0.6,0.7,1*39
$GNGSA,A,3,69,70,73,79,80,81,82,,,,,,0.9,0.6,0.7,2*33
$PQGSA,A,2,01,02,03,,,,,,,,,,0.9,0.6,0.7,5*34
$GNVTG,298.9,T,298.9,M,3.1,N,5.8,K,A*32
$GNRMC,102616.00,A,3117.244778,N,12129.885347,E,3.1,298.9,161219,4.6,W,A*3F
$GNGGA,102616.00,3117.244778,N,12129.885347,E,1,12,0.6,-2.9,M,9.7,M,,*6F
$GPGSV,4,1,13,04,00,000,37,14,35,160,25,16,65,298,43,21,12,092,27*73
$GPGSV,4,2,13,23,30,309,39,26,61,009,39,27,38,187,26,31,47,080,33*72
$GPGSV,4,3,13,08,09,202,,09,07,320,,22,08,239,,29,10,036,*7D
$GPGSV,4,4,13,32,08,154,*42
$GLGSV,2,1,07,82,40,104,26,80,46,354,32,79,23,059,30,81,24,045,31*6B
$GLGSV,2,2,07,71,22,316,29,69,16,195,,83,18,156,*5E
$GAGSV,1,1,0,*74
$PQGSV,1,1,03,194,67,049,35,195,54,133,33,193,19,175,,0,5*62
$PQGSV,1,1,0,*73
$GNGSA,A,3,09,14,16,21,23,26,27,29,31,32,,,0.9,0.6,0.7,1*39
$GNGSA,A,3,70,73,79,80,81,82,,,,,,,0.9,0.6,0.7,2*3C
$PQGSA,A,2,01,02,03,,,,,,,,,,0.9,0.6,0.7,5*34
$GNVTG,300.9,T,300.9,M,5.1,N,9.5,K,A*35
$GNRMC,102617.00,A,3117.245395,N,12129.884244,E,5.1,300.9,161219,4.6,W,A*3D
$GNGGA,102617.00,3117.245395,N,12129.884244,E,1,12,0.6,-4.6,M,9.7,M,,*62
$GPGSV,4,1,13,04,00,000,37,16,65,298,43,21,12,092,31,23,30,309,25*78
$GPGSV,4,2,13,26,61,009,41,27,38,187,26,31,47,080,35,03,12,258,*76
$GPGSV,4,3,13,08,09,202,,09,07,320,,22,08,239,,29,10,036,*7D
$GPGSV,4,4,13,32,08,154,*42
$GLGSV,3,1,09,70,40,258,30,82,40,104,25,73,14,289,24,80,46,354,27*64
$GLGSV,3,2,09,79,23,059,26,81,24,045,27,71,22,316,27,69,16,195,*63
$GLGSV,3,3,09,83,18,156,*5C
$GAGSV,1,1,0,*74
$PQGSV,1,1,03,194,67,049,31,195,54,133,32,193,19,175,,0,5*67
$PQGSV,1,1,0,*73
$GNGSA,A,3,09,14,16,21,23,26,27,29,31,32,,,0.9,0.6,0.7,1*39
$GNGSA,A,3,70,73,79,80,81,82,,,,,,,0.9,0.6,0.7,2*3C
$PQGSA,A,2,01,02,03,,,,,,,,,,0.9,0.6,0.7,5*34
$GNVTG,291.2,T,291.2,M,5.0,N,9.2,K,A*33
$GNRMC,102618.00,A,3117.246131,N,12129.882755,E,5.0,291.2,161219,4.6,W,A*3D
$GNGGA,102618.00,3117.246131,N,12129.882755,E,1,12,0.6,-2.3,M,9.7,M,,*62
$GPGSV,4,1,13,04,00,000,37,14,35,160,27,16,65,298,41,21,12,092,36*73
$GPGSV,4,2,13,23,30,309,32,26,61,009,41,27,38,187,27,31,47,080,32*76
$GPGSV,4,3,13,08,09,202,,09,07,320,,22,08,239,,29,10,036,*7D
$GPGSV,4,4,13,32,08,154,*42
$GLGSV,3,1,09,70,40,258,24,82,40,104,28,73,14,289,26,80,46,354,30*68
$GLGSV,3,2,09,79,23,059,27,81,24,045,24,71,22,316,26,69,16,195,*60
$GLGSV,3,3,09,83,18,156,*5C
$GAGSV,1,1,0,*74
$PQGSV,1,1,03,194,67,049,34,195,54,133,34,193,19,175,,0,5*64
$PQGSV,1,1,0,*73
$GNGSA,A,3,09,14,16,21,23,26,27,29,31,32,,,0.9,0.6,0.7,1*39
$GNGSA,A,3,70,73,79,80,81,82,,,,,,,0.9,0.6,0.7,2*3C
$PQGSA,A,2,01,02,03,,,,,,,,,,0.9,0.6,0.7,5*34
$GNVTG,298.4,T,298.4,M,5.0,N,9.3,K,A*32
$GNRMC,102619.00,A,3117.246894,N,12129.881229,E,5.0,298.4,161219,4.6,W,A*38
$GNGGA,102619.00,3117.246894,N,12129.881229,E,1,12,0.6,-1.0,M,9.7,M,,*68
$GPGSV,4,1,14,04,00,000,37,14,35,160,28,16,65,298,39,21,12,092,34*76
$GPGSV,4,2,14,23,30,309,29,26,61,009,38,27,38,187,27,31,47,080,35*72
$GPGSV,4,3,14,32,08,154,24,03,12,258,,08,09,202,,09,07,320,*75
$GPGSV,4,4,14,22,08,239,,29,10,036,*73
$GLGSV,2,1,08,70,40,258,27,82,40,104,26,80,46,354,26,79,23,059,27*62
$GLGSV,2,2,08,81,24,045,28,71,22,316,26,69,16,195,,83,18,156,*6A
$GAGSV,1,1,0,*74
$PQGSV,1,1,03,194,67,049,29,195,54,133,31,193,19,175,,0,5*6D
$PQGSV,1,1,0,*73
$GNGSA,A,3,14,16,21,23,26,27,31,32,,,,,1.0,0.7,0.7,1*32
$GNGSA,A,3,70,73,79,80,81,82,,,,,,,1.0,0.7,0.7,2*35
$PQGSA,A,2,02,03,,,,,,,,,,,1.0,0.7,0.7,5*3C
$GNVTG,296.9,T,296.9,M,4.9,N,9.1,K,A*38
$GNRMC,102620.00,A,3117.247668,N,12129.879726,E,4.9,296.9,161219,4.6,W,A*38
$GNGGA,102620.00,3117.247668,N,12129.879726,E,1,12,0.7,-0.6,M,9.7,M,,*65
$GPGSV,4,1,13,04,00,000,37,14,35,160,30,16,65,298,37,21,12,092,37*75
$GPGSV,4,2,13,23,30,309,34,26,61,009,41,27,38,187,34,31,47,080,37*77
$GPGSV,4,3,13,03,12,258,,08,09,202,,09,07,320,,22,08,239,*7D
$GPGSV,4,4,13,29,10,036,*44
$GLGSV,3,1,09,70,40,258,26,82,40,104,30,73,14,289,30,80,46,354,27*62
$GLGSV,3,2,09,79,23,059,32,69,16,195,26,81,24,045,29,71,22,316,24*6F
$GLGSV,3,3,09,83,18,156,*5C
$GAGSV,1,1,0,*74
$PQGSV,1,1,03,193,19,175,25,194,67,049,31,195,54,133,32,0,5*60
$PQGSV,1,1,0,*73
$GNGSA,A,3,14,16,21,23,26,27,31,32,,,,,1.0,0.6,0.7,1*33
$GNGSA,A,3,69,70,73,79,80,81,82,,,,,,1.0,0.6,0.7,2*3B
$PQGSA,A,2,01,02,03,,,,,,,,,,1.0,0.6,0.7,5*3C
$GNVTG,295.1,T,295.1,M,5.6,N,10.3,K,A*0C
$GNRMC,102621.00,A,3117.248602,N,12129.878182,E,5.6,295.1,161219,4.6,W,A*36
$GNGGA,102621.00,3117.248602,N,12129.878182,E,1,12,0.6,-0.1,M,9.7,M,,*68
$GPGSV,4,1,14,04,00,000,37,14,35,160,30,16,65,298,38,21,12,092,31*7B
$GPGSV,4,2,14,23,30,309,36,26,61,009,37,27,38,187,31,31,47,080,32*73
$GPGSV,4,3,14,03,12,258,,08,09,202,,09,07,320,,22,08,239,*7A
$GPGSV,4,4,14,29,10,036,,32,08,154,*7A
$GLGSV,2,1,08,70,40,258,27,82,40,104,25,73,14,289,29,80,46,354,31*68
$GLGSV,2,2,08,79,23,059,28,81,24,045,28,71,22,316,26,83,18,156,*66
$GAGSV,1,1,0,*74
$PQGSV,1,1,02,194,67,049,29,195,54,133,30,0,5*6D
$PQGSV,1,1,0,*73
$GNGSA,A,3,14,16,21,23,26,27,31,32,,,,,1.0,0.6,0.7,1*33
$GNGSA,A,3,69,70,73,79,80,81,82,,,,,,1.0,0.6,0.7,2*3B
$PQGSA,A,2,01,02,03,,,,,,,,,,1.0,0.6,0.7,5*3C
$GNVTG,294.4,T,294.4,M,4.9,N,9.0,K,A*39
$GNRMC,102622.00,A,3117.249379,N,12129.876628,E,4.9,294.4,161219,4.6,W,A*3E
$GNGGA,102622.00,3117.249379,N,12129.876628,E,1,12,0.6,-0.0,M,9.7,M,,*6B
$GPGSV,4,1,14,03,12,258,23,04,00,000,37,14,35,160,33,16,65,298,35*72
$GPGSV,4,2,14,21,12,092,24,23,30,309,38,26,61,009,36,27,38,187,34*7C
$GPGSV,4,3,14,31,47,080,31,08,09,202,,09,07,320,,22,08,239,*7E
$GPGSV,4,4,14,29,10,036,,32,08,154,*7A
$GLGSV,2,1,08,82,40,104,31,73,14,289,35,80,46,354,33,79,23,059,24*6E
$GLGSV,2,2,08,81,24,045,29,71,22,316,26,69,16,195,,83,18,156,*6B
$GAGSV,1,1,0,*74
$PQGSV,1,1,03,194,67,049,33,195,54,133,31,193,19,175,,0,5*66
$PQGSV,1,1,0,*73
$GNGSA,A,3,03,14,16,21,23,26,27,31,32,,,,0.9,0.6,0.7,1*38
$GNGSA,A,3,69,70,73,79,80,81,82,,,,,,0.9,0.6,0.7,2*33
$PQGSA,A,2,01,02,03,,,,,,,,,,0.9,0.6,0.7,5*34
$GNVTG,297.0,T,297.0,M,4.5,N,8.4,K,A*30
$GNRMC,102623.00,A,3117.250100,N,12129.875231,E,4.5,297.0,161219,4.6,W,A*3F
$GNGGA,102623.00,3117.250100,N,12129.875231,E,1,12,0.6,0.0,M,9.7,M,,*4C
$GPGSV,4,1,13,04,00,000,37,14,35,160,23,16,65,298,33,21,12,092,25*70
$GPGSV,4,2,13,23,30,309,42,26,61,009,42,27,38,187,32,31,47,080,30*74
$GPGSV,4,3,13,08,09,202,,09,07,320,,22,08,239,,29,10,036,*7D
$GPGSV,4,4,13,32,08,154,*42
$GLGSV,3,1,09,70,40,258,23,82,40,104,26,73,14,289,34,80,46,354,26*65
$GLGSV,3,2,09,79,23,059,28,69,16,195,25,81,24,045,30,71,22,316,34*6E
$GLGSV,3,3,09,83,18,156,*5C
$GAGSV,1,1,0,*74
$PQGSV,1,1,03,193,19,175,24,194,67,049,32,195,54,133,27,0,5*66
$PQGSV,1,1,0,*73
$GNGSA,A,3,03,14,16,21,23,26,27,31,32,,,,0.9,0.6,0.7,1*38
$GNGSA,A,3,69,70,73,79,80,81,82,,,,,,0.9,0.6,0.7,2*33
$PQGSA,A,2,01,02,03,,,,,,,,,,0.9,0.6,0.7,5*34
$GNVTG,301.5,T,301.5,M,3.1,N,5.8,K,A*32
$GNRMC,102624.00,A,3117.250673,N,12129.874146,E,3.1,301.5,161219,4.6,W,A*31
$GNGGA,102624.00,3117.250673,N,12129.874146,E,1,12,0.6,-1.1,M,9.7,M,,*67
$GPGSV,4,1,14,04,00,000,37,14,35,160,32,16,65,298,32,21,12,092,25*76
$GPGSV,4,2,14,23,30,309,35,26,61,009,38,27,38,187,37,31,47,080,33*78
$GPGSV,4,3,14,03,12,258,,08,09,202,,09,07,320,,22,08,239,*7A
$GPGSV,4,4,14,29,10,036,,32,08,154,*7A
$GLGSV,2,1,08,82,40,104,27,73,14,289,30,80,46,354,30,79,23,059,30*6A
$GLGSV,2,2,08,69,16,195,25,81,24,045,32,71,22,316,27,83,18,156,*67
$GAGSV,1,1,0,*74
$PQGSV,1,1,02,194,67,049,30,195,54,133,24,0,5*60
$PQGSV,1,1,0,*73
$GNGSA,A,3,03,14,16,21,23,26,27,31,32,,,,0.9,0.6,0.7,1*38
$GNGSA,A,3,69,70,73,79,80,81,82,,,,,,0.9,0.6,0.7,2*33
$PQGSA,A,2,01,02,03,,,,,,,,,,0.9,0.6,0.7,5*34
$GNVTG,303.9,T,303.9,M,3.7,N,6.8,K,A*37
$GNRMC,102625.00,A,3117.251297,N,12129.873264,E,3.7,303.9,161219,4.6,W,A*33
$GNGGA,102625.00,3117.251297,N,12129.873264,E,1,12,0.6,-2.6,M,9.7,M,,*69
$GPGSV,4,1,13,04,00,000,37,14,35,160,31,16,65,298,33,23,30,309,42*71
$GPGSV,4,2,13,26,61,009,39,27,38,187,33,31,47,080,35,03,12,258,*7D
$GPGSV,4,3,13,08,09,202,,09,07,320,,22,08,239,,29,10,036,*7D
$GPGSV,4,4,13,32,08,154,*42
$GLGSV,3,1,09,82,40,104,29,73,14,289,32,80,46,354,29,79,23,059,28*67
$GLGSV,3,2,09,69,16,195,23,81,24,045,28,71,22,316,26,70,40,258,*67
$GLGSV,3,3,09,83,18,156,*5C
$GAGSV,1,1,0,*74
$PQGSV,1,1,03,194,67,049,27,195,54,133,31,193,19,175,,0,5*63
$PQGSV,1,1,0,*73
$GNGSA,A,3,03,14,16,21,23,26,27,31,,,,,1.0,0.6,0.7,1*31
$GNGSA,A,3,69,70,73,79,80,81,82,,,,,,1.0,0.6,0.7,2*3B
$PQGSA,A,2,01,02,03,,,,,,,,,,1.0,0.6,0.7,5*3C
$GNVTG,296.6,T,296.6,M,5.1,N,9.4,K,A*34
$GNRMC,102626.00,A,3117.252088,N,12129.872070,E,5.1,296.6,161219,4.6,W,A*3B
$GNGGA,102626.00,3117.252088,N,12129.872070,E,1,12,0.6,-2.4,M,9.7,M,,*61
$GPGSV,4,1,14,03,12,258,25,04,00,000,37,14,35,160,32,16,65,298,36*76
$GPGSV,4,2,14,23,30,309,42,26,61,009,34,27,38,187,34,31,47,080,33*77
$GPGSV,4,3,14,08,09,202,,09,07,320,,21,12,092,,22,08,239,*7E
$GPGSV,4,4,14,29,10,036,,32,08,154,*7A
$GLGSV,2,1,08,82,40,104,28,73,14,289,33,80,46,354,22,79,23,059,30*65
$GLGSV,2,2,08,81,24,045,24,71,22,316,27,70,40,258,,83,18,156,*6E
$GAGSV,1,1,0,*74
$PQGSV,1,1,03,194,67,049,31,195,54,133,32,193,19,175,,0,5*67
$PQGSV,1,1,0,*73
$GNGSA,A,3,03,14,16,21,23,26,27,31,,,,,1.0,0.6,0.7,1*31
$GNGSA,A,3,69,70,73,79,80,81,82,,,,,,1.0,0.6,0.7,2*3B
$PQGSA,A,2,01,02,03,,,,,,,,,,1.0,0.6,0.7,5*3C
$GNVTG,296.7,T,296.7,M,5.9,N,10.9,K,A*09
$GNRMC,102627.00,A,3117.252869,N,12129.870485,E,5.9,296.7,161219,4.6,W,A*38
$GNGGA,102627.00,3117.252869,N,12129.870485,E,1,12,0.6,-2.0,M,9.7,M,,*6F
$GPGSV,4,1,13,04,00,000,37,14,35,160,32,16,65,298,36,21,12,092,24*74
$GPGSV,4,2,13,23,30,309,41,26,61,009,32,27,38,187,35,29,10,036,24*74
$GPGSV,4,3,13,31,47,080,37,08,09,202,,09,07,320,,22,08,239,*7F
$GPGSV,4,4,13,32,08,154,*42
$GLGSV,2,1,07,82,40,104,29,73,14,289,28,79,23,059,27,69,16,195,25*6D
$GLGSV,2,2,07,81,24,045,31,70,40,258,,83,18,156,*52
$GAGSV,1,1,0,*74
$PQGSV,1,1,03,194,67,049,29,195,54,133,30,193,19,175,,0,5*6C
$PQGSV,1,1,0,*73
$GNGSA,A,3,03,14,16,21,23,26,27,29,31,,,,0.9,0.6,0.7,1*32
$GNGSA,A,3,69,70,73,79,80,81,82,,,,,,0.9,0.6,0.7,2*33
$PQGSA,A,2,01,02,03,,,,,,,,,,0.9,0.6,0.7,5*34
$GNVTG,293.2,T,293.2,M,7.2,N,13.2,K,A*08
$GNRMC,102628.00,A,3117.253580,N,12129.868416,E,7.2,293.2,161219,4.6,W,A*36
$GNGGA,102628.00,3117.253580,N,12129.868416,E,1,12,0.6,-2.7,M,9.7,M,,*6F
$GPGSV,3,1,12,04,00,000,37,14,35,160,31,16,65,298,35,23,30,309,40*73
$GPGSV,3,2,12,26,61,009,37,27,38,187,36,31,47,080,34,03,12,258,*71
$GPGSV,3,3,12,08,09,202,,09,07,320,,22,08,239,,32,08,154,*7D
$GLGSV,3,1,09,82,40,104,28,73,14,289,36,80,46,354,23,79,23,059,30*61
$GLGSV,3,2,09,69,16,195,30,81,24,045,25,71,22,316,25,70,40,258,*6B
$GLGSV,3,3,09,83,18,156,*5C
$GAGSV,1,1,0,*74
$PQGSV,1,1,03,194,67,049,31,195,54,133,30,193,19,175,,0,5*65
$PQGSV,1,1,0,*73
$GNGSA,A,3,03,14,16,21,23,26,27,29,31,,,,0.9,0.6,0.7,1*32
$GNGSA,A,3,69,70,73,79,80,81,82,,,,,,0.9,0.6,0.7,2*33
$PQGSA,A,2,01,02,03,,,,,,,,,,0.9,0.6,0.7,5*34
$GNVTG,292.8,T,292.8,M,6.7,N,12.4,K,A*0B
$GNRMC,102629.00,A,3117.254171,N,12129.866126,E,6.7,292.8,161219,4.6,W,A*3D
$GNGGA,102629.00,3117.254171,N,12129.866126,E,1,12,0.6,-2.9,M,9.7,M,,*65
$GPGSV,4,1,14,04,00,000,37,14,35,160,26,16,65,298,33,21,12,092,23*74
$GPGSV,4,2,14,23,30,309,39,26,61,009,36,27,38,187,29,31,47,080,32*74
$GPGSV,4,3,14,03,12,258,,08,09,202,,09,07,320,,22,08,239,*7A
$GPGSV,4,4,14,29,10,036,,32,08,154,*7A
$GLGSV,2,1,07,82,40,104,27,73,14,289,28,79,23,059,23,81,24,045,25*6C
$GLGSV,2,2,07,71,22,316,23,70,40,258,,83,18,156,*5D
$GAGSV,1,1,0,*74
$PQGSV,1,1,03,194,67,049,34,195,54,133,32,193,19,175,,0,5*62
$PQGSV,1,1,0,*73
$GNGSA,A,3,03,14,16,21,23,26,27,29,31,,,,0.9,0.6,0.7,1*32
$GNGSA,A,3,69,73,79,80,81,82,,,,,,,0.9,0.6,0.7,2*34
$PQGSA,A,2,02,03,,,,,,,,,,,0.9,0.6,0.7,5*35
$GNVTG,296.5,T,296.5,M,6.2,N,11.6,K,A*0F
$GNRMC,102630.00,A,3117.254835,N,12129.864011,E,6.2,296.5,161219,4.6,W,A*37
$GNGGA,102630.00,3117.254835,N,12129.864011,E,1,12,0.6,-3.2,M,9.7,M,,*69
$GPGSV,4,1,14,04,00,000,37,14,35,160,29,16,65,298,38,21,12,092,24*77
$GPGSV,4,2,14,23,30,309,36,26,61,009,38,27,38,187,27,29,10,036,26*78
$GPGSV,4,3,14,31,47,080,33,03,12,258,,08,09,202,,09,07,320,*73
$GPGSV,4,4,14,22,08,239,,32,08,154,*75
$GLGSV,2,1,08,73,14,289,26,79,23,059,23,81,24,045,26,71,22,316,27*67
$GLGSV,2,2,08,70,40,258,,80,46,354,,69,16,195,,83,18,156,*6C
$GAGSV,1,1,0,*74
$PQGSV,1,1,03,194,67,049,32,195,54,133,32,193,19,175,,0,5*64
$PQGSV,1,1,0,*73
$GNGSA,A,3,03,14,16,21,23,26,27,29,31,,,,0.9,0.6,0.7,1*32
$GNGSA,A,3,69,73,79,80,81,82,,,,,,,0.9,0.6,0.7,2*34
$PQGSA,A,2,02,03,,,,,,,,,,,0.9,0.6,0.7,5*35
$GNVTG,302.7,T,302.7,M,6.0,N,11.2,K,A*09
$GNRMC,102631.00,A,3117.255675,N,12129.862070,E,6.0,302.7,161219,4.6,W,A*30
$GNGGA,102631.00,3117.255675,N,12129.862070,E,1,12,0.6,-3.7,M,9.7,M,,*67
$GPGSV,3,1,12,04,00,000,37,14,35,160,25,16,65,298,41,21,12,092,28*78
$GPGSV,3,2,12,23,30,309,42,26,61,009,34,27,38,187,31,31,47,080,32*72
$GPGSV,3,3,12,08,09,202,,09,07,320,,22,08,239,,32,08,154,*7D
$GLGSV,3,1,09,70,40,258,23,82,40,104,28,73,14,289,20,79,23,059,23*60
$GLGSV,3,2,09,81,24,045,27,71,22,316,25,80,46,354,,69,16,195,*6E
$GLGSV,3,3,09,83,18,156,*5C
$GAGSV,1,1,0,*74
$PQGSV,1,1,03,194,67,049,35,195,54,133,32,193,19,175,,0,5*63
$PQGSV,1,1,0,*73
$GNGSA,A,3,03,14,16,21,23,26,27,29,31,,,,0.9,0.6,0.7,1*32
$GNGSA,A,3,69,70,73,79,80,81,82,,,,,,0.9,0.6,0.7,2*33
$PQGSA,A,2,02,03,,,,,,,,,,,0.9,0.6,0.7,5*35
$GNVTG,306.6,T,306.6,M,6.1,N,11.4,K,A*0E
$GNRMC,102632.00,A,3117.256621,N,12129.860199,E,6.1,306.6,161219,4.6,W,A*31
$GNGGA,102632.00,3117.256621,N,12129.860199,E,1,12,0.6,-4.3,M,9.7,M,,*61
$GPGSV,4,1,14,04,00,000,37,14,35,160,25,16,65,298,41,21,12,092,26*77
$GPGSV,4,2,14,23,30,309,39,26,61,009,39,27,38,187,30,31,47,080,36*77
$GPGSV,4,3,14,03,12,258,,08,09,202,,09,07,320,,22,08,239,*7A
$GPGSV,4,4,14,29,10,036,,32,08,154,*7A
$GLGSV,3,1,09,70,40,258,25,82,40,104,27,73,14,289,22,79,23,059,26*6E
$GLGSV,3,2,09,81,24,045,24,71,22,316,29,80,46,354,,69,16,195,*61
$GLGSV,3,3,09,83,18,156,*5C
$GAGSV,1,1,0,*74
$PQGSV,1,1,03,193,19,175,22,194,67,049,30,195,54,133,32,0,5*66
$PQGSV,1,1,0,*73
$GNGSA,A,3,14,16,21,23,26,27,29,31,,,,,0.9,0.6,0.7,1*31
$GNGSA,A,3,69,70,73,79,80,81,82,,,,,,0.9,0.6,0.7,2*33
$PQGSA,A,2,01,02,03,,,,,,,,,,0.9,0.6,0.7,5*34
$GNVTG,306.2,T,306.2,M,6.3,N,11.7,K,A*0F
$GNRMC,102633.00,A,3117.257637,N,12129.858271,E,6.3,306.2,161219,4.6,W,A*3E
$GNGGA,102633.00,3117.257637,N,12129.858271,E,1,12,0.6,-5.0,M,9.7,M,,*6A
$GPGSV,3,1,12,04,00,000,37,14,35,160,26,16,65,298,36,21,12,092,25*76
$GPGSV,3,2,12,23,30,309,35,26,61,009,38,27,38,187,33,31,47,080,32*7C
$GPGSV,3,3,12,08,09,202,,09,07,320,,22,08,239,,32,08,154,*7D
$GLGSV,3,1,09,70,40,258,21,82,40,104,31,73,14,289,24,80,46,354,23*65
$GLGSV,3,2,09,79,23,059,22,81,24,045,26,71,22,316,30,69,16,195,*60
$GLGSV,3,3,09,83,18,156,*5C
$GAGSV,1,1,0,*74
$PQGSV,1,1,02,194,67,049,35,195,54,133,37,0,5*67
$PQGSV,1,1,0,*73
$GNGSA,A,3,14,16,21,23,26,27,29,31,,,,,0.9,0.6,0.7,1*31
$GNGSA,A,3,69,70,73,79,80,81,82,,,,,,0.9,0.6,0.7,2*33
$PQGSA,A,2,01,02,03,,,,,,,,,,0.9,0.6,0.7,5*34
$GNVTG,306.8,T,306.8,M,5.9,N,10.9,K,A*09
$GNRMC,102634.00,A,3117.258624,N,12129.856407,E,5.9,306.8,161219,4.6,W,A*3E
$GNGGA,102634.00,3117.258624,N,12129.856407,E,1,12,0.6,-5.6,M,9.7,M,,*6F
$GPGSV,4,1,13,04,00,000,37,14,35,160,29,16,65,298,38,21,12,092,22*76
$GPGSV,4,2,13,23,30,309,41,26,61,009,39,27,38,187,25,31,47,080,34*79
$GPGSV,4,3,13,03,12,258,,08,09,202,,09,07,320,,22,08,239,*7D
$GPGSV,4,4,13,32,08,154,*42
$GLGSV,2,1,08,70,40,258,21,82,40,104,34,80,46,354,23,79,23,059,23*66
$GLGSV,2,2,08,81,24,045,25,71,22,316,37,69,16,195,,83,18,156,*67
$GAGSV,1,1,0,*74
$PQGSV,1,1,03,194,67,049,29,195,54,133,38,193,19,175,,0,5*64
$PQGSV,1,1,0,*73
$GNGSA,A,3,14,16,21,23,26,27,29,31,,,,,1.0,0.7,0.7,1*38
$GNGSA,A,3,70,73,79,80,81,82,,,,,,,1.0,0.7,0.7,2*35
$PQGSA,A,2,01,02,03,,,,,,,,,,1.0,0.7,0.7,5*3D
$GNVTG,307.7,T,307.7,M,6.3,N,11.7,K,A*0F
$GNRMC,102635.00,A,3117.259679,N,12129.854508,E,6.3,307.7,161219,4.6,W,A*3D
$GNGGA,102635.00,3117.259679,N,12129.854508,E,1,12,0.7,-5.4,M,9.7,M,,*68
$GPGSV,3,1,12,04,00,000,37,14,35,160,22,16,65,298,37,23,30,309,38*7C
$GPGSV,3,2,12,26,61,009,34,27,38,187,31,31,47,080,33,08,09,202,*7C
$GPGSV,3,3,12,09,07,320,,22,08,239,,29,10,036,,32,08,154,*73
$GLGSV,3,1,09,70,40,258,21,82,40,104,32,73,14,289,23,80,46,354,22*60
$GLGSV,3,2,09,79,23,059,23,81,24,045,26,71,22,316,35,69,16,195,*64
$GLGSV,3,3,09,83,18,156,*5C
$GAGSV,1,1,0,*74
$PQGSV,1,1,03,194,67,049,35,195,54,133,33,193,19,175,,0,5*62
$PQGSV,1,1,0,*73
$GNGSA,A,3,14,16,21,23,26,27,29,31,,,,,1.0,0.7,0.7,1*38
$GNGSA,A,3,70,73,79,80,81,82,,,,,,,1.0,0.7,0.7,2*35
$PQGSA,A,2,01,02,03,,,,,,,,,,1.0,0.7,0.7,5*3D
$GNVTG,308.5,T,308.5,M,5.7,N,10.5,K,A*0B
$GNRMC,102636.00,A,3117.260735,N,12129.852650,E,5.7,308.5,161219,4.6,W,A*3F
$GNGGA,102636.00,3117.260735,N,12129.852650,E,1,12,0.7,-5.1,M,9.7,M,,*65
$GPGSV,4,1,13,04,00,000,37,14,35,160,24,16,65,298,39,21,12,092,23*7B
$GPGSV,4,2,13,23,30,309,33,26,61,009,34,27,38,187,28,31,47,080,32*7A
$GPGSV,4,3,13,08,09,202,,09,07,320,,22,08,239,,29,10,036,*7D
$GPGSV,4,4,13,32,08,154,*42
$GLGSV,3,1,09,70,40,258,20,82,40,104,33,73,14,289,26,80,46,354,23*64
$GLGSV,3,2,09,79,23,059,21,81,24,045,24,71,22,316,37,69,16,195,*66
$GLGSV,3,3,09,83,18,156,*5C
$GAGSV,1,1,0,*74
$PQGSV,1,1,03,194,67,049,32,195,54,133,35,193,19,175,,0,5*63
$PQGSV,1,1,0,*73
$GNGSA,A,3,14,16,21,23,26,27,31,,,,,,1.0,0.7,0.8,1*3C
$GNGSA,A,3,70,73,79,80,81,82,,,,,,,1.0,0.7,0.8,2*3A
$PQGSA,A,2,01,02,03,,,,,,,,,,1.0,0.7,0.8,5*32
$GNVTG,308.9,T,308.9,M,5.4,N,10.0,K,A*0D
$GNRMC,102637.00,A,3117.261744,N,12129.850887,E,5.4,308.9,161219,4.6,W,A*30
$GNGGA,102637.00,3117.261744,N,12129.850887,E,1,12,0.7,-5.2,M,9.7,M,,*66
$GPGSV,4,1,13,04,00,000,37,14,35,160,27,16,65,298,39,23,30,309,34*7D
$GPGSV,4,2,13,26,61,009,32,27,38,187,34,31,47,080,34,03,12,258,*70
$GPGSV,4,3,13,08,09,202,,09,07,320,,22,08,239,,29,10,036,*7D
$GPGSV,4,4,13,32,08,154,*42
$GLGSV,2,1,07,82,40,104,30,73,14,289,30,80,46,354,25,81,24,045,25*6E
$GLGSV,2,2,07,71,22,316,36,69,16,195,,83,18,156,*50
$GAGSV,1,1,0,*74
$PQGSV,1,1,03,194,67,049,35,195,54,133,36,193,19,175,,0,5*67
$PQGSV,1,1,0,*73
$GNGSA,A,3,14,16,21,23,26,27,31,,,,,,1.0,0.7,0.8,1*3C
$GNGSA,A,3,70,73,79,80,81,82,,,,,,,1.0,0.7,0.8,2*3A
$PQGSA,A,2,01,02,03,,,,,,,,,,1.0,0.7,0.8,5*32
$GNVTG,306.1,T,306.1,M,5.9,N,10.8,K,A*08
$GNRMC,102638.00,A,3117.262766,N,12129.848995,E,5.9,306.1,161219,4.6,W,A*3C
$GNGGA,102638.00,3117.262766,N,12129.848995,E,1,12,0.7,-5.4,M,9.7,M,,*67
$GPGSV,4,1,14,03,12,258,23,04,00,000,37,14,35,160,24,16,65,298,36*77
$GPGSV,4,2,14,21,12,092,22,22,08,239,20,23,30,309,33,26,61,009,32*70
$GPGSV,4,3,14,27,38,187,27,31,47,080,33,08,09,202,,09,07,320,*79
$GPGSV,4,4,14,29,10,036,,32,08,154,*7A
$GLGSV,2,1,08,70,40,258,21,82,40,104,32,73,14,289,23,69,16,195,24*6B
$GLGSV,2,2,08,81,24,045,25,71,22,316,30,79,23,059,,83,18,156,*66
$GAGSV,1,1,0,*74
$PQGSV,1,1,03,194,67,049,30,195,54,133,37,193,19,175,,0,5*63
$PQGSV,1,1,0,*73
$GNGSA,A,3,03,14,16,21,22,23,26,27,31,,,,1.0,0.6,0.7,1*31
$GNGSA,A,3,69,70,73,79,80,81,82,,,,,,1.0,0.6,0.7,2*3B
$PQGSA,A,2,02,03,,,,,,,,,,,1.0,0.6,0.7,5*3D
$GNVTG,316.1,T,316.1,M,4.3,N,8.0,K,A*32
$GNRMC,102639.00,A,3117.263651,N,12129.847321,E,4.3,316.1,161219,4.6,W,A*39
$GNGGA,102639.00,3117.263651,N,12129.847321,E,1,12,0.6,-4.5,M,9.7,M,,*69
$GPGSV,4,1,13,03,12,258,26,04,00,000,37,14,35,160,26,16,65,298,38*79
$GPGSV,4,2,13,21,12,092,22,23,30,309,36,26,61,009,31,27,38,187,27*76
$GPGSV,4,3,13,29,10,036,24,31,47,080,30,08,09,202,,09,07,320,*71
$GPGSV,4,4,13,32,08,154,*42
$GLGSV,3,1,09,70,40,258,24,82,40,104,32,73,14,289,28,80,46,354,23*6F
$GLGSV,3,2,09,79,23,059,26,69,16,195,24,81,24,045,24,71,22,316,28*69
$GLGSV,3,3,09,83,18,156,*5C
$GAGSV,1,1,0,*74
$PQGSV,1,1,03,194,67,049,31,195,54,133,37,193,19,175,,0,5*62
$PQGSV,1,1,0,*73
$GNGSA,A,3,03,14,16,21,22,23,26,27,29,31,,,0.9,0.6,0.7,1*32
$GNGSA,A,3,69,70,73,79,80,81,82,,,,,,0.9,0.6,0.7,2*33
$PQGSA,A,2,02,03,,,,,,,,,,,0.9,0.6,0.7,5*35
$GNVTG,296.1,T,296.1,M,4.8,N,8.8,K,A*31
$GNRMC,102640.00,A,3117.264378,N,12129.845807,E,4.8,296.1,161219,4.6,W,A*31
$GNGGA,102640.00,3117.264378,N,12129.845807,E,1,12,0.6,-4.8,M,9.7,M,,*6E
$GPGSV,4,1,13,04,00,000,37,09,07,320,23,14,35,160,25,16,65,298,41*71
$GPGSV,4,2,13,21,12,092,24,23,30,309,35,26,61,009,34,27,38,187,27*76
$GPGSV,4,3,13,29,10,036,26,31,47,080,29,08,09,202,,22,08,239,*74
$GPGSV,4,4,13,32,08,154,*42
$GLGSV,3,1,09,70,40,258,28,82,40,104,23,73,14,289,22,80,46,354,24*6E
$GLGSV,3,2,09,79,23,059,24,69,16,195,23,81,24,045,23,71,22,316,32*60
$GLGSV,3,3,09,83,18,156,*5C
$GAGSV,1,1,0,*74
$PQGSV,1,1,03,194,67,049,33,195,54,133,29,193,19,175,,0,5*6F
$PQGSV,1,1,0,*73
$GNGSA,A,3,03,09,14,16,21,22,23,26,27,29,31,,0.9,0.6,0.7,1*3B
$GNGSA,A,3,69,70,73,79,80,81,82,,,,,,0.9,0.6,0.7,2*33
$PQGSA,A,2,02,03,,,,,,,,,,,0.9,0.6,0.7,5*35
$GNVTG,301.8,T,301.8,M,3.9,N,7.2,K,A*32
$GNRMC,102641.00,A,3117.264987,N,12129.844347,E,3.9,301.8,161219,4.6,W,A*34
$GNGGA,102641.00,3117.264987,N,12129.844347,E,1,12,0.6,-4.7,M,9.7,M,,*64
$GPGSV,3,1,11,04,00,000,37,08,09,202,25,14,35,160,24,16,65,298,41*7D
$GPGSV,3,2,11,23,30,309,34,26,61,009,36,27,38,187,28,31,47,080,33*7B
$GPGSV,3,3,11,03,12,258,,22,08,239,,32,08,154,*4F
$GLGSV,2,1,08,70,40,258,34,82,40,104,31,80,46,354,26,79,23,059,25*64
$GLGSV,2,2,08,69,16,195,28,81,24,045,24,71,22,316,32,83,18,156,*69
$GAGSV,1,1,0,*74
$PQGSV,1,1,03,194,67,049,32,195,54,133,32,193,19,175,,0,5*64
$PQGSV,1,1,0,*73
$GNGSA,A,3,03,08,09,14,16,21,22,23,26,27,29,31,0.8,0.5,0.6,1*30
$GNGSA,A,3,69,70,73,79,80,81,82,,,,,,0.8,0.5,0.6,2*30
$PQGSA,A,2,02,03,,,,,,,,,,,0.8,0.5,0.6,5*36
$GNVTG,294.9,T,294.9,M,3.1,N,5.7,K,A*3D
$GNRMC,102642.00,A,3117.265306,N,12129.842957,E,3.1,294.9,161219,4.6,W,A*3C
$GNGGA,102642.00,3117.265306,N,12129.842957,E,1,12,0.5,-5.7,M,9.7,M,,*6A
$GPGSV,4,1,13,04,00,000,37,08,09,202,24,09,07,320,24,14,35,160,29*7F
$GPGSV,4,2,13,16,65,298,38,23,30,309,35,26,61,009,36,27,38,187,29*7B
$GPGSV,4,3,13,31,47,080,28,03,12,258,,21,12,092,,22,08,239,*7B
$GPGSV,4,4,13,32,08,154,*42
$GLGSV,3,1,09,70,40,258,27,82,40,104,27,80,46,354,29,79,23,059,23*68
$GLGSV,3,2,09,69,16,195,26,81,24,045,27,71,22,316,37,73,14,289,*63
$GLGSV,3,3,09,83,18,156,*5C
$GAGSV,1,1,0,*74
$PQGSV,1,1,03,194,67,049,30,195,54,133,32,193,19,175,,0,5*66
$PQGSV,1,1,0,*73
$GNGSA,A,3,03,08,09,14,16,21,22,23,26,27,29,31,0.8,0.5,0.6,1*30
$GNGSA,A,3,69,70,73,79,80,81,82,,,,,,0.8,0.5,0.6,2*30
$PQGSA,A,2,02,03,,,,,,,,,,,0.8,0.5,0.6,5*36
$GNVTG,281.1,T,281.1,M,4.8,N,8.9,K,A*30
$GNRMC,102643.00,A,3117.265528,N,12129.841299,E,4.8,281.1,161219,4.6,W,A*3F
$GNGGA,102643.00,3117.265528,N,12129.841299,E,1,12,0.5,-5.1,M,9.7,M,,*6D
$GPGSV,4,1,13,04,00,000,37,08,09,202,26,14,35,160,26,16,65,298,33*7C
$GPGSV,4,2,13,23,30,309,37,26,61,009,38,27,38,187,30,31,47,080,28*70
$GPGSV,4,3,13,03,12,258,,21,12,092,,22,08,239,,29,10,036,*77
$GPGSV,4,4,13,32,08,154,*42
$GLGSV,2,1,06,82,40,104,29,73,14,289,24,80,46,354,31,69,16,195,32*6A
$GLGSV,2,2,06,71,22,316,30,83,18,156,*62
$GAGSV,1,1,0,*74
$PQGSV,1,1,03,193,19,175,28,194,67,049,32,195,54,133,33,0,5*6F
$PQGSV,1,1,0,*73
$GNGSA,A,3,03,08,09,14,16,21,22,23,26,27,29,31,0.8,0.5,0.6,1*30
$GNGSA,A,3,69,70,73,79,80,81,82,,,,,,0.8,0.5,0.6,2*30
$PQGSA,A,2,01,02,03,,,,,,,,,,0.8,0.5,0.6,5*37
$GNVTG,293.5,T,293.5,M,4.8,N,8.9,K,A*30
$GNRMC,102644.00,A,3117.265901,N,12129.839438,E,4.8,293.5,161219,4.6,W,A*3A
$GNGGA,102644.00,3117.265901,N,12129.839438,E,1,12,0.5,-4.4,M,9.7,M,,*6B
$GPGSV,4,1,13,04,00,000,37,09,07,320,20,14,35,160,27,16,65,298,25*72
$GPGSV,4,2,13,23,30,309,32,26,61,009,42,27,38,187,31,31,47,080,27*76
$GPGSV,4,3,13,03,12,258,,21,12,092,,22,08,239,,29,10,036,*77
$GPGSV,4,4,13,32,08,154,*42
$GLGSV,2,1,08,70,40,258,29,82,40,104,26,80,46,354,28,79,23,059,25*60
$GLGSV,2,2,08,69,16,195,34,81,24,045,22,71,22,316,24,83,18,156,*65
$GAGSV,1,1,0,*74
$PQGSV,1,1,03,193,19,175,28,194,67,049,36,195,54,133,27,0,5*6E
$PQGSV,1,1,0,*73
$GNGSA,A,3,03,08,09,14,16,21,23,26,27,29,31,,0.8,0.5,0.7,1*31
$GNGSA,A,3,69,70,73,79,80,81,82,,,,,,0.8,0.5,0.7,2*31
$PQGSA,A,2,01,02,03,,,,,,,,,,0.8,0.5,0.7,5*36
$GNVTG,291.9,T,291.9,M,4.5,N,8.4,K,A*30
$GNRMC,102645.00,A,3117.266387,N,12129.837777,E,4.5,291.9,161219,4.6,W,A*39
$GNGGA,102645.00,3117.266387,N,12129.837777,E,1,12,0.5,-3.7,M,9.7,M,,*6F
$GPGSV,3,1,12,04,00,000,37,08,09,202,27,14,35,160,24,16,65,298,40*7D
$GPGSV,3,2,12,23,30,309,35,26,61,009,43,27,38,187,32,31,47,080,31*72
$GPGSV,3,3,12,03,12,258,,21,12,092,,22,08,239,,32,08,154,*77
$GLGSV,3,1,09,70,40,258,29,82,40,104,27,80,46,354,32,79,23,059,24*6B
$GLGSV,3,2,09,69,16,195,30,81,24,045,23,71,22,316,37,73,14,289,*60
$GLGSV,3,3,09,83,18,156,*5C
$GAGSV,1,1,0,*74
$PQGSV,1,1,03,193,19,175,25,194,67,049,36,195,54,133,30,0,5*65
$PQGSV,1,1,0,*73
$GNGSA,A,3,08,09,14,16,21,23,26,27,29,31,,,0.9,0.6,0.7,1*30
$GNGSA,A,3,69,70,73,79,80,81,82,,,,,,0.9,0.6,0.7,2*33
$PQGSA,A,2,01,02,03,,,,,,,,,,0.9,0.6,0.7,5*34
$GNVTG,298.7,T,298.7,M,4.1,N,7.7,K,A*38
$GNRMC,102646.00,A,3117.266919,N,12129.836331,E,4.1,298.7,161219,4.6,W,A*33
$GNGGA,102646.00,3117.266919,N,12129.836331,E,1,12,0.6,-3.0,M,9.7,M,,*62
$GPGSV,4,1,13,04,00,000,37,09,07,320,25,14,35,160,27,16,65,298,38*7B
$GPGSV,4,2,13,23,30,309,34,26,61,009,42,27,38,187,30,31,47,080,37*70
$GPGSV,4,3,13,03,12,258,,21,12,092,,22,08,239,,29,10,036,*77
$GPGSV,4,4,13,32,08,154,*42
$GLGSV,3,1,09,70,40,258,31,82,40,104,37,80,46,354,35,79,23,059,26*66
$GLGSV,3,2,09,69,16,195,27,81,24,045,26,71,22,316,38,73,14,289,*6C
$GLGSV,3,3,09,83,18,156,*5C
$GAGSV,1,1,0,*74
$PQGSV,1,1,03,193,19,175,33,194,67,049,34,195,54,133,36,0,5*66
$PQGSV,1,1,0,*73
$GNGSA,A,3,08,09,14,16,23,26,27,31,,,,,1.0,0.6,0.7,1*30
$GNGSA,A,3,69,70,73,79,80,81,82,,,,,,1.0,0.6,0.7,2*3B
$PQGSA,A,2,01,02,03,,,,,,,,,,1.0,0.6,0.7,5*3C
$GNVTG,307.8,T,307.8,M,4.5,N,8.2,K,A*36
$GNRMC,102647.00,A,3117.267605,N,12129.834871,E,4.5,307.8,161219,4.6,W,A*30
$GNGGA,102647.00,3117.267605,N,12129.834871,E,1,12,0.6,-2.1,M,9.7,M,,*6D
$GPGSV,3,1,12,04,00,000,37,08,09,202,28,09,07,320,26,14,35,160,29*77
$GPGSV,3,2,12,16,65,298,38,23,30,309,35,26,61,009,42,27,38,187,28*7F
$GPGSV,3,3,12,31,47,080,34,32,08,154,23,21,12,092,,22,08,239,*77
$GLGSV,3,1,09,70,40,258,31,82,40,104,30,80,46,354,34,79,23,059,25*63
$GLGSV,3,2,09,69,16,195,30,81,24,045,28,71,22,316,37,73,14,289,*6B
$GLGSV,3,3,09,83,18,156,*5C
$GAGSV,1,1,0,*74
$PQGSV,1,1,03,193,19,175,30,194,67,049,33,195,54,133,36,0,5*62
$PQGSV,1,1,0,*73
$GNGSA,A,3,08,09,14,16,23,26,27,31,32,,,,0.9,0.6,0.7,1*39
$GNGSA,A,3,69,70,73,79,80,81,82,,,,,,0.9,0.6,0.7,2*33
$PQGSA,A,2,01,02,03,,,,,,,,,,0.9,0.6,0.7,5*34
$GNVTG,307.8,T,307.8,M,2.9,N,5.4,K,A*37
$GNRMC,102648.00,A,3117.268225,N,12129.833774,E,2.9,307.8,161219,4.6,W,A*31
$GNGGA,102648.00,3117.268225,N,12129.833774,E,1,12,0.6,-1.5,M,9.7,M,,*61
$GPGSV,4,1,13,03,12,258,25,04,00,000,37,08,09,202,29,09,07,320,24*75
$GPGSV,4,2,13,14,35,160,27,16,65,298,32,23,30,309,31,26,61,009,43*7D
$GPGSV,4,3,13,27,38,187,35,29,10,036,31,31,47,080,36,21,12,092,*70
$GPGSV,4,4,13,22,08,239,*4B
$GLGSV,3,1,09,70,40,258,26,82,40,104,31,73,14,289,23,80,46,354,29*6F
$GLGSV,3,2,09,79,23,059,24,69,16,195,31,81,24,045,26,71,22,316,32*66
$GLGSV,3,3,09,83,18,156,*5C
$GAGSV,1,1,0,*74
$PQGSV,1,1,03,193,19,175,35,194,67,049,34,195,54,133,35,0,5*63
$PQGSV,1,1,0,*73
$GNGSA,A,3,03,08,09,14,16,23,26,27,29,31,32,,0.9,0.5,0.7,1*32
$GNGSA,A,3,69,70,73,79,80,81,82,,,,,,0.9,0.5,0.7,2*30
$PQGSA,A,2,01,02,03,,,,,,,,,,0.9,0.5,0.7,5*37
$GNVTG,321.5,T,321.5,M,3.4,N,6.4,K,A*38
$GNRMC,102649.00,A,3117.268920,N,12129.832947,E,3.4,321.5,161219,4.6,W,A*34
$GNGGA,102649.00,3117.268920,N,12129.832947,E,1,12,0.5,-0.7,M,9.7,M,,*61
$GPGSV,3,1,12,04,00,000,37,08,09,202,34,14,35,160,25,16,65,298,26*7E
$GPGSV,3,2,12,23,30,309,36,26,61,009,38,27,38,187,30,29,10,036,35*7D
$GPGSV,3,3,12,31,47,080,27,21,12,092,,22,08,239,,32,08,154,*74
$GLGSV,2,1,08,70,40,258,28,82,40,104,25,80,46,354,31,79,23,059,24*6B
$GLGSV,2,2,08,69,16,195,33,81,24,045,35,71,22,316,33,83,18,156,*62
$GAGSV,1,1,0,*74
$PQGSV,1,1,03,193,19,175,37,194,67,049,37,195,54,133,35,0,5*62
$PQGSV,1,1,0,*73
$GNGSA,A,3,03,08,09,14,16,23,26,27,29,31,32,,0.9,0.5,0.7,1*32
$GNGSA,A,3,69,70,73,79,80,81,82,,,,,,0.9,0.5,0.7,2*30
$PQGSA,A,2,01,02,03,,,,,,,,,,0.9,0.5,0.7,5*37
$GNVTG,319.3,T,319.3,M,3.3,N,6.2,K,A*39
$GNRMC,102650.00,A,3117.269739,N,12129.832074,E,3.3,319.3,161219,4.6,W,A*38
$GNGGA,102650.00,3117.269739,N,12129.832074,E,1,12,0.5,1.0,M,9.7,M,,*4C
$GPGSV,4,1,13,03,12,258,23,04,00,000,37,08,09,202,30,14,35,160,24*70
$GPGSV,4,2,13,16,65,298,30,23,30,309,29,26,61,009,41,27,38,187,35*73
$GPGSV,4,3,13,31,47,080,33,09,07,320,,21,12,092,,22,08,239,*71
$GPGSV,4,4,13,32,08,154,*42
$GLGSV,3,1,09,70,40,258,25,82,40,104,32,80,46,354,27,79,23,059,29*6A
$GLGSV,3,2,09,69,16,195,36,81,24,045,34,71,22,316,33,73,14,289,*64
$GLGSV,3,3,09,83,18,156,*5C
$GAGSV,1,1,0,*74
$PQGSV,1,1,03,193,19,175,27,194,67,049,34,195,54,133,36,0,5*63
$PQGSV,1,1,0,*73
$GNGSA,A,3,03,08,09,14,16,23,26,27,29,31,32,,0.9,0.5,0.7,1*32
$GNGSA,A,3,69,70,73,79,80,81,82,,,,,,0.9,0.5,0.7,2*30
$PQGSA,A,2,01,02,03,,,,,,,,,,0.9,0.5,0.7,5*37
$GNVTG,305.0,T,305.0,M,5.4,N,10.1,K,A*0C
$GNRMC,102651.00,A,3117.270563,N,12129.830738,E,5.4,305.0,161219,4.6,W,A*3E
$GNGGA,102651.00,3117.270563,N,12129.830738,E,1,12,0.5,0.8,M,9.7,M,,*4C
$GPGSV,4,1,14,03,12,258,27,04,00,000,37,08,09,202,25,09,07,320,23*7B
$GPGSV,4,2,14,14,35,160,25,16,65,298,27,21,12,092,29,22,08,239,22*7B
$GPGSV,4,3,14,23,30,309,29,26,61,009,31,27,38,187,39,29,10,036,32*74
$GPGSV,4,4,14,31,47,080,35,32,08,154,*7A
$GLGSV,2,1,08,82,40,104,28,80,46,354,28,79,23,059,31,69,16,195,34*6E
$GLGSV,2,2,08,81,24,045,33,71,22,316,31,73,14,289,,83,18,156,*61
$GAGSV,1,1,0,*74
$PQGSV,1,1,02,194,67,049,29,195,54,133,38,0,5*65
$PQGSV,1,1,0,*73
$GNGSA,A,3,03,08,09,14,16,21,22,23,26,27,29,31,0.8,0.5,0.6,1*30
$GNGSA,A,3,69,70,73,79,80,81,82,,,,,,0.8,0.5,0.6,2*30
$PQGSA,A,2,01,02,03,,,,,,,,,,0.8,0.5,0.6,5*37
$GNVTG,285.8,T,285.8,M,3.3,N,6.1,K,A*3A
$GNRMC,102652.00,A,3117.270959,N,12129.829233,E,3.3,285.8,161219,4.6,W,A*3E
$GNGGA,102652.00,3117.270959,N,12129.829233,E,1,12,0.5,2.6,M,9.7,M,,*40
$GPGSV,3,1,12,03,12,258,27,04,00,000,37,08,09,202,28,14,35,160,26*79
$GPGSV,3,2,12,16,65,298,31,21,12,092,26,23,30,309,30,26,61,009,31*72
$GPGSV,3,3,12,27,38,187,33,29,10,036,30,31,47,080,35,32,08,154,24*76
$GLGSV,2,1,08,82,40,104,34,73,14,289,26,79,23,059,26,69,16,195,31*64
$GLGSV,2,2,08,81,24,045,30,71,22,316,34,70,40,258,,83,18,156,*69
$GAGSV,1,1,0,*74
$PQGSV,1,1,03,194,67,049,31,195,54,133,39,193,19,175,,0,5*6C
$PQGSV,1,1,0,*73
$GNGSA,A,3,03,08,09,14,16,21,22,23,26,27,29,31,0.8,0.5,0.6,1*30
$GNGSA,A,3,69,70,73,79,80,81,82,,,,,,0.8,0.5,0.6,2*30
$PQGSA,A,2,01,02,03,,,,,,,,,,0.8,0.5,0.6,5*37
$GNVTG,280.0,T,280.0,M,2.5,N,4.6,K,A*38
$GNRMC,102653.00,A,3117.270708,N,12129.827924,E,2.5,280.0,161219,4.6,W,A*3C
$GNGGA,102653.00,3117.270708,N,12129.827924,E,1,12,0.5,2.5,M,9.7,M,,*4B
$GPGSV,3,1,11,03,12,258,24,04,00,000,37,09,07,320,30,14,35,160,28*70
$GPGSV,3,2,11,16,65,298,34,22,08,239,25,23,30,309,37,26,61,009,37*7D
$GPGSV,3,3,11,27,38,187,33,29,10,036,30,31,47,080,39*46
$GLGSV,2,1,06,70,40,258,29,82,40,104,35,79,23,059,30,69,16,195,37*6B
$GLGSV,2,2,06,80,46,354,,83,18,156,*6B
$GAGSV,1,1,0,*74
$PQGSV,1,1,03,194,67,049,25,195,54,133,37,193,19,175,,0,5*67
$PQGSV,1,1,0,*73
$GNGSA,A,3,03,08,09,14,16,21,22,23,26,27,29,31,0.8,0.5,0.6,1*30
$GNGSA,A,3,69,70,73,79,80,81,82,,,,,,0.8,0.5,0.6,2*30
$PQGSA,A,2,01,02,03,,,,,,,,,,0.8,0.5,0.6,5*37
$GNVTG,,T,,M,0.0,N,0.0,K,A*3D
$GNRMC,102654.00,A,3117.269952,N,12129.826696,E,0.0,,161219,4.6,W,A*16
$GNGGA,102654.00,3117.269952,N,12129.826696,E,1,12,0.5,3.8,M,9.7,M,,*4E
$GPGSV,4,1,13,03,12,258,26,04,00,000,37,09,07,320,26,14,35,160,23*7B
$GPGSV,4,2,13,16,65,298,33,23,30,309,37,26,61,009,37,27,38,187,39*72
$GPGSV,4,3,13,29,10,036,25,31,47,080,34,08,09,202,,21,12,092,*70
$GPGSV,4,4,13,32,08,154,*42
$GLGSV,3,1,09,70,40,258,23,82,40,104,31,80,46,354,23,79,23,059,24*66
$GLGSV,3,2,09,69,16,195,34,81,24,045,26,71,22,316,29,73,14,289,*6E
$GLGSV,3,3,09,83,18,156,*5C
$GAGSV,1,1,0,*74
$PQGSV,1,1,03,193,19,175,23,194,67,049,25,195,54,133,42,0,5*64
$PQGSV,1,1,0,*73
$GNGSA,A,3,03,08,09,14,16,21,22,23,26,27,29,31,0.8,0.5,0.6,1*30
$GNGSA,A,3,69,70,73,79,80,81,82,,,,,,0.8,0.5,0.6,2*30
$PQGSA,A,2,01,02,03,,,,,,,,,,0.8,0.5,0.6,5*37
$GNVTG,,T,,M,0.0,N,0.0,K,A*3D
$GNRMC,102655.00,A,3117.269270,N,12129.826175,E,0.0,,161219,4.6,W,A*16
$GNGGA,102655.00,3117.269270,N,12129.826175,E,1,12,0.5,3.4,M,9.7,M,,*42
$GPGSV,4,1,13,03,12,258,27,04,00,000,37,09,07,320,22,16,65,298,30*7F
$GPGSV,4,2,13,21,12,092,26,23,30,309,37,26,61,009,34,27,38,187,30*70
$GPGSV,4,3,13,29,10,036,29,31,47,080,40,08,09,202,,22,08,239,*74
$GPGSV,4,4,13,32,08,154,*42
$GLGSV,2,1,08,82,40,104,37,80,46,354,28,79,23,059,29,69,16,195,27*6B
$GLGSV,2,2,08,81,24,045,31,71,22,316,26,73,14,289,,83,18,156,*65
$GAGSV,1,1,0,*74
$PQGSV,1,1,03,193,19,175,28,194,67,049,34,195,54,133,39,0,5*63
$PQGSV,1,1,0,*73
$GNGSA,A,3,03,08,09,14,16,21,22,23,26,27,29,31,0.8,0.5,0.6,1*30
$GNGSA,A,3,69,70,73,79,80,81,82,,,,,,0.8,0.5,0.6,2*30
$PQGSA,A,2,01,02,03,,,,,,,,,,0.8,0.5,0.6,5*37
$GNVTG,276.5,T,276.5,M,1.5,N,2.7,K,A*3C
$GNRMC,102656.00,A,3117.269175,N,12129.825608,E,1.5,276.5,161219,4.6,W,A*31
$GNGGA,102656.00,3117.269175,N,12129.825608,E,1,12,0.5,3.0,M,9.7,M,,*4D
$GPGSV,4,1,13,03,12,258,28,04,00,000,37,14,35,160,32,16,65,298,32*78
$GPGSV,4,2,13,21,12,092,25,23,30,309,27,26,61,009,36,27,38,187,32*72
$GPGSV,4,3,13,29,10,036,29,31,47,080,38,08,09,202,,22,08,239,*7B
$GPGSV,4,4,13,32,08,154,*42
$GLGSV,2,1,08,70,40,258,29,82,40,104,31,73,14,289,25,80,46,354,27*68
$GLGSV,2,2,08,69,16,195,24,81,24,045,27,71,22,316,28,83,18,156,*6D
$GAGSV,1,1,0,*74
$PQGSV,1,1,03,193,19,175,25,194,67,049,32,195,54,133,39,0,5*68
$PQGSV,1,1,0,*73
$GNGSA,A,3,03,08,09,14,16,21,22,23,26,27,29,31,0.8,0.5,0.6,1*30
$GNGSA,A,3,69,70,73,79,80,81,82,,,,,,0.8,0.5,0.6,2*30
$PQGSA,A,2,01,02,03,,,,,,,,,,0.8,0.5,0.6,5*37
$GNVTG,296.0,T,296.0,M,2.9,N,5.4,K,A*37
$GNRMC,102657.00,A,3117.269420,N,12129.824706,E,2.9,296.0,161219,4.6,W,A*3F
$GNGGA,102657.00,3117.269420,N,12129.824706,E,1,12,0.5,3.8,M,9.7,M,,*4F
$GPGSV,3,1,12,04,00,000,37,09,07,320,23,14,35,160,28,16,65,298,28*75
$GPGSV,3,2,12,23,30,309,33,26,61,009,37,27,38,187,39,29,10,036,27*7D
$GPGSV,3,3,12,31,47,080,33,08,09,202,,22,08,239,,32,08,154,*7B
$GLGSV,2,1,08,70,40,258,24,82,40,104,28,80,46,354,26,79,23,059,29*61
$GLGSV,2,2,08,69,16,195,27,81,24,045,27,71,22,316,25,83,18,156,*63
$GAGSV,1,1,0,*74
$PQGSV,1,1,03,193,19,175,29,194,67,049,34,195,54,133,39,0,5*62
$PQGSV,1,1,0,*73
$GNGSA,A,3,03,08,09,14,16,21,22,23,26,27,29,31,0.8,0.5,0.6,1*30
$GNGSA,A,3,69,70,73,79,80,81,82,,,,,,0.8,0.5,0.6,2*30
$PQGSA,A,2,01,02,03,,,,,,,,,,0.8,0.5,0.6,5*37
$GNVTG,292.2,T,292.2,M,3.6,N,6.7,K,A*39
$GNRMC,102658.00,A,3117.269925,N,12129.823515,E,3.6,292.2,161219,4.6,W,A*37
$GNGGA,102658.00,3117.269925,N,12129.823515,E,1,12,0.5,3.5,M,9.7,M,,*42
$GPGSV,4,1,14,03,12,258,23,04,00,000,37,09,07,320,26,14,35,160,29*73
$GPGSV,4,2,14,16,65,298,37,23,30,309,32,26,61,009,34,27,38,187,32*7C
$GPGSV,4,3,14,29,10,036,27,31,47,080,36,08,09,202,,21,12,092,*77
$GPGSV,4,4,14,22,08,239,,32,08,154,*75
$GLGSV,3,1,09,70,40,258,24,82,40,104,30,80,46,354,24,79,23,059,30*62
$GLGSV,3,2,09,69,16,195,23,81,24,045,29,71,22,316,25,73,14,289,*6B
$GLGSV,3,3,09,83,18,156,*5C
$GAGSV,1,1,0,*74
$PQGSV,1,1,03,193,19,175,31,194,67,049,33,195,54,133,37,0,5*62
$PQGSV,1,1,0,*73
$GNGSA,A,3,03,09,14,16,21,22,23,26,27,29,31,,0.8,0.5,0.7,1*39
$GNGSA,A,3,69,70,73,79,80,81,82,,,,,,0.8,0.5,0.7,2*31
$PQGSA,A,2,01,02,03,,,,,,,,,,0.8,0.5,0.7,5*36
$GNVTG,298.9,T,298.9,M,4.0,N,7.4,K,A*3A
$GNRMC,102659.00,A,3117.270505,N,12129.822200,E,4.0,298.9,161219,4.6,W,A*32
$GNGGA,102659.00,3117.270505,N,12129.822200,E,1,12,0.5,4.5,M,9.7,M,,*40
$GPGSV,3,1,12,03,12,258,25,04,00,000,37,14,35,160,35,16,65,298,33*75
$GPGSV,3,2,12,23,30,309,32,26,61,009,31,27,38,187,31,31,47,080,31*73
$GPGSV,3,3,12,08,09,202,,21,12,092,,22,08,239,,32,08,154,*79
$GLGSV,3,1,09,70,40,258,27,82,40,104,29,80,46,354,30,79,23,059,26*6B
$GLGSV,3,2,09,69,16,195,24,81,24,045,29,71,22,316,28,73,14,289,*61
$GLGSV,3,3,09,83,18,156,*5C
$GAGSV,1,1,0,*74
$PQGSV,1,1,02,194,67,049,24,195,54,133,31,0,5*61
$PQGSV,1,1,0,*73
$GNGSA,A,3,03,09,14,16,21,23,26,27,29,31,,,0.9,0.6,0.7,1*3B
$GNGSA,A,3,69,70,73,79,80,81,82,,,,,,0.9,0.6,0.7,2*33
$PQGSA,A,2,01,02,03,,,,,,,,,,0.9,0.6,0.7,5*34
$GNVTG,292.2,T,292.2,M,2.5,N,4.6,K,A*38
$GNRMC,102700.00,A,3117.270902,N,12129.821193,E,2.5,292.2,161219,4.6,W,A*3C
$GNGGA,102700.00,3117.270902,N,12129.821193,E,1,12,0.6,5.0,M,9.7,M,,*4B
$GPGSV,4,1,14,03,12,258,25,04,00,000,37,08,09,202,26,09,07,320,28*71
$GPGSV,4,2,14,14,35,160,28,16,65,298,35,21,12,092,26,23,30,309,29*79
$GPGSV,4,3,14,26,61,009,36,27,38,187,35,29,10,036,24,31,47,080,37*76
$GPGSV,4,4,14,32,08,154,25,22,08,239,*72
$GLGSV,3,1,09,70,40,258,27,82,40,104,31,73,14,289,24,80,46,354,30*61
$GLGSV,3,2,09,79,23,059,29,69,16,195,25,81,24,045,30,71,22,316,31*6A
$GLGSV,3,3,09,83,18,156,*5C
$GAGSV,1,1,0,*74
$PQGSV,1,1,03,193,19,175,26,194,67,049,34,195,54,133,36,0,5*62
$PQGSV,1,1,0,*73
$GNGSA,A,3,03,08,09,14,16,21,23,26,27,29,31,32,0.8,0.5,0.6,1*31
$GNGSA,A,3,69,70,73,79,80,81,82,,,,,,0.8,0.5,0.6,2*30
$PQGSA,A,2,01,02,03,,,,,,,,,,0.8,0.5,0.6,5*37
$GNVTG,290.8,T,290.8,M,3.0,N,5.6,K,A*3D
$GNRMC,102701.00,A,3117.271184,N,12129.820299,E,3.0,290.8,161219,4.6,W,A*3E
$GNGGA,102701.00,3117.271184,N,12129.820299,E,1,12,0.5,3.9,M,9.7,M,,*49
$GPGSV,3,1,11,03,12,258,25,04,00,000,37,14,35,160,27,16,65,298,35*73
$GPGSV,3,2,11,22,08,239,23,23,30,309,39,26,61,009,29,27,38,187,32*7B
$GPGSV,3,3,11,29,10,036,24,31,47,080,31,32,08,154,28*48
$GLGSV,2,1,08,82,40,104,29,73,14,289,26,80,46,354,27,79,23,059,28*6C
$GLGSV,2,2,08,69,16,195,24,81,24,045,28,71,22,316,31,83,18,156,*6A
$GAGSV,1,1,0,*74
$PQGSV,1,1,03,193,19,175,26,194,67,049,30,195,54,133,35,0,5*65
$PQGSV,1,1,0,*73
$GNGSA,A,3,03,08,09,14,16,21,22,23,26,27,29,31,0.8,0.5,0.6,1*30
$GNGSA,A,3,69,70,73,79,80,81,82,,,,,,0.8,0.5,0.6,2*30
$PQGSA,A,2,01,02,03,,,,,,,,,,0.8,0.5,0.6,5*37
$GNVTG,297.3,T,297.3,M,2.5,N,4.7,K,A*39
$GNRMC,102702.00,A,3117.271547,N,12129.819457,E,2.5,297.3,161219,4.6,W,A*30
$GNGGA,102702.00,3117.271547,N,12129.819457,E,1,12,0.5,3.2,M,9.7,M,,*44
$GPGSV,4,1,13,03,12,258,26,04,00,000,37,09,07,320,26,14,35,160,32*7B
$GPGSV,4,2,13,16,65,298,38,23,30,309,35,26,61,009,33,27,38,187,35*73
$GPGSV,4,3,13,29,10,036,27,31,47,080,37,32,08,154,26,08,09,202,*77
$GPGSV,4,4,13,21,12,092,*40
$GLGSV,2,1,07,70,40,258,34,73,14,289,23,80,46,354,26,79,23,059,27*63
$GLGSV,2,2,07,81,24,045,27,71,22,316,37,83,18,156,*5F
$GAGSV,1,1,0,*74
$PQGSV,1,1,02,194,67,049,31,195,54,133,36,0,5*62
$PQGSV,1,1,0,*73
$GNGSA,A,3,03,08,09,14,16,21,22,23,26,27,29,31,0.8,0.5,0.6,1*30
$GNGSA,A,3,69,70,73,79,80,81,82,,,,,,0.8,0.5,0.6,2*30
$PQGSA,A,2,01,02,03,,,,,,,,,,0.8,0.5,0.6,5*37
$GNVTG,280.8,T,280.8,M,3.3,N,6.1,K,A*3A
$GNRMC,102703.00,A,3117.271708,N,12129.818449,E,3.3,280.8,161219,4.6,W,A*3C
$GNGGA,102703.00,3117.271708,N,12129.818449,E,1,12,0.5,1.8,M,9.7,M,,*4A
$GPGSV,3,1,12,04,00,000,37,09,07,320,24,14,35,160,25,16,65,298,37*71
$GPGSV,3,2,12,23,30,309,34,26,61,009,35,27,38,187,38,29,10,036,28*76
$GPGSV,3,3,12,31,47,080,33,08,09,202,,21,12,092,,22,08,239,*79
$GLGSV,3,1,09,70,40,258,29,82,40,104,31,73,14,289,26,80,46,354,29*65
$GLGSV,3,2,09,79,23,059,24,69,16,195,24,81,24,045,27,71,22,316,41*67
$GLGSV,3,3,09,83,18,156,*5C
$GAGSV,1,1,0,*74
$PQGSV,1,1,03,193,19,175,30,194,67,049,33,195,54,133,36,0,5*62
$PQGSV,1,1,0,*73
$GNGSA,A,3,03,08,09,14,16,21,22,23,26,27,29,31,0.8,0.5,0.6,1*30
$GNGSA,A,3,69,70,73,79,80,81,82,,,,,,0.8,0.5,0.6,2*30
$PQGSA,A,2,01,02,03,,,,,,,,,,0.8,0.5,0.6,5*37
$GNVTG,278.7,T,278.7,M,2.8,N,5.1,K,A*33
$GNRMC,102704.00,A,3117.271768,N,12129.817313,E,2.8,278.7,161219,4.6,W,A*38
$GNGGA,102704.00,3117.271768,N,12129.817313,E,1,12,0.5,1.9,M,9.7,M,,*4D
$GPGSV,4,1,13,04,00,000,37,08,09,202,23,09,07,320,25,14,35,160,29*79
$GPGSV,4,2,13,16,65,298,30,23,30,309,31,26,61,009,35,27,38,187,29*74
$GPGSV,4,3,13,31,47,080,31,03,12,258,,21,12,092,,22,08,239,*73
$GPGSV,4,4,13,32,08,154,*42
$GLGSV,2,1,08,70,40,258,28,82,40,104,29,73,14,289,23,80,46,354,33*63
$GLGSV,2,2,08,79,23,059,28,81,24,045,28,71,22,316,35,83,18,156,*64
$GAGSV,1,1,0,*74
$PQGSV,1,1,03,193,19,175,27,194,67,049,28,195,54,133,29,0,5*60
$PQGSV,1,1,0,*73
$GNGSA,A,3,03,08,09,14,16,21,22,23,26,27,29,31,0.8,0.5,0.6,1*30
$GNGSA,A,3,69,70,73,79,80,81,82,,,,,,0.8,0.5,0.6,2*30
$PQGSA,A,2,01,02,03,,,,,,,,,,0.8,0.5,0.6,5*37
$GNVTG,265.2,T,265.2,M,2.3,N,4.3,K,A*3B
$GNRMC,102705.00,A,3117.271640,N,12129.816327,E,2.3,265.2,161219,4.6,W,A*36
$GNGGA,102705.00,3117.271640,N,12129.816327,E,1,12,0.5,2.1,M,9.7,M,,*4A
$GPGSV,4,1,13,03,12,258,27,04,00,000,37,09,07,320,28,14,35,160,36*70
$GPGSV,4,2,13,16,65,298,29,23,30,309,28,26,61,009,32,27,38,187,33*78
$GPGSV,4,3,13,29,10,036,27,31,47,080,32,32,08,154,24,21,12,092,*7A
$GPGSV,4,4,13,22,08,239,*4B
$GLGSV,2,1,08,70,40,258,31,82,40,104,28,80,46,354,34,79,23,059,27*68
$GLGSV,2,2,08,69,16,195,24,81,24,045,28,71,22,316,36,83,18,156,*6D
$GAGSV,1,1,0,*74
$PQGSV,1,1,03,193,19,175,28,194,67,049,28,195,54,133,28,0,5*6E
$PQGSV,1,1,0,*73
$GNGSA,A,3,03,08,09,14,16,21,22,23,26,27,29,31,0.8,0.5,0.6,1*30
$GNGSA,A,3,69,70,73,79,80,81,82,,,,,,0.8,0.5,0.6,2*30
$PQGSA,A,2,01,02,03,,,,,,,,,,0.8,0.5,0.6,5*37
$GNVTG,284.2,T,284.2,M,2.7,N,5.0,K,A*3D
$GNRMC,102706.00,A,3117.271748,N,12129.815300,E,2.7,284.2,161219,4.6,W,A*31
$GNGGA,102706.00,3117.271748,N,12129.815300,E,1,12,0.5,2.1,M,9.7,M,,*46
$GPGSV,3,1,12,03,12,258,24,04,00,000,37,09,07,320,30,14,35,160,37*7D
$GPGSV,3,2,12,16,65,298,33,23,30,309,31,26,61,009,32,27,38,187,37*79
$GPGSV,3,3,12,31,47,080,29,08,09,202,,21,12,092,,22,08,239,*72
$GLGSV,3,1,09,70,40,258,30,82,40,104,30,80,46,354,33,79,23,059,29*69
$GLGSV,3,2,09,69,16,195,23,81,24,045,24,71,22,316,39,73,14,289,*6B
$GLGSV,3,3,09,83,18,156,*5C
$GAGSV,1,1,0,*74
$PQGSV,1,1,03,193,19,175,26,194,67,049,31,195,54,133,30,0,5*61
$PQGSV,1,1,0,*73
$GNGSA,A,3,03,08,09,14,16,22,23,26,27,29,31,32,0.8,0.5,0.6,1*32
$GNGSA,A,3,69,70,73,79,80,81,82,,,,,,0.8,0.5,0.6,2*30
$PQGSA,A,2,01,02,03,,,,,,,,,,0.8,0.5,0.6,5*37
$GNVTG,292.2,T,292.2,M,3.6,N,6.6,K,A*38
$GNRMC,102707.00,A,3117.272433,N,12129.814337,E,3.6,292.2,161219,4.6,W,A*3E
$GNGGA,102707.00,3117.272433,N,12129.814337,E,1,12,0.5,1.9,M,9.7,M,,*45
$GPGSV,3,1,12,03,12,258,27,04,00,000,37,14,35,160,33,16,65,298,32*70
$GPGSV,3,2,12,23,30,309,33,26,61,009,39,27,38,187,29,31,47,080,30*72
$GPGSV,3,3,12,32,08,154,24,08,09,202,,21,12,092,,22,08,239,*7F
$GLGSV,3,1,09,70,40,258,35,82,40,104,25,80,46,354,35,79,23,059,26*61
$GLGSV,3,2,09,69,16,195,23,81,24,045,28,71,22,316,31,73,14,289,*6F
$GLGSV,3,3,09,83,18,156,*5C
$GAGSV,1,1,0,*74
$PQGSV,1,1,03,193,19,175,26,194,67,049,23,195,54,133,33,0,5*61
$PQGSV,1,1,0,*73
$GNGSA,A,3,03,08,09,14,16,23,26,27,29,31,32,,0.9,0.5,0.7,1*32
$GNGSA,A,3,69,70,73,79,80,81,82,,,,,,0.9,0.5,0.7,2*30
$PQGSA,A,2,01,02,03,,,,,,,,,,0.9,0.5,0.7,5*37
$GNVTG,289.5,T,289.5,M,4.6,N,8.6,K,A*31
$GNRMC,102708.00,A,3117.273201,N,12129.812982,E,4.6,289.5,161219,4.6,W,A*3F
$GNGGA,102708.00,3117.273201,N,12129.812982,E,1,12,0.5,1.8,M,9.7,M,,*4F
$GPGSV,4,1,14,03,12,258,25,04,00,000,37,09,07,320,26,14,35,160,33*7E
$GPGSV,4,2,14,16,65,298,35,21,12,092,25,23,30,309,41,26,61,009,30*73
$GPGSV,4,3,14,27,38,187,30,31,47,080,30,32,08,154,27,08,09,202,*7F
$GPGSV,4,4,14,22,08,239,,29,10,036,*73
$GLGSV,2,1,08,70,40,258,29,82,40,104,30,73,14,289,26,80,46,354,32*6E
$GLGSV,2,2,08,69,16,195,26,81,24,045,26,71,22,316,34,83,18,156,*63
$GAGSV,1,1,0,*74
$PQGSV,1,1,03,193,19,175,27,194,67,049,37,195,54,133,26,0,5*61
$PQGSV,1,1,0,*73
$GNGSA,A,3,03,08,09,14,16,21,23,26,27,29,31,32,0.8,0.5,0.6,1*31
$GNGSA,A,3,69,70,73,79,80,81,82,,,,,,0.8,0.5,0.6,2*30
$PQGSA,A,2,01,02,03,,,,,,,,,,0.8,0.5,0.6,5*37
$GNVTG,290.5,T,290.5,M,3.4,N,6.3,K,A*3F
$GNRMC,102709.00,A,3117.273880,N,12129.811660,E,3.4,290.5,161219,4.6,W,A*30
$GNGGA,102709.00,3117.273880,N,12129.811660,E,1,12,0.5,0.5,M,9.7,M,,*41
$GPGSV,3,1,12,03,12,258,23,04,00,000,37,09,07,320,28,14,35,160,35*71
$GPGSV,3,2,12,16,65,298,27,23,30,309,34,26,61,009,31,27,38,187,26*7A
$GPGSV,3,3,12,31,47,080,30,08,09,202,,22,08,239,,29,10,036,*7E
$GLGSV,2,1,08,82,40,104,25,73,14,289,25,80,46,354,25,69,16,195,24*6B
$GLGSV,2,2,08,81,24,045,29,71,22,316,34,79,23,059,,83,18,156,*6E
$GAGSV,1,1,0,*74
$PQGSV,1,1,03,193,19,175,28,194,67,049,32,195,54,133,26,0,5*6B
$PQGSV,1,1,0,*73
$GNGSA,A,3,03,08,09,14,16,21,23,26,27,29,31,32,0.8,0.5,0.6,1*31
$GNGSA,A,3,69,70,73,79,80,81,82,,,,,,0.8,0.5,0.6,2*30
$PQGSA,A,2,01,02,03,,,,,,,,,,0.8,0.5,0.6,5*37
$GNVTG,292.4,T,292.4,M,1.9,N,3.5,K,A*33
$GNRMC,102710.00,A,3117.274428,N,12129.810954,E,1.9,292.4,161219,4.6,W,A*34
$GNGGA,102710.00,3117.274428,N,12129.810954,E,1,12,0.5,-0.2,M,9.7,M,,*63
$GPGSV,4,1,13,04,00,000,37,09,07,320,30,14,35,160,35,16,65,298,38*7C
$GPGSV,4,2,13,21,12,092,24,23,30,309,36,26,61,009,31,27,38,187,33*75
$GPGSV,4,3,13,31,47,080,28,08,09,202,,22,08,239,,29,10,036,*71
$GPGSV,4,4,13,32,08,154,*42
$GLGSV,2,1,07,70,40,258,29,82,40,104,29,80,46,354,35,81,24,045,24*60
$GLGSV,2,2,07,71,22,316,36,79,23,059,,83,18,156,*56
$GAGSV,1,1,0,*74
$PQGSV,1,1,03,193,19,175,27,194,67,049,30,195,54,133,31,0,5*60
$PQGSV,1,1,0,*73
$GNGSA,A,3,03,09,14,16,21,23,26,27,29,31,32,,0.8,0.5,0.6,1*39
$GNGSA,A,3,69,70,73,79,80,81,82,,,,,,0.8,0.5,0.6,2*30
$PQGSA,A,2,01,02,03,,,,,,,,,,0.8,0.5,0.6,5*37
$GNVTG,290.6,T,290.6,M,3.6,N,6.7,K,A*39
$GNRMC,102711.00,A,3117.274926,N,12129.810125,E,3.6,290.6,161219,4.6,W,A*35
$GNGGA,102711.00,3117.274926,N,12129.810125,E,1,12,0.5,-0.3,M,9.7,M,,*6E
$GPGSV,4,1,14,04,00,000,37,09,07,320,25,14,35,160,31,16,65,298,28*7A
$GPGSV,4,2,14,21,12,092,24,23,30,309,36,26,61,009,30,27,38,187,29*78
$GPGSV,4,3,14,31,47,080,32,03,12,258,,08,09,202,,22,08,239,*7D
$GPGSV,4,4,14,29,10,036,,32,08,154,*7A
$GLGSV,2,1,08,70,40,258,26,82,40,104,28,80,46,354,34,83,18,156,26*6C
$GLGSV,2,2,08,81,24,045,29,73,14,289,,79,23,059,,69,16,195,*6C
$GAGSV,1,1,0,*74
$PQGSV,1,1,03,193,19,175,24,194,67,049,30,195,54,133,30,0,5*62
$PQGSV,1,1,0,*73
$GNGSA,A,3,03,09,14,16,21,23,26,27,31,32,,,0.9,0.6,0.7,1*31
$GNGSA,A,3,69,70,73,79,80,81,82,83,,,,,0.9,0.6,0.7,2*38
$PQGSA,A,2,01,02,03,,,,,,,,,,0.9,0.6,0.7,5*34
$GNVTG,304.5,T,304.5,M,2.3,N,4.3,K,A*3B
$GNRMC,102712.00,A,3117.275512,N,12129.809315,E,2.3,304.5,161219,4.6,W,A*3E
$GNGGA,102712.00,3117.275512,N,12129.809315,E,1,12,0.6,-0.6,M,9.7,M,,*68
$GPGSV,4,1,13,04,00,000,37,09,07,320,29,14,35,160,33,16,65,298,35*7F
$GPGSV,4,2,13,23,30,309,34,26,61,009,37,27,38,187,29,31,47,080,31*7C
$GPGSV,4,3,13,32,08,154,25,03,12,258,,08,09,202,,22,08,239,*7C
$GPGSV,4,4,13,29,10,036,*44
$GLGSV,2,1,08,70,40,258,25,82,40,104,26,80,46,354,34,79,23,059,24*60
$GLGSV,2,2,08,81,24,045,25,71,22,316,33,73,14,289,,69,16,195,*61
$GAGSV,1,1,0,*74
$PQGSV,1,1,03,193,19,175,26,194,67,049,27,195,54,133,30,0,5*66
$PQGSV,1,1,0,*73
$GNGSA,A,3,03,09,14,16,21,23,26,27,31,32,,,0.9,0.6,0.7,1*31
$GNGSA,A,3,69,70,73,79,80,81,82,83,,,,,0.9,0.6,0.7,2*38
$PQGSA,A,2,01,02,03,,,,,,,,,,0.9,0.6,0.7,5*34
$GNVTG,298.2,T,298.2,M,2.8,N,5.2,K,A*30
$GNRMC,102713.00,A,3117.276070,N,12129.808451,E,2.8,298.2,161219,4.6,W,A*33
$GNGGA,102713.00,3117.276070,N,12129.808451,E,1,12,0.6,1.1,M,9.7,M,,*46
$GPGSV,4,1,13,03,12,258,23,04,00,000,37,09,07,320,28,14,35,160,34*76
$GPGSV,4,2,13,16,65,298,32,21,12,092,24,23,30,309,30,26,61,009,35*71
$GPGSV,4,3,13,27,38,187,31,31,47,080,30,08,09,202,,22,08,239,*75
$GPGSV,4,4,13,29,10,036,*44
$GLGSV,3,1,09,70,40,258,27,82,40,104,29,73,14,289,29,80,46,354,29*6D
$GLGSV,3,2,09,79,23,059,28,83,18,156,23,81,24,045,30,71,22,316,36*6F
$GLGSV,3,3,09,69,16,195,*59
$GAGSV,1,1,0,*74
