# 2019 12 05 18:33:19
#
# Version: 10 Manufacturer: Google Make: Pixel 2 XL
#
$GPGSV,3,1,11,14,54,154,33,16,57,258,36,21,04,108,32,22,16,253,19*74
$GPGSV,3,2,11,23,18,316,21,26,71,330,34,27,20,187,37,29,23,046,28*7D
$GPGSV,3,3,11,31,54,054,35,32,24,151,31,03,18,275,*47
$GLGSV,2,1,08,78,12,277,20,66,37,205,29,86,29,073,23,77,44,326,27*68
$GLGSV,2,2,08,76,32,039,23,87,20,137,34,85,03,023,15,67,47,284,29*65
$GAGSV,1,1,01,07,28,170,35*54
$PQGSV,1,1,03,193,26,175,36,194,68,043,36,195,47,136,36,0,5*6F
$PQGSV,4,1,16,01,47,146,31,02,34,233,28,03,49,199,30,04,34,122,32,0,4*68
$PQGSV,4,2,16,06,66,172,29,07,72,298,26,09,75,281,22,10,48,258,30,0,4*67
$PQGSV,4,3,16,11,05,181,22,12,35,136,28,14,31,213,30,16,71,181,31,0,4*62
$PQGSV,4,4,16,24,59,009,29,25,30,293,27,26,27,068,27,05,13,253,,0,4*64
$GNGSA,A,3,03,14,16,21,22,23,26,27,29,31,32,,0.8,0.6,0.6,1*33
$GNGSA,A,3,66,67,77,78,87,,,,,,,,0.8,0.6,0.6,2*3B
$GNGSA,A,2,07,,,,,,,,,,,,0.8,0.6,0.6,3*3D
$PQGSA,A,2,01,02,03,,,,,,,,,,0.8,0.6,0.6,5*34
$PQGSA,A,3,01,02,03,04,06,07,09,10,11,12,14,16,0.8,0.6,0.6,4*38
$GNVTG,,T,,M,0.0,N,0.0,K,A*3D
$GNRMC,103319.00,A,3116.963084,N,12129.950362,E,0.0,,051219,4.5,W,A*16
$GNGGA,103319.00,3116.963084,N,12129.950362,E,1,12,0.6,3.7,M,9.7,M,,*43
$GPGSV,3,1,11,14,54,154,34,16,57,258,38,21,04,108,29,22,16,253,19*77
$GPGSV,3,2,11,23,18,316,24,26,71,330,35,27,20,187,32,29,23,046,33*76
$GPGSV,3,3,11,31,54,054,31,32,24,151,36,03,18,275,*44
$GLGSV,2,1,08,78,12,277,20,66,37,205,33,86,29,073,31,77,44,326,27*60
$GLGSV,2,2,08,76,32,039,33,87,20,137,34,85,03,023,25,67,47,284,34*6B
$GAGSV,1,1,0,*74
$PQGSV,1,1,03,193,26,175,28,194,68,043,35,195,47,136,35,0,5*60
$PQGSV,1,1,0,*73
$GNGSA,A,3,03,14,16,21,22,23,26,27,29,31,32,,0.8,0.6,0.6,1*33
$GNGSA,A,3,66,67,77,78,87,,,,,,,,0.8,0.6,0.6,2*3B
$GNGSA,A,2,07,,,,,,,,,,,,0.8,0.6,0.6,3*3D
$PQGSA,A,2,01,02,03,,,,,,,,,,0.8,0.6,0.6,5*34
$PQGSA,A,3,01,02,03,04,06,07,09,10,11,12,14,16,0.8,0.6,0.6,4*38
$GNVTG,,T,,M,0.0,N,0.0,K,A*3D
$GNRMC,103320.00,A,3116.963084,N,12129.950381,E,0.0,,051219,4.5,W,A*11
$GNGGA,103320.00,3116.963084,N,12129.950381,E,1,12,0.6,3.7,M,9.7,M,,*44
$GPGSV,3,1,11,14,54,154,40,16,57,258,32,21,04,108,31,23,18,316,27*75
$GPGSV,3,2,11,26,71,330,32,27,20,187,38,29,23,046,34,31,54,054,38*7F
$GPGSV,3,3,11,32,24,151,42,03,18,275,,22,16,253,*44
$GLGSV,2,1,06,78,12,277,23,66,37,205,38,86,29,073,28,76,32,039,26*62
$GLGSV,2,2,06,87,20,137,30,67,47,284,33*64
$GAGSV,1,1,0,*74
$PQGSV,1,1,03,193,26,175,36,194,68,043,32,195,47,136,36,0,5*6B
$PQGSV,1,1,0,*73
$GNGSA,A,3,03,14,16,21,22,23,26,27,29,31,32,,0.8,0.6,0.6,1*33
$GNGSA,A,3,66,67,77,78,87,,,,,,,,0.8,0.6,0.6,2*3B
$GNGSA,A,2,07,,,,,,,,,,,,0.8,0.6,0.6,3*3D
$PQGSA,A,2,01,02,03,,,,,,,,,,0.8,0.6,0.6,5*34
$PQGSA,A,3,01,02,04,06,07,09,10,11,12,14,16,,0.8,0.6,0.6,4*3B
$GNVTG,,T,,M,0.0,N,0.0,K,A*3D
$GNRMC,103321.00,A,3116.963084,N,12129.950388,E,0.0,,051219,4.5,W,A*19
$GNGGA,103321.00,3116.963084,N,12129.950388,E,1,12,0.6,3.7,M,9.7,M,,*4C
$GPGSV,3,1,11,03,18,275,27,14,54,154,38,16,57,258,38,21,04,108,33*74
$GPGSV,3,2,11,23,18,316,27,26,71,330,33,27,20,187,30,29,23,046,35*77
$GPGSV,3,3,11,31,54,054,33,32,24,151,39,22,16,253,*40
$GLGSV,2,1,07,66,37,205,37,86,29,073,37,77,44,326,30,76,32,039,25*6A
$GLGSV,2,2,07,87,20,137,43,67,47,284,35,85,03,023,*58
$GAGSV,1,1,0,*74
$PQGSV,1,1,03,193,26,175,36,194,68,043,32,195,47,136,36,0,5*6B
$PQGSV,1,1,0,*73
$GNGSA,A,3,03,14,16,21,22,23,26,27,29,31,32,,0.8,0.6,0.6,1*33
$GNGSA,A,3,66,67,77,78,87,,,,,,,,0.8,0.6,0.6,2*3B
$GNGSA,A,2,07,,,,,,,,,,,,0.8,0.6,0.6,3*3D
$PQGSA,A,2,01,02,03,,,,,,,,,,0.8,0.6,0.6,5*34
$PQGSA,A,3,01,02,04,06,07,09,10,11,12,14,16,,0.8,0.6,0.6,4*3B
$GNVTG,198.9,T,198.9,M,1.6,N,3.0,K,A*39
$GNRMC,103322.00,A,3116.962767,N,12129.950418,E,1.6,198.9,051219,4.5,W,A*3F
$GNGGA,103322.00,3116.962767,N,12129.950418,E,1,12,0.6,4.0,M,9.7,M,,*4A
$GPGSV,3,1,10,14,54,154,39,16,57,258,42,21,04,108,33,23,18,316,38*71
$GPGSV,3,2,10,26,71,330,36,27,20,187,39,29,23,046,32,31,54,054,35*70
$GPGSV,3,3,10,32,24,151,39,22,16,253,*73
$GLGSV,2,1,08,66,37,205,38,86,29,073,35,77,44,326,30,76,32,039,33*6F
$GLGSV,2,2,08,87,20,137,37,67,47,284,39,78,12,277,,85,03,023,*66
$GAGSV,1,1,0,*74
$PQGSV,1,1,03,193,26,175,40,194,68,043,38,195,47,136,37,0,5*61
$PQGSV,1,1,0,*73
$GNGSA,A,3,03,14,16,21,23,26,27,29,31,32,,,0.8,0.6,0.6,1*33
$GNGSA,A,3,66,67,77,78,87,,,,,,,,0.8,0.6,0.6,2*3B
$GNGSA,A,2,07,,,,,,,,,,,,0.8,0.6,0.6,3*3D
$PQGSA,A,2,01,02,03,,,,,,,,,,0.8,0.6,0.6,5*34
$PQGSA,A,3,01,04,06,07,09,10,11,12,14,16,,,0.8,0.6,0.6,4*39
$GNVTG,198.9,T,198.9,M,1.7,N,3.2,K,A*3A
$GNRMC,103323.00,A,3116.962256,N,12129.950267,E,1.7,198.9,051219,4.5,W,A*36
$GNGGA,103323.00,3116.962256,N,12129.950267,E,1,12,0.6,4.2,M,9.7,M,,*40
$GPGSV,3,1,10,14,54,154,43,16,57,258,38,21,04,108,38,26,71,330,36*7A
$GPGSV,3,2,10,27,20,187,36,29,23,046,31,31,54,054,37,32,24,151,42*7D
$GPGSV,3,3,10,03,18,275,,22,16,253,*71
$GLGSV,2,1,07,78,12,277,27,66,37,205,39,86,29,073,40,76,32,039,28*66
$GLGSV,2,2,07,87,20,137,44,67,47,284,34,85,03,023,*5E
$GAGSV,1,1,0,*74
$PQGSV,1,1,03,193,26,175,37,194,68,043,34,195,47,136,42,0,5*6F
$PQGSV,1,1,0,*73
$GNGSA,A,3,03,14,16,21,23,26,27,29,31,32,,,0.8,0.6,0.6,1*33
$GNGSA,A,3,66,67,77,78,87,,,,,,,,0.8,0.6,0.6,2*3B
$GNGSA,A,2,07,,,,,,,,,,,,0.8,0.6,0.6,3*3D
$PQGSA,A,2,01,02,03,,,,,,,,,,0.8,0.6,0.6,5*34
$PQGSA,A,3,01,04,06,07,09,10,11,12,14,16,,,0.8,0.6,0.6,4*39
$GNVTG,199.0,T,199.0,M,1.9,N,3.6,K,A*30
$GNRMC,103324.00,A,3116.961768,N,12129.950048,E,1.9,199.0,051219,4.5,W,A*33
$GNGGA,103324.00,3116.961768,N,12129.950048,E,1,12,0.6,1.8,M,9.7,M,,*4C
$GPGSV,3,1,11,14,54,154,38,16,57,258,38,21,04,108,34,23,18,316,31*72
$GPGSV,3,2,11,26,71,330,38,27,20,187,37,29,23,046,28,31,54,054,38*77
$GPGSV,3,3,11,32,24,151,43,03,18,275,,22,16,253,*45
$GLGSV,2,1,08,78,12,277,25,66,37,205,39,86,29,073,36,77,44,326,27*68
$GLGSV,2,2,08,76,32,039,30,87,20,137,43,67,47,284,33,85,03,023,*68
$GAGSV,1,1,0,*74
$PQGSV,1,1,03,193,26,175,35,194,68,043,37,195,47,136,34,0,5*6F
$PQGSV,1,1,0,*73
$GNGSA,A,3,03,14,16,21,23,26,27,29,31,32,,,0.9,0.7,0.7,1*32
$GNGSA,A,3,66,67,77,78,87,,,,,,,,0.9,0.7,0.7,2*3A
$PQGSA,A,2,01,02,03,,,,,,,,,,0.9,0.7,0.7,5*35
$GNVTG,199.3,T,199.3,M,2.7,N,5.0,K,A*3D
$GNRMC,103325.00,A,3116.961254,N,12129.949448,E,2.7,199.3,051219,4.5,W,A*3A
$GNGGA,103325.00,3116.961254,N,12129.949448,E,1,12,0.7,0.4,M,9.7,M,,*47
$GPGSV,3,1,11,14,54,154,40,16,57,258,35,21,04,108,37,23,18,316,29*7A
$GPGSV,3,2,11,26,71,330,39,27,20,187,39,29,23,046,30,31,54,054,37*7E
$GPGSV,3,3,11,32,24,151,39,03,18,275,,22,16,253,*48
$GLGSV,2,1,07,66,37,205,39,86,29,073,40,77,44,326,30,76,32,039,35*65
$GLGSV,2,2,07,87,20,137,43,67,47,284,36,85,03,023,*5B
$GAGSV,1,1,0,*74
$PQGSV,1,1,03,193,26,175,38,194,68,043,38,195,47,136,34,0,5*6D
$PQGSV,1,1,0,*73
$GNGSA,A,3,03,14,16,21,23,26,27,29,31,32,,,0.9,0.7,0.7,1*32
$GNGSA,A,3,66,67,77,78,87,,,,,,,,0.9,0.7,0.7,2*3A
$PQGSA,A,2,01,02,03,,,,,,,,,,0.9,0.7,0.7,5*35
$GNVTG,203.6,T,203.6,M,2.7,N,5.0,K,A*3D
$GNRMC,103326.00,A,3116.960766,N,12129.948693,E,2.7,203.6,051219,4.5,W,A*3C
$GNGGA,103326.00,3116.960766,N,12129.948693,E,1,12,0.7,1.0,M,9.7,M,,*41
$GPGSV,3,1,11,14,54,154,41,16,57,258,36,21,04,108,37,23,18,316,29*78
$GPGSV,3,2,11,26,71,330,39,27,20,187,39,29,23,046,31,31,54,054,37*7F
$GPGSV,3,3,11,32,24,151,42,03,18,275,,22,16,253,*44
$GLGSV,2,1,08,66,37,205,41,86,29,073,35,77,44,326,33,76,32,039,31*60
$GLGSV,2,2,08,87,20,137,35,67,47,284,35,78,12,277,,85,03,023,*68
$GAGSV,1,1,0,*74
$PQGSV,1,1,03,193,26,175,32,194,68,043,36,195,47,136,38,0,5*65
$PQGSV,1,1,0,*73
$GNGSA,A,3,03,14,16,21,23,26,27,29,31,32,,,0.9,0.7,0.7,1*32
$GNGSA,A,3,66,67,77,78,87,,,,,,,,0.9,0.7,0.7,2*3A
$PQGSA,A,2,01,02,03,,,,,,,,,,0.9,0.7,0.7,5*35
$GNVTG,203.6,T,203.6,M,2.0,N,3.6,K,A*3A
$GNRMC,103327.00,A,3116.960289,N,12129.948129,E,2.0,203.6,051219,4.5,W,A*38
$GNGGA,103327.00,3116.960289,N,12129.948129,E,1,12,0.7,0.7,M,9.7,M,,*44
$GPGSV,3,1,11,14,54,154,39,16,57,258,38,21,04,108,31,23,18,316,29*7F
$GPGSV,3,2,11,26,71,330,37,27,20,187,38,29,23,046,27,31,54,054,35*75
$GPGSV,3,3,11,32,24,151,39,03,18,275,,22,16,253,*48
$GLGSV,2,1,08,66,37,205,42,86,29,073,35,77,44,326,30,76,32,039,28*68
$GLGSV,2,2,08,87,20,137,35,67,47,284,38,78,12,277,,85,03,023,*65
$GAGSV,1,1,0,*74
$PQGSV,1,1,03,193,26,175,39,194,68,043,34,195,47,136,34,0,5*60
$PQGSV,1,1,0,*73
$GNGSA,A,3,14,16,21,23,26,27,29,31,32,,,,1.0,0.7,0.7,1*39
$GNGSA,A,3,66,67,77,78,87,,,,,,,,1.0,0.7,0.7,2*32
$PQGSA,A,2,01,02,03,,,,,,,,,,1.0,0.7,0.7,5*3D
$GNVTG,203.1,T,203.1,M,2.0,N,3.7,K,A*3B
$GNRMC,103328.00,A,3116.959883,N,12129.947706,E,2.0,203.1,051219,4.5,W,A*3E
$GNGGA,103328.00,3116.959883,N,12129.947706,E,1,12,0.7,0.7,M,9.7,M,,*45
$GPGSV,3,1,10,14,54,154,42,16,57,258,39,21,04,108,30,26,71,330,41*72
$GPGSV,3,2,10,27,20,187,40,29,23,046,31,31,54,054,36,32,24,151,45*7A
$GPGSV,3,3,10,03,18,275,,22,16,253,*71
$GLGSV,2,1,07,66,37,205,40,86,29,073,29,77,44,326,32,87,20,137,37*66
$GLGSV,2,2,07,67,47,284,39,78,12,277,,85,03,023,*55
$GAGSV,1,1,0,*74
$PQGSV,1,1,03,193,26,175,40,194,68,043,36,195,47,136,40,0,5*6F
$PQGSV,1,1,0,*73
$GNGSA,A,3,14,16,21,23,26,27,29,31,32,,,,1.0,0.7,0.7,1*39
$GNGSA,A,3,66,67,77,78,87,,,,,,,,1.0,0.7,0.7,2*32
$PQGSA,A,2,01,02,03,,,,,,,,,,1.0,0.7,0.7,5*3D
$GNVTG,203.1,T,203.1,M,1.9,N,3.5,K,A*33
$GNRMC,103329.00,A,3116.959458,N,12129.947373,E,1.9,203.1,051219,4.5,W,A*39
$GNGGA,103329.00,3116.959458,N,12129.947373,E,1,12,0.7,-1.3,M,9.7,M,,*60
$GPGSV,3,1,11,14,54,154,40,16,57,258,38,21,04,108,35,26,71,330,42*76
$GPGSV,3,2,11,27,20,187,41,29,23,046,30,31,54,054,35,32,24,151,44*79
$GPGSV,3,3,11,03,18,275,,22,16,253,,23,18,316,*4C
$GLGSV,2,1,07,66,37,205,41,77,44,326,34,76,32,039,32,87,20,137,41*61
$GLGSV,2,2,07,67,47,284,41,78,12,277,,85,03,023,*5A
$GAGSV,1,1,0,*74
$PQGSV,1,1,03,193,26,175,38,194,68,043,36,195,47,136,40,0,5*60
$PQGSV,1,1,0,*73
$GNGSA,A,3,14,16,21,23,26,27,29,31,32,,,,1.0,0.7,0.7,1*39
$GNGSA,A,3,66,67,77,78,87,,,,,,,,1.0,0.7,0.7,2*32
$PQGSA,A,2,01,02,03,,,,,,,,,,1.0,0.7,0.7,5*3D
$GNVTG,207.4,T,207.4,M,2.2,N,4.0,K,A*39
$GNRMC,103330.00,A,3116.959017,N,12129.946916,E,2.2,207.4,051219,4.5,W,A*3F
$GNGGA,103330.00,3116.959017,N,12129.946916,E,1,12,0.7,-1.8,M,9.7,M,,*64
$GPGSV,3,1,11,14,54,154,39,16,57,258,38,21,04,108,38,26,71,330,41*76
$GPGSV,3,2,11,27,20,187,37,29,23,046,34,31,54,054,35,32,24,151,43*7B
$GPGSV,3,3,11,03,18,275,,22,16,253,,23,18,316,*4C
$GLGSV,2,1,07,66,37,205,43,86,29,073,32,77,44,326,35,87,20,137,39*66
$GLGSV,2,2,07,67,47,284,40,78,12,277,,85,03,023,*5B
$GAGSV,1,1,0,*74
$PQGSV,1,1,03,193,26,175,40,194,68,043,38,195,47,136,34,0,5*62
$PQGSV,1,1,0,*73
$GNGSA,A,3,14,16,21,23,26,27,29,31,32,,,,1.0,0.7,0.7,1*39
$GNGSA,A,3,66,67,77,87,,,,,,,,,1.0,0.7,0.7,2*3D
$PQGSA,A,2,01,02,03,,,,,,,,,,1.0,0.7,0.7,5*3D
$GNVTG,207.3,T,207.3,M,2.1,N,3.8,K,A*35
$GNRMC,103331.00,A,3116.958554,N,12129.946473,E,2.1,207.3,051219,4.5,W,A*37
$GNGGA,103331.00,3116.958554,N,12129.946473,E,1,12,0.7,-2.2,M,9.7,M,,*61
$GPGSV,3,1,10,14,54,154,37,16,57,258,41,21,04,108,31,26,71,330,44*7B
$GPGSV,3,2,10,27,20,187,35,31,54,054,39,32,24,151,40,03,18,275,*72
$GPGSV,3,3,10,22,16,253,,23,18,316,*77
$GLGSV,2,1,08,66,37,205,42,86,29,073,33,77,44,326,37,76,32,039,34*64
$GLGSV,2,2,08,87,20,137,41,67,47,284,40,78,12,277,,85,03,023,*69
$GAGSV,1,1,0,*74
$PQGSV,1,1,03,193,26,175,38,194,68,043,35,195,47,136,32,0,5*66
$PQGSV,1,1,0,*73
$GNGSA,A,3,14,16,21,23,26,27,29,31,32,,,,1.0,0.7,0.7,1*39
$GNGSA,A,3,66,67,77,87,,,,,,,,,1.0,0.7,0.7,2*3D
$PQGSA,A,2,01,02,03,,,,,,,,,,1.0,0.7,0.7,5*3D
$GNVTG,204.4,T,204.4,M,2.4,N,4.4,K,A*3B
$GNRMC,103332.00,A,3116.957919,N,12129.946080,E,2.4,204.4,051219,4.5,W,A*37
$GNGGA,103332.00,3116.957919,N,12129.946080,E,1,12,0.7,-1.6,M,9.7,M,,*67
$GPGSV,3,1,10,14,54,154,38,16,57,258,39,26,71,330,44,27,20,187,35*78
$GPGSV,3,2,10,29,23,046,35,31,54,054,38,32,24,151,34,03,18,275,*71
$GPGSV,3,3,10,22,16,253,,23,18,316,*77
$GLGSV,2,1,08,66,37,205,36,86,29,073,38,77,44,326,31,76,32,039,28*67
$GLGSV,2,2,08,87,20,137,41,67,47,284,39,78,12,277,,85,03,023,*67
$GAGSV,1,1,0,*74
$PQGSV,1,1,03,193,26,175,36,194,68,043,34,195,47,136,40,0,5*6C
$PQGSV,1,1,0,*73
$GNGSA,A,3,14,16,21,23,26,27,29,31,32,,,,1.0,0.7,0.7,1*39
$GNGSA,A,3,66,67,77,87,,,,,,,,,1.0,0.7,0.7,2*3D
$PQGSA,A,2,01,02,03,,,,,,,,,,1.0,0.7,0.7,5*3D
$GNVTG,204.2,T,204.2,M,2.8,N,5.2,K,A*30
$GNRMC,103333.00,A,3116.957063,N,12129.945704,E,2.8,204.2,051219,4.5,W,A*30
$GNGGA,103333.00,3116.957063,N,12129.945704,E,1,12,0.7,-0.9,M,9.7,M,,*64
$GPGSV,3,1,10,14,54,154,37,16,57,258,35,21,04,108,33,26,71,330,41*7F
$GPGSV,3,2,10,27,20,187,35,29,23,046,40,31,54,054,35,03,18,275,*74
$GPGSV,3,3,10,22,16,253,,23,18,316,*77
$GLGSV,2,1,08,66,37,205,38,86,29,073,39,77,44,326,31,76,32,039,38*69
$GLGSV,2,2,08,87,20,137,40,67,47,284,38,78,12,277,,85,03,023,*67
$GAGSV,1,1,0,*74
$PQGSV,1,1,03,193,26,175,35,194,68,043,34,195,47,136,27,0,5*6E
$PQGSV,1,1,0,*73
$GNGSA,A,3,14,16,21,26,27,29,31,32,,,,,1.2,0.8,0.8,1*3A
$GNGSA,A,3,66,67,77,87,,,,,,,,,1.2,0.8,0.8,2*3F
$PQGSA,A,2,01,02,03,,,,,,,,,,1.2,0.8,0.8,5*3F
$GNVTG,203.2,T,203.2,M,2.3,N,4.3,K,A*3B
$GNRMC,103334.00,A,3116.956213,N,12129.945378,E,2.3,203.2,051219,4.5,W,A*30
$GNGGA,103334.00,3116.956213,N,12129.945378,E,1,12,0.8,0.8,M,9.7,M,,*4B
$GPGSV,3,1,11,14,54,154,33,16,57,258,39,21,04,108,31,26,71,330,40*75
$GPGSV,3,2,11,27,20,187,38,29,23,046,41,31,54,054,40,32,24,151,36*76
$GPGSV,3,3,11,03,18,275,,22,16,253,,23,18,316,*4C
$GLGSV,2,1,07,66,37,205,40,86,29,073,39,77,44,326,36,76,32,039,36*60
$GLGSV,2,2,07,67,47,284,41,78,12,277,,85,03,023,*5A
$GAGSV,1,1,0,*74
$PQGSV,1,1,03,193,26,175,33,194,68,043,35,195,47,136,34,0,5*6B
$PQGSV,1,1,0,*73
$GNGSA,A,3,14,16,21,26,27,29,31,32,,,,,1.2,0.8,0.8,1*3A
$GNGSA,A,3,66,67,77,87,,,,,,,,,1.2,0.8,0.8,2*3F
$PQGSA,A,2,01,02,03,,,,,,,,,,1.2,0.8,0.8,5*3F
$GNVTG,203.3,T,203.3,M,2.7,N,5.0,K,A*3D
$GNRMC,103335.00,A,3116.955411,N,12129.944994,E,2.7,203.3,051219,4.5,W,A*3A
$GNGGA,103335.00,3116.955411,N,12129.944994,E,1,12,0.8,0.0,M,9.7,M,,*4C
$GPGSV,3,1,11,14,54,154,36,16,57,258,40,21,04,108,34,26,71,330,43*78
$GPGSV,3,2,11,27,20,187,29,29,23,046,43,31,54,054,41,32,24,151,31*72
$GPGSV,3,3,11,03,18,275,,22,16,253,,23,18,316,*4C
$GLGSV,2,1,08,66,37,205,31,86,29,073,39,77,44,326,34,76,32,039,39*64
$GLGSV,2,2,08,87,20,137,25,67,47,284,41,78,12,277,,85,03,023,*6A
$GAGSV,1,1,0,*74
$PQGSV,1,1,02,194,68,043,37,195,47,136,36,0,5*66
$PQGSV,1,1,0,*73
$GNGSA,A,3,14,16,21,26,27,29,31,32,,,,,1.2,0.8,0.8,1*3A
$GNGSA,A,3,66,67,77,87,,,,,,,,,1.2,0.8,0.8,2*3F
$PQGSA,A,2,01,02,03,,,,,,,,,,1.2,0.8,0.8,5*3F
$GNVTG,202.3,T,202.3,M,2.5,N,4.6,K,A*38
$GNRMC,103336.00,A,3116.954504,N,12129.944699,E,2.5,202.3,051219,4.5,W,A*3C
$GNGGA,103336.00,3116.954504,N,12129.944699,E,1,12,0.8,0.8,M,9.7,M,,*41
$GPGSV,3,1,11,14,54,154,29,16,57,258,42,21,04,108,34,26,71,330,39*79
$GPGSV,3,2,11,27,20,187,36,29,23,046,40,31,54,054,42,32,24,151,36*7B
$GPGSV,3,3,11,03,18,275,,22,16,253,,23,18,316,*4C
$GLGSV,2,1,08,66,37,205,37,86,29,073,42,77,44,326,37,76,32,039,38*6C
$GLGSV,2,2,08,87,20,137,33,67,47,284,41,78,12,277,,85,03,023,*6D
$GAGSV,1,1,0,*74
$PQGSV,1,1,03,193,26,175,29,194,68,043,39,195,47,136,36,0,5*6E
$PQGSV,1,1,0,*73
$GNGSA,A,3,14,16,21,26,27,29,31,32,,,,,1.2,0.8,0.8,1*3A
$GNGSA,A,3,66,67,77,87,,,,,,,,,1.2,0.8,0.8,2*3F
$PQGSA,A,2,01,02,03,,,,,,,,,,1.2,0.8,0.8,5*3F
$GNVTG,208.3,T,208.3,M,2.7,N,5.0,K,A*3D
$GNRMC,103337.00,A,3116.953627,N,12129.944360,E,2.7,208.3,051219,4.5,W,A*33
$GNGGA,103337.00,3116.953627,N,12129.944360,E,1,12,0.8,-0.6,M,9.7,M,,*65
$GPGSV,3,1,10,14,54,154,40,16,57,258,40,21,04,108,36,26,71,330,42*7B
$GPGSV,3,2,10,29,23,046,42,31,54,054,42,32,24,151,32,03,18,275,*7A
$GPGSV,3,3,10,22,16,253,,23,18,316,*77
$GLGSV,2,1,06,86,29,073,39,77,44,326,34,76,32,039,38,67,47,284,41*63
$GLGSV,2,2,06,78,12,277,,85,03,023,*62
$GAGSV,1,1,0,*74
$PQGSV,1,1,02,194,68,043,39,195,47,136,36,0,5*68
$PQGSV,1,1,0,*73
$GNGSA,A,3,14,16,21,26,27,29,31,32,,,,,1.2,0.8,0.8,1*3A
$GNGSA,A,3,66,67,77,87,,,,,,,,,1.2,0.8,0.8,2*3F
$PQGSA,A,2,01,02,03,,,,,,,,,,1.2,0.8,0.8,5*3F
$GNVTG,206.9,T,206.9,M,2.5,N,4.7,K,A*39
$GNRMC,103338.00,A,3116.952701,N,12129.944112,E,2.5,206.9,051219,4.5,W,A*39
$GNGGA,103338.00,3116.952701,N,12129.944112,E,1,12,0.8,0.0,M,9.7,M,,*42
$GPGSV,3,1,11,14,54,154,40,16,57,258,41,21,04,108,34,26,71,330,44*7F
$GPGSV,3,2,11,29,23,046,42,31,54,054,42,32,24,151,34,03,18,275,*7D
$GPGSV,3,3,11,22,16,253,,23,18,316,,27,20,187,*4F
$GLGSV,2,1,08,66,37,205,36,86,29,073,39,77,44,326,36,76,32,039,39*61
$GLGSV,2,2,08,87,20,137,38,67,47,284,41,78,12,277,,85,03,023,*66
$GAGSV,1,1,0,*74
$PQGSV,1,1,03,193,26,175,31,194,68,043,40,195,47,136,37,0,5*68
$PQGSV,1,1,0,*73
$GNGSA,A,3,14,16,21,26,27,29,31,32,,,,,1.2,0.8,0.8,1*3A
$GNGSA,A,3,66,67,77,87,,,,,,,,,1.2,0.8,0.8,2*3F
$PQGSA,A,2,01,02,03,,,,,,,,,,1.2,0.8,0.8,5*3F
$GNVTG,212.5,T,212.5,M,2.7,N,5.0,K,A*3D
$GNRMC,103339.00,A,3116.951787,N,12129.943847,E,2.7,212.5,051219,4.5,W,A*30
$GNGGA,103339.00,3116.951787,N,12129.943847,E,1,12,0.8,1.0,M,9.7,M,,*41
$GPGSV,3,1,11,14,54,154,39,16,57,258,39,21,04,108,36,26,71,330,43*7B
$GPGSV,3,2,11,29,23,046,42,31,54,054,42,32,24,151,36,03,18,275,*7F
$GPGSV,3,3,11,22,16,253,,23,18,316,,27,20,187,*4F
$GLGSV,2,1,08,66,37,205,33,86,29,073,38,77,44,326,35,76,32,039,37*68
$GLGSV,2,2,08,87,20,137,37,67,47,284,40,78,12,277,,85,03,023,*68
$GAGSV,1,1,0,*74
$PQGSV,1,1,02,194,68,043,37,195,47,136,37,0,5*67
$PQGSV,1,1,0,*73
$GNGSA,A,3,14,16,21,26,27,29,31,32,,,,,1.2,0.8,0.8,1*3A
$GNGSA,A,3,66,67,77,87,,,,,,,,,1.2,0.8,0.8,2*3F
$PQGSA,A,2,01,02,03,,,,,,,,,,1.2,0.8,0.8,5*3F
$GNVTG,211.8,T,211.8,M,2.7,N,5.0,K,A*3D
$GNRMC,103340.00,A,3116.950991,N,12129.943457,E,2.7,211.8,051219,4.5,W,A*35
$GNGGA,103340.00,3116.950991,N,12129.943457,E,1,12,0.8,0.5,M,9.7,M,,*4E
$GPGSV,3,1,11,14,54,154,40,16,57,258,41,21,04,108,41,26,71,330,42*7B
$GPGSV,3,2,11,29,23,046,42,31,54,054,41,32,24,151,38,03,18,275,*72
$GPGSV,3,3,11,22,16,253,,23,18,316,,27,20,187,*4F
$GLGSV,2,1,08,66,37,205,38,86,29,073,32,77,44,326,34,76,32,039,40*68
$GLGSV,2,2,08,87,20,137,32,67,47,284,37,78,12,277,,85,03,023,*6D
$GAGSV,1,1,0,*74
$PQGSV,1,1,03,193,26,175,28,194,68,043,40,195,47,136,33,0,5*64
$PQGSV,1,1,0,*73
$GNGSA,A,3,14,16,21,26,27,29,31,32,,,,,1.2,0.8,0.8,1*3A
$GNGSA,A,3,66,67,77,87,,,,,,,,,1.2,0.8,0.8,2*3F
$PQGSA,A,2,01,02,03,,,,,,,,,,1.2,0.8,0.8,5*3F
$GNVTG,212.1,T,212.1,M,2.9,N,5.4,K,A*37
$GNRMC,103341.00,A,3116.950204,N,12129.943044,E,2.9,212.1,051219,4.5,W,A*31
$GNGGA,103341.00,3116.950204,N,12129.943044,E,1,12,0.8,0.0,M,9.7,M,,*4B
$GPGSV,3,1,11,14,54,154,44,16,57,258,38,21,04,108,38,26,71,330,43*7E
$GPGSV,3,2,11,29,23,046,43,31,54,054,39,32,24,151,38,03,18,275,*7C
$GPGSV,3,3,11,22,16,253,,23,18,316,,27,20,187,*4F
$GLGSV,2,1,08,66,37,205,34,86,29,073,35,77,44,326,33,76,32,039,39*6A
$GLGSV,2,2,08,87,20,137,30,67,47,284,38,78,12,277,,85,03,023,*60
$GAGSV,1,1,0,*74
$PQGSV,1,1,02,194,68,043,38,195,47,136,36,0,5*69
$PQGSV,1,1,0,*73
$GNGSA,A,3,14,16,21,26,27,29,31,32,,,,,1.2,0.8,0.8,1*3A
$GNGSA,A,3,66,67,77,87,,,,,,,,,1.2,0.8,0.8,2*3F
$PQGSA,A,2,01,02,03,,,,,,,,,,1.2,0.8,0.8,5*3F
$GNVTG,205.2,T,205.2,M,2.9,N,5.4,K,A*37
$GNRMC,103342.00,A,3116.949443,N,12129.942522,E,2.9,205.2,051219,4.5,W,A*3E
$GNGGA,103342.00,3116.949443,N,12129.942522,E,1,12,0.8,0.4,M,9.7,M,,*45
$GPGSV,3,1,11,14,54,154,41,16,57,258,35,21,04,108,42,26,71,330,42*7A
$GPGSV,3,2,11,27,20,187,34,29,23,046,40,31,54,054,42,32,24,151,30*7F
$GPGSV,3,3,11,03,18,275,,22,16,253,,23,18,316,*4C
$GLGSV,2,1,08,66,37,205,40,86,29,073,37,77,44,326,33,76,32,039,38*6A
$GLGSV,2,2,08,87,20,137,40,67,47,284,36,78,12,277,,85,03,023,*69
$GAGSV,1,1,0,*74
$PQGSV,1,1,03,193,26,175,34,194,68,043,37,195,47,136,36,0,5*6C
$PQGSV,1,1,0,*73
$GNGSA,A,3,14,16,21,26,27,29,31,32,,,,,1.2,0.8,0.8,1*3A
$GNGSA,A,3,66,67,77,87,,,,,,,,,1.2,0.8,0.8,2*3F
$PQGSA,A,2,01,02,03,,,,,,,,,,1.2,0.8,0.8,5*3F
$GNVTG,205.9,T,205.9,M,2.7,N,5.0,K,A*3D
$GNRMC,103343.00,A,3116.948723,N,12129.941943,E,2.7,205.9,051219,4.5,W,A*36
$GNGGA,103343.00,3116.948723,N,12129.941943,E,1,12,0.8,0.0,M,9.7,M,,*4C
$GPGSV,3,1,11,14,54,154,40,16,57,258,38,21,04,108,40,26,71,330,43*75
$GPGSV,3,2,11,27,20,187,32,29,23,046,42,31,54,054,41,32,24,151,31*79
$GPGSV,3,3,11,03,18,275,,22,16,253,,23,18,316,*4C
$GLGSV,2,1,08,66,37,205,36,86,29,073,39,77,44,326,34,76,32,039,38*62
$GLGSV,2,2,08,87,20,137,33,67,47,284,33,78,12,277,,85,03,023,*68
$GAGSV,1,1,0,*74
$PQGSV,1,1,03,193,26,175,32,194,68,043,38,195,47,136,36,0,5*65
$PQGSV,1,1,0,*73
$GNGSA,A,3,14,16,21,26,27,29,31,32,,,,,1.2,0.8,0.8,1*3A
$GNGSA,A,3,66,67,77,87,,,,,,,,,1.2,0.8,0.8,2*3F
$PQGSA,A,2,01,02,03,,,,,,,,,,1.2,0.8,0.8,5*3F
$GNVTG,204.5,T,204.5,M,2.5,N,4.7,K,A*39
$GNRMC,103344.00,A,3116.948082,N,12129.941407,E,2.5,204.5,051219,4.5,W,A*3F
$GNGGA,103344.00,3116.948082,N,12129.941407,E,1,12,0.8,-0.7,M,9.7,M,,*60
$GPGSV,3,1,10,14,54,154,36,16,57,258,37,21,04,108,35,26,71,330,43*78
$GPGSV,3,2,10,29,23,046,40,31,54,054,43,32,24,151,40,03,18,275,*7C
$GPGSV,3,3,10,22,16,253,,23,18,316,*77
$GLGSV,2,1,08,66,37,205,43,86,29,073,39,77,44,326,33,76,32,039,36*69
$GLGSV,2,2,08,87,20,137,38,67,47,284,38,78,12,277,,85,03,023,*68
$GAGSV,1,1,0,*74
$PQGSV,1,1,02,194,68,043,37,195,47,136,38,0,5*68
$PQGSV,1,1,0,*73
$GNGSA,A,3,14,16,21,26,27,29,31,32,,,,,1.2,0.8,0.8,1*3A
$GNGSA,A,3,66,67,77,87,,,,,,,,,1.2,0.8,0.8,2*3F
$PQGSA,A,2,01,02,03,,,,,,,,,,1.2,0.8,0.8,5*3F
$GNVTG,204.8,T,204.8,M,2.3,N,4.2,K,A*3A
$GNRMC,103345.00,A,3116.947527,N,12129.940926,E,2.3,204.8,051219,4.5,W,A*3F
$GNGGA,103345.00,3116.947527,N,12129.940926,E,1,12,0.8,-1.4,M,9.7,M,,*69
$GPGSV,3,1,10,14,54,154,39,16,57,258,35,21,04,108,42,26,71,330,42*74
$GPGSV,3,2,10,27,20,187,26,29,23,046,40,31,54,054,41,03,18,275,*75
$GPGSV,3,3,10,22,16,253,,23,18,316,*77
$GLGSV,2,1,08,66,37,205,39,86,29,073,39,77,44,326,34,76,32,039,37*62
$GLGSV,2,2,08,87,20,137,30,67,47,284,36,78,12,277,,85,03,023,*6E
$GAGSV,1,1,0,*74
$PQGSV,1,1,03,193,26,175,35,194,68,043,37,195,47,136,36,0,5*6D
$PQGSV,1,1,0,*73
$GNGSA,A,3,14,16,21,26,27,29,31,32,,,,,1.2,0.8,0.8,1*3A
$GNGSA,A,3,66,67,77,87,,,,,,,,,1.2,0.8,0.8,2*3F
$PQGSA,A,2,01,02,03,,,,,,,,,,1.2,0.8,0.8,5*3F
$GNVTG,203.3,T,203.3,M,2.7,N,5.0,K,A*3D
$GNRMC,103346.00,A,3116.946911,N,12129.940536,E,2.7,203.3,051219,4.5,W,A*31
$GNGGA,103346.00,3116.946911,N,12129.940536,E,1,12,0.8,-0.5,M,9.7,M,,*6F
$GPGSV,3,1,11,14,54,154,40,16,57,258,30,21,04,108,39,26,71,330,44*74
$GPGSV,3,2,11,27,20,187,33,29,23,046,38,31,54,054,41,32,24,151,32*76
$GPGSV,3,3,11,03,18,275,,22,16,253,,23,18,316,*4C
$GLGSV,2,1,07,66,37,205,42,86,29,073,36,77,44,326,34,76,32,039,37*6E
$GLGSV,2,2,07,67,47,284,36,78,12,277,,85,03,023,*5A
$GAGSV,1,1,0,*74
$PQGSV,1,1,03,193,26,175,32,194,68,043,37,195,47,136,36,0,5*6A
$PQGSV,1,1,0,*73
$GNGSA,A,3,14,16,21,26,27,29,31,32,,,,,1.2,0.8,0.8,1*3A
$GNGSA,A,3,66,67,77,87,,,,,,,,,1.2,0.8,0.8,2*3F
$PQGSA,A,2,01,02,03,,,,,,,,,,1.2,0.8,0.8,5*3F
$GNVTG,202.5,T,202.5,M,2.5,N,4.6,K,A*38
$GNRMC,103347.00,A,3116.946279,N,12129.940265,E,2.5,202.5,051219,4.5,W,A*31
$GNGGA,103347.00,3116.946279,N,12129.940265,E,1,12,0.8,-0.8,M,9.7,M,,*67
$GPGSV,3,1,11,14,54,154,40,16,57,258,35,21,04,108,41,26,71,330,45*7F
$GPGSV,3,2,11,27,20,187,31,29,23,046,42,31,54,054,41,32,24,151,34*7F
$GPGSV,3,3,11,03,18,275,,22,16,253,,23,18,316,*4C
$GLGSV,2,1,08,66,37,205,40,86,29,073,41,77,44,326,34,76,32,039,38*6C
$GLGSV,2,2,08,87,20,137,36,67,47,284,38,78,12,277,,85,03,023,*66
$GAGSV,1,1,0,*74
$PQGSV,1,1,03,193,26,175,35,194,68,043,41,195,47,136,35,0,5*6F
$PQGSV,1,1,0,*73
$GNGSA,A,3,14,16,21,26,27,29,31,32,,,,,1.2,0.8,0.8,1*3A
$GNGSA,A,3,66,67,77,87,,,,,,,,,1.2,0.8,0.8,2*3F
$PQGSA,A,2,01,02,03,,,,,,,,,,1.2,0.8,0.8,5*3F
$GNVTG,202.7,T,202.7,M,2.3,N,4.3,K,A*3B
$GNRMC,103348.00,A,3116.945685,N,12129.940095,E,2.3,202.7,051219,4.5,W,A*33
$GNGGA,103348.00,3116.945685,N,12129.940095,E,1,12,0.8,-1.1,M,9.7,M,,*69
$GPGSV,3,1,10,14,54,154,33,16,57,258,38,21,04,108,41,26,71,330,44*76
$GPGSV,3,2,10,27,20,187,32,29,23,046,42,31,54,054,42,03,18,275,*71
$GPGSV,3,3,10,22,16,253,,23,18,316,*77
$GLGSV,2,1,08,66,37,205,39,86,29,073,39,77,44,326,36,76,32,039,37*60
$GLGSV,2,2,08,87,20,137,36,67,47,284,36,78,12,277,,85,03,023,*68
$GAGSV,1,1,0,*74
$PQGSV,1,1,03,193,26,175,31,194,68,043,37,195,47,136,38,0,5*67
$PQGSV,1,1,0,*73
$GNGSA,A,3,14,16,21,26,27,29,31,32,,,,,1.2,0.8,0.8,1*3A
$GNGSA,A,3,66,67,77,87,,,,,,,,,1.2,0.8,0.8,2*3F
$PQGSA,A,2,01,02,03,,,,,,,,,,1.2,0.8,0.8,5*3F
$GNVTG,203.8,T,203.8,M,2.6,N,4.8,K,A*35
$GNRMC,103349.00,A,3116.945026,N,12129.939802,E,2.6,203.8,051219,4.5,W,A*3E
$GNGGA,103349.00,3116.945026,N,12129.939802,E,1,12,0.8,-2.1,M,9.7,M,,*6C
$GPGSV,3,1,11,14,54,154,38,16,57,258,33,21,04,108,39,26,71,330,43*7F
$GPGSV,3,2,11,27,20,187,27,29,23,046,36,31,54,054,41,32,24,151,36*79
$GPGSV,3,3,11,03,18,275,,22,16,253,,23,18,316,*4C
$GLGSV,2,1,08,66,37,205,40,86,29,073,38,77,44,326,33,76,32,039,35*68
$GLGSV,2,2,08,87,20,137,31,67,47,284,38,78,12,277,,85,03,023,*61
$GAGSV,1,1,0,*74
$PQGSV,1,1,03,193,26,175,34,194,68,043,37,195,47,136,38,0,5*62
$PQGSV,1,1,0,*73
$GNGSA,A,3,14,16,21,26,27,29,31,32,,,,,1.2,0.8,0.8,1*3A
$GNGSA,A,3,66,67,77,87,,,,,,,,,1.2,0.8,0.8,2*3F
$PQGSA,A,2,01,02,03,,,,,,,,,,1.2,0.8,0.8,5*3F
$GNVTG,198.5,T,198.5,M,2.4,N,4.4,K,A*3B
$GNRMC,103350.00,A,3116.944391,N,12129.939449,E,2.4,198.5,051219,4.5,W,A*35
$GNGGA,103350.00,3116.944391,N,12129.939449,E,1,12,0.8,-1.8,M,9.7,M,,*63
$GPGSV,3,1,11,14,54,154,33,16,57,258,37,21,04,108,36,26,71,330,41*7D
$GPGSV,3,2,11,27,20,187,30,29,23,046,41,31,54,054,39,32,24,151,36*70
$GPGSV,3,3,11,03,18,275,,22,16,253,,23,18,316,*4C
$GLGSV,2,1,08,66,37,205,42,86,29,073,40,77,44,326,32,76,32,039,34*65
$GLGSV,2,2,08,87,20,137,30,67,47,284,35,78,12,277,,85,03,023,*6D
$GAGSV,1,1,0,*74
$PQGSV,1,1,03,193,26,175,31,194,68,043,35,195,47,136,36,0,5*6B
$PQGSV,1,1,0,*73
$GNGSA,A,3,14,16,21,26,27,29,31,32,,,,,1.2,0.8,0.8,1*3A
$GNGSA,A,3,66,67,77,87,,,,,,,,,1.2,0.8,0.8,2*3F
$PQGSA,A,2,01,02,03,,,,,,,,,,1.2,0.8,0.8,5*3F
$GNVTG,198.8,T,198.8,M,2.7,N,5.0,K,A*3D
$GNRMC,103351.00,A,3116.943743,N,12129.939105,E,2.7,198.8,051219,4.5,W,A*3B
$GNGGA,103351.00,3116.943743,N,12129.939105,E,1,12,0.8,-1.5,M,9.7,M,,*6E
$GPGSV,3,1,11,14,54,154,35,16,57,258,37,21,04,108,34,26,71,330,43*7B
$GPGSV,3,2,11,27,20,187,25,29,23,046,37,31,54,054,41,32,24,151,38*74
$GPGSV,3,3,11,03,18,275,,22,16,253,,23,18,316,*4C
$GLGSV,2,1,08,66,37,205,39,86,29,073,35,77,44,326,34,76,32,039,36*6F
$GLGSV,2,2,08,87,20,137,36,67,47,284,36,78,12,277,,85,03,023,*68
$GAGSV,1,1,0,*74
$PQGSV,1,1,03,193,26,175,33,194,68,043,37,195,47,136,32,0,5*6F
$PQGSV,1,1,0,*73
$GNGSA,A,3,14,16,21,26,27,29,31,32,,,,,1.2,0.8,0.8,1*3A
$GNGSA,A,3,66,67,77,87,,,,,,,,,1.2,0.8,0.8,2*3F
$PQGSA,A,2,01,02,03,,,,,,,,,,1.2,0.8,0.8,5*3F
$GNVTG,202.6,T,202.6,M,2.7,N,5.1,K,A*3C
$GNRMC,103352.00,A,3116.943020,N,12129.938702,E,2.7,202.6,051219,4.5,W,A*34
$GNGGA,103352.00,3116.943020,N,12129.938702,E,1,12,0.8,-1.7,M,9.7,M,,*6D
$GPGSV,3,1,11,14,54,154,37,16,57,258,39,21,04,108,38,26,71,330,42*7A
$GPGSV,3,2,11,27,20,187,32,29,23,046,35,31,54,054,43,32,24,151,36*7C
$GPGSV,3,3,11,03,18,275,,22,16,253,,23,18,316,*4C
$GLGSV,2,1,08,66,37,205,37,86,29,073,34,77,44,326,38,76,32,039,39*63
$GLGSV,2,2,08,87,20,137,37,67,47,284,38,78,12,277,,85,03,023,*67
$GAGSV,1,1,0,*74
$PQGSV,1,1,03,193,26,175,36,194,68,043,39,195,47,136,35,0,5*63
$PQGSV,1,1,0,*73
$GNGSA,A,3,14,16,21,26,27,29,31,32,,,,,1.2,0.8,0.8,1*3A
$GNGSA,A,3,66,67,77,87,,,,,,,,,1.2,0.8,0.8,2*3F
$PQGSA,A,2,01,02,03,,,,,,,,,,1.2,0.8,0.8,5*3F
$GNVTG,202.6,T,202.6,M,2.2,N,4.0,K,A*39
$GNRMC,103353.00,A,3116.942378,N,12129.938396,E,2.2,202.6,051219,4.5,W,A*36
$GNGGA,103353.00,3116.942378,N,12129.938396,E,1,12,0.8,-1.4,M,9.7,M,,*69
$GPGSV,3,1,11,14,54,154,31,16,57,258,40,21,04,108,40,26,71,330,41*7E
$GPGSV,3,2,11,27,20,187,33,29,23,046,41,31,54,054,41,32,24,151,32*78
$GPGSV,3,3,11,03,18,275,,22,16,253,,23,18,316,*4C
$GLGSV,2,1,08,66,37,205,34,86,29,073,42,77,44,326,38,76,32,039,38*60
$GLGSV,2,2,08,87,20,137,30,67,47,284,34,78,12,277,,85,03,023,*6C
$GAGSV,1,1,0,*74
$PQGSV,1,1,03,193,26,175,36,194,68,043,39,195,47,136,34,0,5*62
$PQGSV,1,1,0,*73
$GNGSA,A,3,14,16,21,26,27,29,31,32,,,,,1.2,0.8,0.8,1*3A
$GNGSA,A,3,66,67,77,87,,,,,,,,,1.2,0.8,0.8,2*3F
$PQGSA,A,2,01,02,03,,,,,,,,,,1.2,0.8,0.8,5*3F
$GNVTG,213.9,T,213.9,M,2.6,N,4.8,K,A*35
$GNRMC,103354.00,A,3116.941664,N,12129.938046,E,2.6,213.9,051219,4.5,W,A*3F
$GNGGA,103354.00,3116.941664,N,12129.938046,E,1,12,0.8,-0.4,M,9.7,M,,*6A
$GPGSV,3,1,11,14,54,154,37,16,57,258,35,21,04,108,36,26,71,330,40*7A
$GPGSV,3,2,11,27,20,187,36,29,23,046,44,31,54,054,40,32,24,151,37*7C
$GPGSV,3,3,11,03,18,275,,22,16,253,,23,18,316,*4C
$GLGSV,2,1,08,66,37,205,42,86,29,073,38,77,44,326,36,76,32,039,41*6C
$GLGSV,2,2,08,87,20,137,32,67,47,284,33,78,12,277,,85,03,023,*69
$GAGSV,1,1,0,*74
$PQGSV,1,1,03,193,26,175,33,194,68,043,36,195,47,136,33,0,5*6F
$PQGSV,1,1,0,*73
$GNGSA,A,3,14,16,21,26,27,29,31,32,,,,,1.2,0.8,0.8,1*3A
$GNGSA,A,3,66,67,77,87,,,,,,,,,1.2,0.8,0.8,2*3F
$PQGSA,A,2,01,02,03,,,,,,,,,,1.2,0.8,0.8,5*3F
$GNVTG,209.2,T,209.2,M,3.0,N,5.5,K,A*3E
$GNRMC,103355.00,A,3116.940803,N,12129.937678,E,3.0,209.2,051219,4.5,W,A*33
$GNGGA,103355.00,3116.940803,N,12129.937678,E,1,12,0.8,0.6,M,9.7,M,,*4E
$GPGSV,3,1,11,14,54,154,40,16,57,258,32,21,04,108,37,23,18,316,27*73
$GPGSV,3,2,11,26,71,330,42,27,20,187,28,29,23,046,39,31,54,054,39*75
$GPGSV,3,3,11,32,24,151,37,03,18,275,,22,16,253,*46
$GLGSV,2,1,08,66,37,205,42,86,29,073,40,77,44,326,34,76,32,039,35*62
$GLGSV,2,2,08,87,20,137,25,67,47,284,37,78,12,277,,85,03,023,*6B
$GAGSV,1,1,0,*74
$PQGSV,1,1,03,193,26,175,32,194,68,043,38,195,47,136,36,0,5*65
$PQGSV,1,1,0,*73
$GNGSA,A,3,14,16,21,23,26,27,29,31,32,,,,1.0,0.7,0.7,1*39
$GNGSA,A,3,66,67,77,87,,,,,,,,,1.0,0.7,0.7,2*3D
$PQGSA,A,2,01,02,03,,,,,,,,,,1.0,0.7,0.7,5*3D
$GNVTG,214.6,T,214.6,M,2.8,N,5.2,K,A*30
$GNRMC,103356.00,A,3116.939993,N,12129.937239,E,2.8,214.6,051219,4.5,W,A*36
$GNGGA,103356.00,3116.939993,N,12129.937239,E,1,12,0.7,0.8,M,9.7,M,,*4B
$GPGSV,3,1,10,14,54,154,36,16,57,258,36,21,04,108,34,26,71,330,44*7F
$GPGSV,3,2,10,27,20,187,31,29,23,046,39,31,54,054,41,32,24,151,33*75
$GPGSV,3,3,10,03,18,275,,23,18,316,*7E
$GLGSV,2,1,08,66,37,205,41,86,29,073,38,77,44,326,33,76,32,039,39*65
$GLGSV,2,2,08,87,20,137,36,67,47,284,33,78,12,277,,85,03,023,*6D
$GAGSV,1,1,0,*74
$PQGSV,1,1,03,193,26,175,33,194,68,043,38,195,47,136,36,0,5*64
$PQGSV,1,1,0,*73
$GNGSA,A,3,14,16,21,22,23,26,27,29,31,32,,,1.0,0.7,0.7,1*39
$GNGSA,A,3,66,67,77,87,,,,,,,,,1.0,0.7,0.7,2*3D
$PQGSA,A,2,01,02,03,,,,,,,,,,1.0,0.7,0.7,5*3D
$GNVTG,213.9,T,213.9,M,2.9,N,5.4,K,A*37
$GNRMC,103357.00,A,3116.939312,N,12129.936830,E,2.9,213.9,051219,4.5,W,A*3F
$GNGGA,103357.00,3116.939312,N,12129.936830,E,1,12,0.7,0.6,M,9.7,M,,*45
$GPGSV,3,1,11,14,54,154,37,16,57,258,39,21,04,108,38,26,71,330,42*7A
$GPGSV,3,2,11,27,20,187,35,29,23,046,39,31,54,054,41,32,24,151,31*72
$GPGSV,3,3,11,03,18,275,,22,16,253,,23,18,316,*4C
$GLGSV,2,1,08,66,37,205,42,86,29,073,36,77,44,326,35,76,32,039,34*63
$GLGSV,2,2,08,87,20,137,36,67,47,284,34,78,12,277,,85,03,023,*6A
$GAGSV,1,1,0,*74
$PQGSV,1,1,03,193,26,175,33,194,68,043,37,195,47,136,38,0,5*65
$PQGSV,1,1,0,*73
$GNGSA,A,3,14,16,21,22,23,26,27,29,31,32,,,1.0,0.7,0.7,1*39
$GNGSA,A,3,66,67,77,87,,,,,,,,,1.0,0.7,0.7,2*3D
$PQGSA,A,2,01,02,03,,,,,,,,,,1.0,0.7,0.7,5*3D
$GNVTG,214.0,T,214.0,M,3.2,N,5.9,K,A*30
$GNRMC,103358.00,A,3116.938512,N,12129.936446,E,3.2,214.0,051219,4.5,W,A*3E
$GNGGA,103358.00,3116.938512,N,12129.936446,E,1,12,0.7,0.1,M,9.7,M,,*47
$GPGSV,3,1,10,14,54,154,31,16,57,258,40,26,71,330,44,27,20,187,33*79
$GPGSV,3,2,10,29,23,046,41,31,54,054,40,32,24,151,42,03,18,275,*7C
$GPGSV,3,3,10,22,16,253,,23,18,316,*77
$GLGSV,2,1,07,66,37,205,38,86,29,073,39,77,44,326,29,76,32,039,39*6E
$GLGSV,2,2,07,67,47,284,38,78,12,277,,85,03,023,*54
$GAGSV,1,1,0,*74
$PQGSV,1,1,02,194,68,043,36,195,47,136,31,0,5*60
$PQGSV,1,1,0,*73
$GNGSA,A,3,14,16,21,22,23,26,27,29,31,32,,,1.0,0.7,0.7,1*39
$GNGSA,A,3,66,67,77,87,,,,,,,,,1.0,0.7,0.7,2*3D
$PQGSA,A,2,01,02,03,,,,,,,,,,1.0,0.7,0.7,5*3D
$GNVTG,204.2,T,204.2,M,3.1,N,5.8,K,A*32
$GNRMC,103359.00,A,3116.937628,N,12129.936150,E,3.1,204.2,051219,4.5,W,A*38
$GNGGA,103359.00,3116.937628,N,12129.936150,E,1,12,0.7,1.1,M,9.7,M,,*40
$GPGSV,3,1,11,14,54,154,37,16,57,258,37,21,04,108,37,26,71,330,44*7D
$GPGSV,3,2,11,27,20,187,30,29,23,046,42,31,54,054,39,32,24,151,40*72
$GPGSV,3,3,11,03,18,275,,22,16,253,,23,18,316,*4C
$GLGSV,2,1,08,66,37,205,40,86,29,073,39,77,44,326,32,76,32,039,40*6A
$GLGSV,2,2,08,67,47,284,37,78,12,277,,87,20,137,,85,03,023,*6C
$GAGSV,1,1,0,*74
$PQGSV,1,1,03,193,26,175,37,194,68,043,35,195,47,136,32,0,5*69
$PQGSV,1,1,0,*73
$GNGSA,A,3,14,16,21,22,23,26,27,29,31,32,,,1.0,0.7,0.7,1*39
$GNGSA,A,3,66,67,77,87,,,,,,,,,1.0,0.7,0.7,2*3D
$PQGSA,A,2,01,02,03,,,,,,,,,,1.0,0.7,0.7,5*3D
$GNVTG,202.3,T,202.3,M,2.9,N,5.4,K,A*37
$GNRMC,103400.00,A,3116.936742,N,12129.935932,E,2.9,202.3,051219,4.5,W,A*3E
$GNGGA,103400.00,3116.936742,N,12129.935932,E,1,12,0.7,1.7,M,9.7,M,,*4E
$GPGSV,3,1,11,14,54,154,36,16,57,258,37,21,04,108,36,26,71,330,45*7C
$GPGSV,3,2,11,27,20,187,33,29,23,046,45,31,54,054,41,32,24,151,42*7B
$GPGSV,3,3,11,03,18,275,,22,16,253,,23,18,316,*4C
$GLGSV,2,1,08,66,37,205,40,86,29,073,35,77,44,326,31,76,32,039,39*6B
$GLGSV,2,2,08,67,47,284,38,78,12,277,,87,20,137,,85,03,023,*63
$GAGSV,1,1,0,*74
$PQGSV,1,1,02,194,68,043,35,195,47,136,35,0,5*67
$PQGSV,1,1,0,*73
$GNGSA,A,3,14,16,21,22,23,26,27,29,31,32,,,1.0,0.7,0.7,1*39
$GNGSA,A,3,66,67,77,87,,,,,,,,,1.0,0.7,0.7,2*3D
$PQGSA,A,2,01,02,03,,,,,,,,,,1.0,0.7,0.7,5*3D
$GNVTG,210.6,T,210.6,M,3.0,N,5.5,K,A*3E
$GNRMC,103401.00,A,3116.935884,N,12129.935653,E,3.0,210.6,051219,4.5,W,A*3F
$GNGGA,103401.00,3116.935884,N,12129.935653,E,1,12,0.7,0.7,M,9.7,M,,*40
$GPGSV,3,1,11,14,54,154,36,16,57,258,37,21,04,108,35,26,71,330,44*7E
$GPGSV,3,2,11,27,20,187,28,29,23,046,42,31,54,054,38,32,24,151,31*7C
$GPGSV,3,3,11,03,18,275,,22,16,253,,23,18,316,*4C
$GLGSV,2,1,08,66,37,205,37,86,29,073,35,77,44,326,29,76,32,039,37*6C
$GLGSV,2,2,08,87,20,137,31,67,47,284,37,78,12,277,,85,03,023,*6E
$GAGSV,1,1,0,*74
$PQGSV,1,1,03,193,26,175,26,194,68,043,38,195,47,136,32,0,5*64
$PQGSV,1,1,0,*73
$GNGSA,A,3,14,16,21,22,26,27,29,31,32,,,,1.0,0.7,0.8,1*37
$GNGSA,A,3,66,67,77,87,,,,,,,,,1.0,0.7,0.8,2*32
$PQGSA,A,2,01,02,03,,,,,,,,,,1.0,0.7,0.8,5*32
$GNVTG,209.1,T,209.1,M,3.1,N,5.8,K,A*32
$GNRMC,103402.00,A,3116.934986,N,12129.935346,E,3.1,209.1,051219,4.5,W,A*31
$GNGGA,103402.00,3116.934986,N,12129.935346,E,1,12,0.7,1.0,M,9.7,M,,*46
$GPGSV,3,1,11,14,54,154,30,16,57,258,40,21,04,108,30,26,71,330,43*7A
$GPGSV,3,2,11,27,20,187,33,29,23,046,42,31,54,054,41,32,24,151,36*7F
$GPGSV,3,3,11,03,18,275,,22,16,253,,23,18,316,*4C
$GLGSV,2,1,07,66,37,205,42,77,44,326,30,76,32,039,40,87,20,137,28*6C
$GLGSV,2,2,07,67,47,284,39,78,12,277,,85,03,023,*55
$GAGSV,1,1,0,*74
$PQGSV,1,1,02,194,68,043,33,195,47,136,32,0,5*66
$PQGSV,1,1,0,*73
$GNGSA,A,3,14,16,21,26,27,29,31,32,,,,,1.2,0.8,0.8,1*3A
$GNGSA,A,3,66,67,77,87,,,,,,,,,1.2,0.8,0.8,2*3F
$PQGSA,A,2,01,02,03,,,,,,,,,,1.2,0.8,0.8,5*3F
$GNVTG,210.9,T,210.9,M,2.6,N,4.8,K,A*35
$GNRMC,103403.00,A,3116.934131,N,12129.935049,E,2.6,210.9,051219,4.5,W,A*3E
$GNGGA,103403.00,3116.934131,N,12129.935049,E,1,12,0.8,0.4,M,9.7,M,,*45
$GPGSV,3,1,10,14,54,154,36,16,57,258,37,21,04,108,34,26,71,330,44*7E
$GPGSV,3,2,10,29,23,046,40,31,54,054,41,32,24,151,36,03,18,275,*7F
$GPGSV,3,3,10,22,16,253,,23,18,316,*77
$GLGSV,2,1,08,66,37,205,39,86,29,073,37,77,44,326,33,76,32,039,38*64
$GLGSV,2,2,08,87,20,137,32,85,03,023,30,67,47,284,38,78,12,277,*61
$GAGSV,1,1,0,*74
$PQGSV,1,1,03,193,26,175,28,194,68,043,35,195,47,136,30,0,5*65
$PQGSV,1,1,0,*73
$GNGSA,A,3,14,16,21,26,27,29,31,32,,,,,1.2,0.8,0.8,1*3A
$GNGSA,A,3,66,67,77,87,,,,,,,,,1.2,0.8,0.8,2*3F
$PQGSA,A,2,01,02,03,,,,,,,,,,1.2,0.8,0.8,5*3F
$GNVTG,206.4,T,206.4,M,3.3,N,6.1,K,A*3A
$GNRMC,103404.00,A,3116.933240,N,12129.934718,E,3.3,206.4,051219,4.5,W,A*37
$GNGGA,103404.00,3116.933240,N,12129.934718,E,1,12,0.8,1.3,M,9.7,M,,*44
$GPGSV,3,1,11,14,54,154,33,16,57,258,40,21,04,108,40,26,71,330,43*7E
$GPGSV,3,2,11,29,23,046,41,31,54,054,39,32,24,151,32,03,18,275,*74
$GPGSV,3,3,11,22,16,253,,23,18,316,,27,20,187,*4F
$GLGSV,2,1,07,66,37,205,39,86,29,073,33,77,44,326,35,76,32,039,37*66
$GLGSV,2,2,07,87,20,137,39,67,47,284,36,78,12,277,*57
$GAGSV,1,1,0,*74
$PQGSV,1,1,02,194,68,043,34,195,47,136,38,0,5*6B
$PQGSV,1,1,0,*73
$GNGSA,A,3,14,16,21,26,27,29,31,32,,,,,1.2,0.8,0.8,1*3A
$GNGSA,A,3,66,67,77,87,,,,,,,,,1.2,0.8,0.8,2*3F
$PQGSA,A,2,01,02,03,,,,,,,,,,1.2,0.8,0.8,5*3F
$GNVTG,207.1,T,207.1,M,2.7,N,5.0,K,A*3D
$GNRMC,103405.00,A,3116.932380,N,12129.934290,E,2.7,207.1,051219,4.5,W,A*3E
$GNGGA,103405.00,3116.932380,N,12129.934290,E,1,12,0.8,0.9,M,9.7,M,,*47
$GPGSV,3,1,11,14,54,154,38,16,57,258,41,21,04,108,31,26,71,330,43*72
$GPGSV,3,2,11,29,23,046,42,31,54,054,40,32,24,151,39,03,18,275,*72
$GPGSV,3,3,11,22,16,253,,23,18,316,,27,20,187,*4F
$GLGSV,2,1,08,66,37,205,41,86,29,073,39,77,44,326,32,76,32,039,39*65
$GLGSV,2,2,08,87,20,137,31,67,47,284,35,78,12,277,,85,03,023,*6C
$GAGSV,1,1,0,*74
$PQGSV,1,1,03,193,26,175,34,194,68,043,31,195,47,136,34,0,5*68
$PQGSV,1,1,0,*73
$GNGSA,A,3,14,16,21,26,27,29,31,32,,,,,1.2,0.8,0.8,1*3A
$GNGSA,A,3,66,67,77,87,,,,,,,,,1.2,0.8,0.8,2*3F
$PQGSA,A,2,01,02,03,,,,,,,,,,1.2,0.8,0.8,5*3F
$GNVTG,215.4,T,215.4,M,3.1,N,5.7,K,A*3D
$GNRMC,103406.00,A,3116.931539,N,12129.933918,E,3.1,215.4,051219,4.5,W,A*37
$GNGGA,103406.00,3116.931539,N,12129.933918,E,1,12,0.8,-0.3,M,9.7,M,,*68
$GPGSV,3,1,11,14,54,154,41,16,57,258,37,21,04,108,42,26,71,330,42*78
$GPGSV,3,2,11,29,23,046,41,31,54,054,44,32,24,151,34,03,18,275,*78
$GPGSV,3,3,11,22,16,253,,23,18,316,,27,20,187,*4F
$GLGSV,2,1,08,66,37,205,37,86,29,073,37,77,44,326,31,76,32,039,37*67
$GLGSV,2,2,08,87,20,137,34,67,47,284,38,78,12,277,,85,03,023,*64
$GAGSV,1,1,0,*74
$PQGSV,1,1,03,193,26,175,33,194,68,043,32,195,47,136,33,0,5*6B
$PQGSV,1,1,0,*73
$GNGSA,A,3,14,16,21,26,27,29,31,32,,,,,1.2,0.8,0.8,1*3A
$GNGSA,A,3,66,67,77,87,,,,,,,,,1.2,0.8,0.8,2*3F
$PQGSA,A,2,01,02,03,,,,,,,,,,1.2,0.8,0.8,5*3F
$GNVTG,203.9,T,203.9,M,3.2,N,5.9,K,A*30
$GNRMC,103407.00,A,3116.930639,N,12129.933466,E,3.2,203.9,051219,4.5,W,A*39
$GNGGA,103407.00,3116.930639,N,12129.933466,E,1,12,0.8,-0.6,M,9.7,M,,*6A
$GPGSV,3,1,11,14,54,154,41,16,57,258,42,21,04,108,40,26,71,330,44*7E
$GPGSV,3,2,11,29,23,046,41,31,54,054,41,32,24,151,31,03,18,275,*78
$GPGSV,3,3,11,22,16,253,,23,18,316,,27,20,187,*4F
$GLGSV,2,1,08,66,37,205,39,86,29,073,32,77,44,326,32,76,32,039,37*6F
$GLGSV,2,2,08,87,20,137,32,67,47,284,37,78,12,277,,85,03,023,*6D
$GAGSV,1,1,0,*74
$PQGSV,1,1,03,193,26,175,35,194,68,043,37,195,47,136,34,0,5*6F
$PQGSV,1,1,0,*73
$GNGSA,A,3,14,16,21,26,27,29,31,32,,,,,1.2,0.8,0.8,1*3A
$GNGSA,A,3,66,67,77,87,,,,,,,,,1.2,0.8,0.8,2*3F
$PQGSA,A,2,01,02,03,,,,,,,,,,1.2,0.8,0.8,5*3F
$GNVTG,204.1,T,204.1,M,2.8,N,5.3,K,A*31
$GNRMC,103408.00,A,3116.929790,N,12129.933041,E,2.8,204.1,051219,4.5,W,A*39
$GNGGA,103408.00,3116.929790,N,12129.933041,E,1,12,0.8,-0.5,M,9.7,M,,*6D
$GPGSV,3,1,10,14,54,154,40,16,57,258,41,21,04,108,36,26,71,330,44*7C
$GPGSV,3,2,10,29,23,046,40,31,54,054,41,32,24,151,38,22,16,253,*78
$GPGSV,3,3,10,23,18,316,,27,20,187,*7D
$GLGSV,2,1,08,66,37,205,32,86,29,073,31,77,44,326,30,76,32,039,37*65
$GLGSV,2,2,08,87,20,137,29,67,47,284,37,78,12,277,,85,03,023,*67
$GAGSV,1,1,0,*74
$PQGSV,1,1,03,193,26,175,38,194,68,043,33,195,47,136,36,0,5*64
$PQGSV,1,1,0,*73
$GNGSA,A,3,14,16,21,26,29,31,32,,,,,,1.2,0.9,0.8,1*3E
$GNGSA,A,3,66,67,77,87,,,,,,,,,1.2,0.9,0.8,2*3E
$PQGSA,A,2,01,02,03,,,,,,,,,,1.2,0.9,0.8,5*3E
$GNVTG,205.7,T,205.7,M,2.9,N,5.4,K,A*37
$GNRMC,103409.00,A,3116.929007,N,12129.932612,E,2.9,205.7,051219,4.5,W,A*36
$GNGGA,103409.00,3116.929007,N,12129.932612,E,1,12,0.9,-0.9,M,9.7,M,,*69
$GPGSV,3,1,10,16,57,258,39,21,04,108,32,26,71,330,44,29,23,046,40*7B
$GPGSV,3,2,10,31,54,054,42,32,24,151,38,03,18,275,,22,16,253,*7D
$GPGSV,3,3,10,23,18,316,,27,20,187,*7D
$GLGSV,2,1,06,66,37,205,38,86,29,073,32,76,32,039,38,67,47,284,39*6F
$GLGSV,2,2,06,78,12,277,,85,03,023,*62
$GAGSV,1,1,0,*74
$PQGSV,1,1,02,194,68,043,35,195,47,136,37,0,5*65
$PQGSV,1,1,0,*73
$GNGSA,A,3,14,16,21,26,29,31,32,,,,,,1.2,0.9,0.8,1*3E
$GNGSA,A,3,66,67,77,87,,,,,,,,,1.2,0.9,0.8,2*3E
$PQGSA,A,2,01,02,03,,,,,,,,,,1.2,0.9,0.8,5*3E
$GNVTG,205.8,T,205.8,M,2.5,N,4.7,K,A*39
$GNRMC,103410.00,A,3116.928251,N,12129.932324,E,2.5,205.8,051219,4.5,W,A*3D
$GNGGA,103410.00,3116.928251,N,12129.932324,E,1,12,0.9,-2.5,M,9.7,M,,*6F
$GPGSV,3,1,11,14,54,154,32,16,57,258,41,21,04,108,37,26,71,330,42*7F
$GPGSV,3,2,11,29,23,046,41,31,54,054,38,32,24,151,37,03,18,275,*70
$GPGSV,3,3,11,22,16,253,,23,18,316,,27,20,187,*4F
$GLGSV,2,1,08,66,37,205,42,86,29,073,39,77,44,326,32,76,32,039,38*67
$GLGSV,2,2,08,87,20,137,30,67,47,284,37,78,12,277,,85,03,023,*6F
$GAGSV,1,1,0,*74
$PQGSV,1,1,03,193,26,175,34,194,68,043,34,195,47,136,32,0,5*6B
$PQGSV,1,1,0,*73
$GNGSA,A,3,14,16,21,26,29,31,32,,,,,,1.2,0.9,0.8,1*3E
$GNGSA,A,3,66,67,77,87,,,,,,,,,1.2,0.9,0.8,2*3E
$PQGSA,A,2,01,02,03,,,,,,,,,,1.2,0.9,0.8,5*3E
$GNVTG,209.6,T,209.6,M,2.8,N,5.2,K,A*30
$GNRMC,103411.00,A,3116.927505,N,12129.932077,E,2.8,209.6,051219,4.5,W,A*3F
$GNGGA,103411.00,3116.927505,N,12129.932077,E,1,12,0.9,-2.7,M,9.7,M,,*60
$GPGSV,3,1,11,14,54,154,33,16,57,258,42,21,04,108,40,26,71,330,42*7D
$GPGSV,3,2,11,29,23,046,44,31,54,054,38,32,24,151,39,03,18,275,*7B
$GPGSV,3,3,11,22,16,253,,23,18,316,,27,20,187,*4F
$GLGSV,2,1,08,66,37,205,43,86,29,073,38,77,44,326,32,76,32,039,38*67
$GLGSV,2,2,08,87,20,137,30,67,47,284,41,78,12,277,,85,03,023,*6E
$GAGSV,1,1,0,*74
$PQGSV,1,1,03,193,26,175,33,194,68,043,31,195,47,136,33,0,5*68
$PQGSV,1,1,0,*73
$GNGSA,A,3,14,16,21,26,29,31,32,,,,,,1.2,0.9,0.8,1*3E
$GNGSA,A,3,66,67,77,87,,,,,,,,,1.2,0.9,0.8,2*3E
$PQGSA,A,2,01,02,03,,,,,,,,,,1.2,0.9,0.8,5*3E
$GNVTG,214.7,T,214.7,M,2.8,N,5.2,K,A*30
$GNRMC,103412.00,A,3116.926802,N,12129.931755,E,2.8,214.7,051219,4.5,W,A*3E
$GNGGA,103412.00,3116.926802,N,12129.931755,E,1,12,0.9,-2.9,M,9.7,M,,*62
$GPGSV,3,1,11,14,54,154,33,16,57,258,43,21,04,108,35,26,71,330,43*7F
$GPGSV,3,2,11,29,23,046,39,31,54,054,40,32,24,151,37,03,18,275,*70
$GPGSV,3,3,11,22,16,253,,23,18,316,,27,20,187,*4F
$GLGSV,2,1,08,66,37,205,41,86,29,073,39,77,44,326,32,76,32,039,40*6B
$GLGSV,2,2,08,87,20,137,33,67,47,284,39,78,12,277,,85,03,023,*62
$GAGSV,1,1,0,*74
$PQGSV,1,1,02,193,26,175,31,194,68,043,31,0,5*61
$PQGSV,1,1,0,*73
$GNGSA,A,3,14,16,21,26,29,31,32,,,,,,1.2,0.9,0.8,1*3E
$GNGSA,A,3,66,67,77,87,,,,,,,,,1.2,0.9,0.8,2*3E
$PQGSA,A,2,01,02,03,,,,,,,,,,1.2,0.9,0.8,5*3E
$GNVTG,209.5,T,209.5,M,3.2,N,5.9,K,A*30
$GNRMC,103413.00,A,3116.926101,N,12129.931382,E,3.2,209.5,051219,4.5,W,A*3E
$GNGGA,103413.00,3116.926101,N,12129.931382,E,1,12,0.9,-2.8,M,9.7,M,,*66
$GPGSV,3,1,11,14,54,154,39,16,57,258,35,21,04,108,39,26,71,330,42*79
$GPGSV,3,2,11,29,23,046,37,31,54,054,41,32,24,151,41,03,18,275,*7E
$GPGSV,3,3,11,22,16,253,,23,18,316,,27,20,187,*4F
$GLGSV,2,1,08,66,37,205,43,86,29,073,38,77,44,326,31,76,32,039,37*6B
$GLGSV,2,2,08,87,20,137,31,67,47,284,33,78,12,277,,85,03,023,*6A
$GAGSV,1,1,0,*74
$PQGSV,1,1,02,194,68,043,34,195,47,136,33,0,5*60
$PQGSV,1,1,0,*73
$GNGSA,A,3,14,16,21,26,29,31,32,,,,,,1.2,0.9,0.8,1*3E
$GNGSA,A,3,66,67,77,87,,,,,,,,,1.2,0.9,0.8,2*3E
$PQGSA,A,2,01,02,03,,,,,,,,,,1.2,0.9,0.8,5*3E
$GNVTG,210.5,T,210.5,M,2.2,N,4.1,K,A*38
$GNRMC,103414.00,A,3116.925525,N,12129.931054,E,2.2,210.5,051219,4.5,W,A*39
$GNGGA,103414.00,3116.925525,N,12129.931054,E,1,12,0.9,-3.3,M,9.7,M,,*62
$GPGSV,3,1,10,14,54,154,37,21,04,108,39,26,71,330,42,29,23,046,42*74
$GPGSV,3,2,10,31,54,054,41,32,24,151,40,03,18,275,,22,16,253,*71
$GPGSV,3,3,10,23,18,316,,27,20,187,*7D
$GLGSV,2,1,08,66,37,205,44,86,29,073,36,77,44,326,30,76,32,039,36*62
$GLGSV,2,2,08,87,20,137,34,67,47,284,39,78,12,277,,85,03,023,*65
$GAGSV,1,1,0,*74
$PQGSV,1,1,03,193,26,175,28,194,68,043,35,195,47,136,38,0,5*6D
$PQGSV,1,1,0,*73
$GNGSA,A,3,14,16,21,26,29,31,32,,,,,,1.2,0.9,0.8,1*3E
$GNGSA,A,3,66,67,77,87,,,,,,,,,1.2,0.9,0.8,2*3E
$PQGSA,A,2,01,02,03,,,,,,,,,,1.2,0.9,0.8,5*3E
$GNVTG,205.6,T,205.6,M,3.2,N,6.0,K,A*3A
$GNRMC,103415.00,A,3116.924946,N,12129.930737,E,3.2,205.6,051219,4.5,W,A*35
$GNGGA,103415.00,3116.924946,N,12129.930737,E,1,12,0.9,-3.9,M,9.7,M,,*62
$GPGSV,3,1,11,14,54,154,36,16,57,258,34,21,04,108,35,26,71,330,42*7B
$GPGSV,3,2,11,27,20,187,25,29,23,046,44,31,54,054,38,32,24,151,38*7E
$GPGSV,3,3,11,03,18,275,,22,16,253,,23,18,316,*4C
$GLGSV,2,1,08,66,37,205,42,86,29,073,36,77,44,326,30,76,32,039,37*65
$GLGSV,2,2,08,87,20,137,34,67,47,284,38,78,12,277,,85,03,023,*64
$GAGSV,1,1,0,*74
$PQGSV,1,1,03,193,26,175,25,194,68,043,35,195,47,136,36,0,5*6E
$PQGSV,1,1,0,*73
$GNGSA,A,3,14,16,21,26,27,29,31,32,,,,,1.2,0.8,0.8,1*3A
$GNGSA,A,3,66,67,77,87,,,,,,,,,1.2,0.8,0.8,2*3F
$PQGSA,A,2,01,02,03,,,,,,,,,,1.2,0.8,0.8,5*3F
$GNVTG,206.4,T,206.4,M,2.8,N,5.1,K,A*33
$GNRMC,103416.00,A,3116.924299,N,12129.930354,E,2.8,206.4,051219,4.5,W,A*34
$GNGGA,103416.00,3116.924299,N,12129.930354,E,1,12,0.8,-3.4,M,9.7,M,,*65
$GPGSV,3,1,10,14,54,154,36,16,57,258,40,21,04,108,37,26,71,330,42*7B
$GPGSV,3,2,10,29,23,046,46,31,54,054,39,32,24,151,38,03,18,275,*78
$GPGSV,3,3,10,22,16,253,,23,18,316,*77
$GLGSV,2,1,08,66,37,205,39,86,29,073,35,77,44,326,31,76,32,039,42*69
$GLGSV,2,2,08,87,20,137,33,67,47,284,38,78,12,277,,85,03,023,*63
$GAGSV,1,1,0,*74
$PQGSV,1,1,03,193,26,175,29,194,68,043,36,195,47,136,33,0,5*64
$PQGSV,1,1,0,*73
$GNGSA,A,3,14,16,21,26,27,29,31,32,,,,,1.2,0.8,0.8,1*3A
$GNGSA,A,3,66,67,77,87,,,,,,,,,1.2,0.8,0.8,2*3F
$PQGSA,A,2,01,02,03,,,,,,,,,,1.2,0.8,0.8,5*3F
$GNVTG,206.3,T,206.3,M,2.6,N,4.9,K,A*34
$GNRMC,103417.00,A,3116.923711,N,12129.929949,E,2.6,206.3,051219,4.5,W,A*30
$GNGGA,103417.00,3116.923711,N,12129.929949,E,1,12,0.8,-2.9,M,9.7,M,,*64
$GPGSV,3,1,11,14,54,154,37,16,57,258,40,21,04,108,35,26,71,330,42*79
$GPGSV,3,2,11,29,23,046,37,31,54,054,36,32,24,151,40,03,18,275,*7F
$GPGSV,3,3,11,22,16,253,,23,18,316,,27,20,187,*4F
$GLGSV,2,1,07,66,37,205,42,86,29,073,39,77,44,326,33,76,32,039,38*69
$GLGSV,2,2,07,67,47,284,41,78,12,277,,85,03,023,*5A
$GAGSV,1,1,0,*74
$PQGSV,1,1,02,194,68,043,32,195,47,136,39,0,5*6C
$PQGSV,1,1,0,*73
$GNGSA,A,3,14,16,21,26,27,29,31,32,,,,,1.2,0.8,0.8,1*3A
$GNGSA,A,3,66,67,77,87,,,,,,,,,1.2,0.8,0.8,2*3F
$PQGSA,A,2,01,02,03,,,,,,,,,,1.2,0.8,0.8,5*3F
$GNVTG,205.9,T,205.9,M,2.6,N,4.8,K,A*35
$GNRMC,103418.00,A,3116.923152,N,12129.929634,E,2.6,205.9,051219,4.5,W,A*32
$GNGGA,103418.00,3116.923152,N,12129.929634,E,1,12,0.8,-2.6,M,9.7,M,,*60
$GPGSV,3,1,10,14,54,154,32,16,57,258,42,26,71,330,42,29,23,046,37*7B
$GPGSV,3,2,10,31,54,054,39,32,24,151,40,03,18,275,,22,16,253,*7E
$GPGSV,3,3,10,23,18,316,,27,20,187,*7D
$GLGSV,2,1,08,66,37,205,39,86,29,073,35,77,44,326,34,76,32,039,36*6F
$GLGSV,2,2,08,87,20,137,28,67,47,284,41,78,12,277,,85,03,023,*67
$GAGSV,1,1,0,*74
$PQGSV,1,1,03,193,26,175,30,194,68,043,32,195,47,136,39,0,5*62
$PQGSV,1,1,0,*73
$GNGSA,A,3,14,16,21,26,27,29,31,32,,,,,1.2,0.8,0.8,1*3A
$GNGSA,A,3,66,67,77,87,,,,,,,,,1.2,0.8,0.8,2*3F
$PQGSA,A,2,01,02,03,,,,,,,,,,1.2,0.8,0.8,5*3F
$GNVTG,203.7,T,203.7,M,3.1,N,5.7,K,A*3D
$GNRMC,103419.00,A,3116.922553,N,12129.929343,E,3.1,203.7,051219,4.5,W,A*3C
$GNGGA,103419.00,3116.922553,N,12129.929343,E,1,12,0.8,-2.1,M,9.7,M,,*67
$GPGSV,3,1,11,14,54,154,36,16,57,258,40,21,04,108,30,26,71,330,40*7F
$GPGSV,3,2,11,29,23,046,41,31,54,054,39,32,24,151,29,03,18,275,*7E
$GPGSV,3,3,11,22,16,253,,23,18,316,,27,20,187,*4F
$GLGSV,2,1,08,66,37,205,39,86,29,073,37,77,44,326,35,76,32,039,39*63
$GLGSV,2,2,08,87,20,137,33,67,47,284,38,78,12,277,,85,03,023,*63
$GAGSV,1,1,0,*74
$PQGSV,1,1,02,193,26,175,34,194,68,043,32,0,5*67
$PQGSV,1,1,0,*73
$GNGSA,A,3,14,16,21,26,27,29,31,32,,,,,1.2,0.8,0.8,1*3A
$GNGSA,A,3,66,67,77,87,,,,,,,,,1.2,0.8,0.8,2*3F
$PQGSA,A,2,01,02,03,,,,,,,,,,1.2,0.8,0.8,5*3F
$GNVTG,208.6,T,208.6,M,3.2,N,5.9,K,A*30
$GNRMC,103420.00,A,3116.921854,N,12129.928896,E,3.2,208.6,051219,4.5,W,A*34
$GNGGA,103420.00,3116.921854,N,12129.928896,E,1,12,0.8,-1.6,M,9.7,M,,*62
$GPGSV,3,1,11,14,54,154,42,16,57,258,40,21,04,108,29,26,71,330,43*77
$GPGSV,3,2,11,29,23,046,43,31,54,054,42,32,24,151,39,03,18,275,*71
$GPGSV,3,3,11,22,16,253,,23,18,316,,27,20,187,*4F
$GLGSV,2,1,07,86,29,073,39,77,44,326,34,76,32,039,38,87,20,137,33*63
$GLGSV,2,2,07,67,47,284,41,78,12,277,,85,03,023,*5A
$GAGSV,1,1,0,*74
$PQGSV,1,1,03,193,26,175,34,194,68,043,35,195,47,136,38,0,5*60
$PQGSV,1,1,0,*73
$GNGSA,A,3,14,16,21,26,27,29,31,32,,,,,1.2,0.8,0.8,1*3A
$GNGSA,A,3,66,67,77,87,,,,,,,,,1.2,0.8,0.8,2*3F
$PQGSA,A,2,01,02,03,,,,,,,,,,1.2,0.8,0.8,5*3F
$GNVTG,206.9,T,206.9,M,3.1,N,5.8,K,A*32
$GNRMC,103421.00,A,3116.921155,N,12129.928472,E,3.1,206.9,051219,4.5,W,A*39
$GNGGA,103421.00,3116.921155,N,12129.928472,E,1,12,0.8,-1.2,M,9.7,M,,*69
$GPGSV,3,1,11,14,54,154,39,16,57,258,40,21,04,108,31,26,71,330,43*72
$GPGSV,3,2,11,29,23,046,42,31,54,054,40,32,24,151,35,03,18,275,*7E
$GPGSV,3,3,11,22,16,253,,23,18,316,,27,20,187,*4F
$GLGSV,2,1,08,66,37,205,36,86,29,073,40,77,44,326,35,76,32,039,40*62
$GLGSV,2,2,08,87,20,137,34,67,47,284,39,78,12,277,,85,03,023,*65
$GAGSV,1,1,0,*74
$PQGSV,1,1,03,193,26,175,33,194,68,043,35,195,47,136,32,0,5*6D
$PQGSV,1,1,0,*73
$GNGSA,A,3,14,16,21,26,29,31,32,,,,,,1.2,0.9,0.8,1*3E
$GNGSA,A,3,66,67,77,87,,,,,,,,,1.2,0.9,0.8,2*3E
$PQGSA,A,2,01,02,03,,,,,,,,,,1.2,0.9,0.8,5*3E
$GNVTG,201.6,T,201.6,M,3.0,N,5.5,K,A*3E
$GNRMC,103422.00,A,3116.920351,N,12129.928137,E,3.0,201.6,051219,4.5,W,A*30
$GNGGA,103422.00,3116.920351,N,12129.928137,E,1,12,0.9,-2.8,M,9.7,M,,*61
$GPGSV,3,1,11,14,54,154,39,16,57,258,40,21,04,108,31,26,71,330,41*70
$GPGSV,3,2,11,27,20,187,24,29,23,046,42,31,54,054,39,32,24,151,36*76
$GPGSV,3,3,11,03,18,275,,22,16,253,,23,18,316,*4C
$GLGSV,2,1,08,66,37,205,37,86,29,073,40,77,44,326,34,76,32,039,37*62
$GLGSV,2,2,08,87,20,137,32,85,03,023,24,67,47,284,37,78,12,277,*6B
$GAGSV,1,1,0,*74
$PQGSV,1,1,03,193,26,175,32,194,68,043,35,195,47,136,31,0,5*6F
$PQGSV,1,1,0,*73
$GNGSA,A,3,14,16,21,26,27,29,31,32,,,,,1.2,0.8,0.8,1*3A
$GNGSA,A,3,66,67,77,87,,,,,,,,,1.2,0.8,0.8,2*3F
$PQGSA,A,2,01,02,03,,,,,,,,,,1.2,0.8,0.8,5*3F
$GNVTG,201.5,T,201.5,M,3.0,N,5.6,K,A*3D
$GNRMC,103423.00,A,3116.919606,N,12129.927858,E,3.0,201.5,051219,4.5,W,A*30
$GNGGA,103423.00,3116.919606,N,12129.927858,E,1,12,0.8,-2.4,M,9.7,M,,*6F
$GPGSV,3,1,10,14,54,154,36,16,57,258,41,21,04,108,37,26,71,330,42*7A
$GPGSV,3,2,10,29,23,046,41,31,54,054,40,32,24,151,33,03,18,275,*7A
$GPGSV,3,3,10,22,16,253,,23,18,316,*77
$GLGSV,2,1,07,66,37,205,38,86,29,073,38,77,44,326,33,76,32,039,37*6A
$GLGSV,2,2,07,87,20,137,30,67,47,284,38,78,12,277,*50
$GAGSV,1,1,0,*74
$PQGSV,1,1,03,193,26,175,30,194,68,043,35,195,47,136,34,0,5*68
$PQGSV,1,1,0,*73
$GNGSA,A,3,14,16,21,26,27,29,31,32,,,,,1.2,0.8,0.8,1*3A
$GNGSA,A,3,66,67,77,87,,,,,,,,,1.2,0.8,0.8,2*3F
$PQGSA,A,2,01,02,03,,,,,,,,,,1.2,0.8,0.8,5*3F
$GNVTG,192.8,T,192.8,M,2.5,N,4.7,K,A*39
$GNRMC,103424.00,A,3116.918807,N,12129.927645,E,2.5,192.8,051219,4.5,W,A*3B
$GNGGA,103424.00,3116.918807,N,12129.927645,E,1,12,0.8,-3.1,M,9.7,M,,*60
$GPGSV,3,1,11,03,18,275,30,14,54,154,44,16,57,258,40,21,04,108,38*7D
$GPGSV,3,2,11,26,71,330,44,29,23,046,41,31,54,054,42,32,24,151,37*75
$GPGSV,3,3,11,22,16,253,,23,18,316,,27,20,187,*4F
$GLGSV,2,1,08,66,37,205,38,86,29,073,38,77,44,326,35,76,32,039,35*61
$GLGSV,2,2,08,87,20,137,35,67,47,284,38,78,12,277,,85,03,023,*65
$GAGSV,1,1,0,*74
$PQGSV,1,1,03,193,26,175,35,194,68,043,34,195,47,136,37,0,5*6F
$PQGSV,1,1,0,*73
$GNGSA,A,3,14,16,21,26,27,29,31,32,,,,,1.2,0.8,0.8,1*3A
$GNGSA,A,3,66,67,77,87,,,,,,,,,1.2,0.8,0.8,2*3F
$PQGSA,A,2,01,02,03,,,,,,,,,,1.2,0.8,0.8,5*3F
$GNVTG,199.8,T,199.8,M,3.4,N,6.3,K,A*3F
$GNRMC,103425.00,A,3116.917865,N,12129.927305,E,3.4,199.8,051219,4.5,W,A*3B
$GNGGA,103425.00,3116.917865,N,12129.927305,E,1,12,0.8,-3.6,M,9.7,M,,*6C
$GPGSV,3,1,10,14,54,154,38,16,57,258,37,21,04,108,34,26,71,330,44*70
$GPGSV,3,2,10,29,23,046,43,31,54,054,40,32,24,151,40,22,16,253,*75
$GPGSV,3,3,10,23,18,316,,27,20,187,*7D
$GLGSV,2,1,08,66,37,205,33,86,29,073,39,77,44,326,34,76,32,039,38*67
$GLGSV,2,2,08,87,20,137,36,67,47,284,40,78,12,277,,85,03,023,*69
$GAGSV,1,1,0,*74
$PQGSV,1,1,03,193,26,175,33,194,68,043,34,195,47,136,33,0,5*6D
$PQGSV,1,1,0,*73
$GNGSA,A,3,14,16,21,26,27,29,31,32,,,,,1.2,0.8,0.8,1*3A
$GNGSA,A,3,66,67,77,87,,,,,,,,,1.2,0.8,0.8,2*3F
$PQGSA,A,2,01,02,03,,,,,,,,,,1.2,0.8,0.8,5*3F
$GNVTG,200.9,T,200.9,M,3.3,N,6.2,K,A*39
$GNRMC,103426.00,A,3116.916858,N,12129.926916,E,3.3,200.9,051219,4.5,W,A*3B
$GNGGA,103426.00,3116.916858,N,12129.926916,E,1,12,0.8,-3.4,M,9.7,M,,*6B
$GPGSV,3,1,11,14,54,154,41,16,57,258,38,21,04,108,35,26,71,330,44*71
$GPGSV,3,2,11,29,23,046,44,31,54,054,43,32,24,151,38,03,18,275,*76
$GPGSV,3,3,11,22,16,253,,23,18,316,,27,20,187,*4F
$GLGSV,2,1,08,66,37,205,34,86,29,073,33,77,44,326,34,76,32,039,38*6A
$GLGSV,2,2,08,87,20,137,36,67,47,284,38,78,12,277,,85,03,023,*66
$GAGSV,1,1,0,*74
$PQGSV,1,1,03,193,26,175,32,194,68,043,35,195,47,136,30,0,5*6E
$PQGSV,1,1,0,*73
$GNGSA,A,3,14,16,21,26,27,29,31,32,,,,,1.2,0.8,0.8,1*3A
$GNGSA,A,3,66,67,77,87,,,,,,,,,1.2,0.8,0.8,2*3F
$PQGSA,A,2,01,02,03,,,,,,,,,,1.2,0.8,0.8,5*3F
$GNVTG,201.9,T,201.9,M,2.3,N,4.3,K,A*3B
$GNRMC,103427.00,A,3116.916031,N,12129.926582,E,2.3,201.9,051219,4.5,W,A*3C
$GNGGA,103427.00,3116.916031,N,12129.926582,E,1,12,0.8,-4.0,M,9.7,M,,*6F
$GPGSV,3,1,09,14,54,154,42,16,57,258,38,26,71,330,42,29,23,046,35*7B
$GPGSV,3,2,09,31,54,054,42,32,24,151,35,22,16,253,,23,18,316,*7E
$GPGSV,3,3,09,27,20,187,*49
$GLGSV,2,1,08,66,37,205,37,86,29,073,38,77,44,326,35,76,32,039,35*6E
$GLGSV,2,2,08,87,20,137,33,85,03,023,23,67,47,284,36,78,12,277,*6C
$GAGSV,1,1,0,*74
$PQGSV,1,1,03,193,26,175,37,194,68,043,35,195,47,136,36,0,5*6D
$PQGSV,1,1,0,*73
$GNGSA,A,3,14,16,21,26,27,29,31,32,,,,,1.2,0.8,0.8,1*3A
$GNGSA,A,3,66,67,77,87,,,,,,,,,1.2,0.8,0.8,2*3F
$PQGSA,A,2,01,02,03,,,,,,,,,,1.2,0.8,0.8,5*3F
$GNVTG,203.2,T,203.2,M,2.8,N,5.2,K,A*30
$GNRMC,103428.00,A,3116.915300,N,12129.926330,E,2.8,203.2,051219,4.5,W,A*3C
$GNGGA,103428.00,3116.915300,N,12129.926330,E,1,12,0.8,-3.3,M,9.7,M,,*69
$GPGSV,3,1,11,14,54,154,40,16,57,258,39,21,04,108,34,26,71,330,43*77
$GPGSV,3,2,11,29,23,046,38,31,54,054,42,32,24,151,40,03,18,275,*73
$GPGSV,3,3,11,22,16,253,,23,18,316,,27,20,187,*4F
$GLGSV,2,1,06,86,29,073,36,77,44,326,31,76,32,039,36,87,20,137,32*67
$GLGSV,2,2,06,67,47,284,39,78,12,277,*6B
$GAGSV,1,1,0,*74
$PQGSV,1,1,03,193,26,175,33,194,68,043,33,195,47,136,33,0,5*6A
$PQGSV,1,1,0,*73
$GNGSA,A,3,14,16,21,26,29,31,32,,,,,,1.2,0.9,0.8,1*3E
$GNGSA,A,3,66,67,77,87,,,,,,,,,1.2,0.9,0.8,2*3E
$PQGSA,A,2,01,02,03,,,,,,,,,,1.2,0.9,0.8,5*3E
$GNVTG,203.2,T,203.2,M,2.3,N,4.3,K,A*3B
$GNRMC,103429.00,A,3116.914549,N,12129.926079,E,2.3,203.2,051219,4.5,W,A*32
$GNGGA,103429.00,3116.914549,N,12129.926079,E,1,12,0.9,-4.1,M,9.7,M,,*68
$GPGSV,3,1,11,14,54,154,33,16,57,258,37,21,04,108,31,26,71,330,42*79
$GPGSV,3,2,11,29,23,046,40,31,54,054,40,32,24,151,41,03,18,275,*7F
$GPGSV,3,3,11,22,16,253,,23,18,316,,27,20,187,*4F
$GLGSV,2,1,08,66,37,205,43,86,29,073,40,77,44,326,36,76,32,039,38*6C
$GLGSV,2,2,08,87,20,137,35,67,47,284,40,78,12,277,,85,03,023,*6A
$GAGSV,1,1,0,*74
$PQGSV,1,1,03,193,26,175,30,194,68,043,34,195,47,136,36,0,5*6B
$PQGSV,1,1,0,*73
$GNGSA,A,3,14,16,21,26,29,31,32,,,,,,1.2,0.9,0.8,1*3E
$GNGSA,A,3,66,67,77,87,,,,,,,,,1.2,0.9,0.8,2*3E
$PQGSA,A,2,01,02,03,,,,,,,,,,1.2,0.9,0.8,5*3E
$GNVTG,196.9,T,196.9,M,2.4,N,4.4,K,A*3B
$GNRMC,103430.00,A,3116.913846,N,12129.925889,E,2.4,196.9,051219,4.5,W,A*38
$GNGGA,103430.00,3116.913846,N,12129.925889,E,1,12,0.9,-3.7,M,9.7,M,,*60
$GPGSV,3,1,10,14,54,154,39,16,57,258,41,26,71,330,44,29,23,046,38*7A
$GPGSV,3,2,10,31,54,054,40,32,24,151,36,03,18,275,,22,16,253,*71
$GPGSV,3,3,10,23,18,316,,27,20,187,*7D
$GLGSV,2,1,07,66,37,205,35,86,29,073,43,77,44,326,36,76,32,039,39*60
$GLGSV,2,2,07,67,47,284,40,78,12,277,,85,03,023,*5B
$GAGSV,1,1,0,*74
$PQGSV,1,1,03,193,26,175,36,194,68,043,36,195,47,136,38,0,5*61
$PQGSV,1,1,0,*73
$GNGSA,A,3,14,16,21,26,29,31,32,,,,,,1.2,0.9,0.8,1*3E
$GNGSA,A,3,66,67,77,87,,,,,,,,,1.2,0.9,0.8,2*3E
$PQGSA,A,2,01,02,03,,,,,,,,,,1.2,0.9,0.8,5*3E
$GNVTG,198.6,T,198.6,M,3.1,N,5.8,K,A*32
$GNRMC,103431.00,A,3116.913015,N,12129.925668,E,3.1,198.6,051219,4.5,W,A*33
$GNGGA,103431.00,3116.913015,N,12129.925668,E,1,12,0.9,-3.5,M,9.7,M,,*6C
$GPGSV,3,1,11,03,18,275,30,14,54,154,36,16,57,258,40,26,71,330,43*78
$GPGSV,3,2,11,29,23,046,39,31,54,054,41,32,24,151,39,21,04,108,*7B
$GPGSV,3,3,11,22,16,253,,23,18,316,,27,20,187,*4F
$GLGSV,2,1,08,66,37,205,40,86,29,073,42,77,44,326,35,76,32,039,32*64
$GLGSV,2,2,08,67,47,284,38,78,12,277,,87,20,137,,85,03,023,*63
$GAGSV,1,1,0,*74
$PQGSV,1,1,02,194,68,043,35,195,47,136,29,0,5*6A
$PQGSV,1,1,0,*73
$GNGSA,A,3,03,14,16,21,26,29,31,32,,,,,1.1,0.7,0.8,1*30
$GNGSA,A,3,66,67,77,87,,,,,,,,,1.1,0.7,0.8,2*33
$PQGSA,A,2,01,02,03,,,,,,,,,,1.1,0.7,0.8,5*33
$GNVTG,198.8,T,198.8,M,2.9,N,5.4,K,A*37
$GNRMC,103432.00,A,3116.912231,N,12129.925411,E,2.9,198.8,051219,4.5,W,A*3E
$GNGGA,103432.00,3116.912231,N,12129.925411,E,1,12,0.7,-4.4,M,9.7,M,,*6E
$GPGSV,3,1,09,14,54,154,37,16,57,258,39,26,71,330,41,29,23,046,38*76
$GPGSV,3,2,09,31,54,054,41,32,24,151,38,22,16,253,,23,18,316,*70
$GPGSV,3,3,09,27,20,187,*49
$GLGSV,2,1,08,66,37,205,32,86,29,073,44,77,44,326,35,76,32,039,36*63
$GLGSV,2,2,08,87,20,137,36,85,03,023,27,67,47,284,38,78,12,277,*63
$GAGSV,1,1,0,*74
$PQGSV,1,1,02,194,68,043,37,193,26,175,,0,5*65
$PQGSV,1,1,0,*73
$GNGSA,A,3,03,14,16,21,26,29,31,32,,,,,1.1,0.7,0.8,1*30
$GNGSA,A,3,66,67,77,87,,,,,,,,,1.1,0.7,0.8,2*33
$PQGSA,A,2,01,02,03,,,,,,,,,,1.1,0.7,0.8,5*33
$GNVTG,192.5,T,192.5,M,2.6,N,4.8,K,A*35
$GNRMC,103433.00,A,3116.911484,N,12129.925199,E,2.6,192.5,051219,4.5,W,A*39
$GNGGA,103433.00,3116.911484,N,12129.925199,E,1,12,0.7,-4.9,M,9.7,M,,*6C
$GPGSV,3,1,11,03,18,275,26,14,54,154,39,16,57,258,38,21,04,108,29*7F
$GPGSV,3,2,11,23,18,316,26,26,71,330,43,29,23,046,38,31,54,054,42*72
$GPGSV,3,3,11,32,24,151,36,22,16,253,,27,20,187,*44
$GLGSV,2,1,08,66,37,205,32,86,29,073,38,77,44,326,35,76,32,039,36*68
$GLGSV,2,2,08,87,20,137,34,85,03,023,23,67,47,284,36,78,12,277,*6B
$GAGSV,1,1,0,*74
$PQGSV,1,1,03,193,26,175,24,194,68,043,36,195,47,136,34,0,5*6E
$PQGSV,1,1,0,*73
$GNGSA,A,3,03,14,16,21,23,26,29,31,32,,,,1.0,0.7,0.7,1*3F
$GNGSA,A,3,66,67,77,87,,,,,,,,,1.0,0.7,0.7,2*3D
$PQGSA,A,2,01,02,03,,,,,,,,,,1.0,0.7,0.7,5*3D
$GNVTG,188.2,T,188.2,M,2.6,N,4.8,K,A*35
$GNRMC,103434.00,A,3116.910792,N,12129.925082,E,2.6,188.2,051219,4.5,W,A*3C
$GNGGA,103434.00,3116.910792,N,12129.925082,E,1,12,0.7,-4.6,M,9.7,M,,*6A
$GPGSV,3,1,10,03,18,275,27,14,54,154,39,16,57,258,37,21,04,108,27*7E
$GPGSV,3,2,10,26,71,330,39,29,23,046,40,31,54,054,43,32,24,151,37*7E
$GPGSV,3,3,10,22,16,253,,27,20,187,*72
$GLGSV,2,1,08,78,12,277,23,66,37,205,39,86,29,073,44,77,44,326,34*69
$GLGSV,2,2,08,76,32,039,36,87,20,137,34,85,03,023,24,67,47,284,35*6E
$GAGSV,1,1,0,*74
$PQGSV,1,1,03,193,26,175,28,194,68,043,35,195,47,136,38,0,5*6D
$PQGSV,1,1,0,*73
$GNGSA,A,3,03,14,16,21,23,26,29,31,32,,,,1.0,0.7,0.7,1*3F
$GNGSA,A,3,66,67,77,78,87,,,,,,,,1.0,0.7,0.7,2*32
$PQGSA,A,2,01,02,03,,,,,,,,,,1.0,0.7,0.7,5*3D
$GNVTG,194.6,T,194.6,M,2.8,N,5.2,K,A*30
$GNRMC,103435.00,A,3116.910090,N,12129.924981,E,2.8,194.6,051219,4.5,W,A*34
$GNGGA,103435.00,3116.910090,N,12129.924981,E,1,12,0.7,-3.6,M,9.7,M,,*62
$GPGSV,3,1,11,03,18,275,28,14,54,154,38,16,57,258,37,21,04,108,24*72
$GPGSV,3,2,11,23,18,316,23,26,71,330,37,29,23,046,36,31,54,054,39*76
$GPGSV,3,3,11,32,24,151,36,22,16,253,,27,20,187,*44
$GLGSV,2,1,07,66,37,205,39,86,29,073,41,77,44,326,32,76,32,039,32*61
$GLGSV,2,2,07,87,20,137,32,85,03,023,22,67,47,284,37*5C
$GAGSV,1,1,0,*74
$PQGSV,1,1,03,193,26,175,29,194,68,043,33,195,47,136,35,0,5*67
$PQGSV,1,1,0,*73
$GNGSA,A,3,03,14,16,21,23,26,29,31,32,,,,1.0,0.7,0.7,1*3F
$GNGSA,A,3,66,67,77,78,87,,,,,,,,1.0,0.7,0.7,2*32
$PQGSA,A,2,01,02,03,,,,,,,,,,1.0,0.7,0.7,5*3D
$GNVTG,194.3,T,194.3,M,2.4,N,4.5,K,A*3A
$GNRMC,103436.00,A,3116.909419,N,12129.924897,E,2.4,194.3,051219,4.5,W,A*35
$GNGGA,103436.00,3116.909419,N,12129.924897,E,1,12,0.7,-3.2,M,9.7,M,,*6E
$GPGSV,3,1,09,03,18,275,37,14,54,154,38,16,57,258,37,26,71,330,42*79
$GPGSV,3,2,09,29,23,046,41,31,54,054,38,32,24,151,36,22,16,253,*71
$GPGSV,3,3,09,27,20,187,*49
$GLGSV,2,1,06,66,37,205,39,86,29,073,41,76,32,039,32,87,20,137,29*65
$GLGSV,2,2,06,67,47,284,43,78,12,277,*66
$GAGSV,1,1,0,*74
$PQGSV,1,1,02,194,68,043,36,195,47,136,33,0,5*62
$PQGSV,1,1,0,*73
$GNGSA,A,3,03,14,16,21,23,26,29,31,32,,,,1.0,0.7,0.7,1*3F
$GNGSA,A,3,66,67,77,78,87,,,,,,,,1.0,0.7,0.7,2*32
$PQGSA,A,2,01,02,03,,,,,,,,,,1.0,0.7,0.7,5*3D
$GNVTG,178.3,T,178.3,M,3.0,N,5.5,K,A*3E
$GNRMC,103437.00,A,3116.908563,N,12129.924842,E,3.0,178.3,051219,4.5,W,A*36
$GNGGA,103437.00,3116.908563,N,12129.924842,E,1,12,0.7,-2.6,M,9.7,M,,*6F
