# 2019 12 06 16:38:57
#
# Version: 10 Manufacturer: Google Make: Pixel 2 XL
#
$GPGSV,3,1,09,03,07,320,23,10,20,182,33,14,68,347,39,25,39,042,34*73
$GPGSV,3,2,09,26,42,219,31,29,27,101,28,31,56,320,35,32,71,098,40*7B
$GPGSV,3,3,09,16,14,213,*42
$GLGSV,1,1,04,66,56,167,33,76,28,030,31,67,61,314,33,86,05,078,*6C
$GAGSV,1,1,0,*74
$PQGSV,1,1,02,194,73,047,35,195,26,143,28,0,5*60
$PQGSV,1,1,0,*73
$GNGSA,A,3,03,10,14,16,22,25,26,29,31,32,,,1.0,0.7,0.7,1*3B
$GNGSA,A,3,66,67,76,78,,,,,,,,,1.0,0.7,0.7,2*3C
$PQGSA,A,2,01,02,03,,,,,,,,,,1.0,0.7,0.7,5*3D
$GNVTG,,T,,M,0.0,N,0.0,K,A*3D
$GNRMC,083857.00,A,3117.170615,N,12130.028591,E,0.0,,061219,4.5,W,A*1C
$GNGGA,083857.00,3117.170615,N,12130.028591,E,1,12,0.7,6.4,M,9.7,M,,*4D
$GPGSV,3,1,10,03,07,320,33,10,20,182,25,14,68,347,30,16,14,213,28*70
$GPGSV,3,2,10,22,20,303,31,25,39,042,34,26,42,219,26,29,27,101,27*72
$GPGSV,3,3,10,31,56,320,38,32,71,098,37*71
$GLGSV,2,1,05,66,56,167,31,76,28,030,27,67,61,314,39,78,26,253,*6A
$GLGSV,2,2,05,86,05,078,*54
$GAGSV,1,1,0,*74
$PQGSV,1,1,03,193,45,167,27,194,73,047,33,195,26,143,29,0,5*69
$PQGSV,1,1,0,*73
$GNGSA,A,3,03,10,14,16,22,25,26,29,31,32,,,1.0,0.7,0.7,1*3B
$GNGSA,A,3,66,67,76,78,,,,,,,,,1.0,0.7,0.7,2*3C
$PQGSA,A,2,01,02,03,,,,,,,,,,1.0,0.7,0.7,5*3D
$GNVTG,319.2,T,319.2,M,1.7,N,3.1,K,A*39
$GNRMC,083858.00,A,3117.170942,N,12130.028129,E,1.7,319.2,061219,4.5,W,A*38
$GNGGA,083858.00,3117.170942,N,12130.028129,E,1,12,0.7,6.0,M,9.7,M,,*4C
$GPGSV,3,1,10,03,07,320,30,10,20,182,25,14,68,347,36,16,14,213,29*74
$GPGSV,3,2,10,22,20,303,31,25,39,042,35,26,42,219,27,29,27,101,31*75
$GPGSV,3,3,10,31,56,320,32,32,71,098,37*7B
$GLGSV,2,1,05,78,26,253,24,66,56,167,33,76,28,030,31,67,61,314,31*61
$GLGSV,2,2,05,86,05,078,*54
$GAGSV,1,1,0,*74
$PQGSV,1,1,03,193,45,167,28,194,73,047,29,195,26,143,24,0,5*60
$PQGSV,1,1,0,*73
$GNGSA,A,3,03,10,14,16,22,25,26,29,31,32,,,1.0,0.7,0.7,1*3B
$GNGSA,A,3,66,67,76,78,,,,,,,,,1.0,0.7,0.7,2*3C
$PQGSA,A,2,01,02,03,,,,,,,,,,1.0,0.7,0.7,5*3D
$GNVTG,318.3,T,318.3,M,2.4,N,4.5,K,A*3A
$GNRMC,083859.00,A,3117.171408,N,12130.027202,E,2.4,318.3,061219,4.5,W,A*3E
$GNGGA,083859.00,3117.171408,N,12130.027202,E,1,12,0.7,5.4,M,9.7,M,,*4D
$GPGSV,2,1,08,03,07,320,30,10,20,182,33,14,68,347,30,22,20,303,26*72
$GPGSV,2,2,08,25,39,042,35,29,27,101,31,31,56,320,42,32,71,098,37*74
$GLGSV,2,1,05,78,26,253,24,66,56,167,37,76,28,030,27,67,61,314,42*66
$GLGSV,2,2,05,86,05,078,*54
$GAGSV,1,1,0,*74
$PQGSV,1,1,03,193,45,167,30,194,73,047,29,195,26,143,28,0,5*65
$PQGSV,1,1,0,*73
$GNGSA,A,3,03,10,14,16,22,25,26,29,31,32,,,1.0,0.7,0.7,1*3B
$GNGSA,A,3,66,67,76,78,,,,,,,,,1.0,0.7,0.7,2*3C
$PQGSA,A,2,01,02,03,,,,,,,,,,1.0,0.7,0.7,5*3D
$GNVTG,318.7,T,318.7,M,1.4,N,2.6,K,A*3C
$GNRMC,083900.00,A,3117.171773,N,12130.026480,E,1.4,318.7,061219,4.5,W,A*36
$GNGGA,083900.00,3117.171773,N,12130.026480,E,1,12,0.7,5.8,M,9.7,M,,*4E
$GPGSV,3,1,09,03,07,320,31,14,68,347,37,22,20,303,30,25,39,042,29*7B
$GPGSV,3,2,09,26,42,219,29,29,27,101,29,31,56,320,34,32,71,098,35*70
$GPGSV,3,3,09,16,14,213,*42
$GLGSV,1,1,04,66,56,167,31,76,28,030,33,67,61,314,36,86,05,078,*69
$GAGSV,1,1,0,*74
$PQGSV,1,1,03,193,45,167,27,194,73,047,31,195,26,143,27,0,5*65
$PQGSV,1,1,0,*73
$GNGSA,A,3,03,10,14,16,22,25,26,29,31,32,,,1.0,0.7,0.7,1*3B
$GNGSA,A,3,66,67,76,78,,,,,,,,,1.0,0.7,0.7,2*3C
$PQGSA,A,2,01,02,03,,,,,,,,,,1.0,0.7,0.7,5*3D
$GNVTG,318.7,T,318.7,M,1.3,N,2.3,K,A*3E
$GNRMC,083901.00,A,3117.172025,N,12130.025814,E,1.3,318.7,061219,4.5,W,A*35
$GNGGA,083901.00,3117.172025,N,12130.025814,E,1,12,0.7,3.3,M,9.7,M,,*47
$GPGSV,3,1,10,03,07,320,27,10,20,182,28,14,68,347,35,22,20,303,29*7C
$GPGSV,3,2,10,25,39,042,35,26,42,219,28,29,27,101,34,31,56,320,38*74
$GPGSV,3,3,10,32,71,098,39,16,14,213,*76
$GLGSV,2,1,05,78,26,253,24,66,56,167,37,76,28,030,34,67,61,314,31*60
$GLGSV,2,2,05,86,05,078,*54
$GAGSV,1,1,0,*74
$PQGSV,1,1,03,193,45,167,25,194,73,047,23,195,26,143,33,0,5*61
$PQGSV,1,1,0,*73
$GNGSA,A,3,03,10,14,16,22,25,26,29,31,32,,,1.0,0.7,0.7,1*3B
$GNGSA,A,3,66,67,76,78,,,,,,,,,1.0,0.7,0.7,2*3C
$PQGSA,A,2,01,02,03,,,,,,,,,,1.0,0.7,0.7,5*3D
$GNVTG,295.9,T,295.9,M,1.5,N,2.8,K,A*33
$GNRMC,083902.00,A,3117.172337,N,12130.025168,E,1.5,295.9,061219,4.5,W,A*38
$GNGGA,083902.00,3117.172337,N,12130.025168,E,1,12,0.7,3.4,M,9.7,M,,*41
$GPGSV,3,1,09,03,07,320,28,10,20,182,36,14,68,347,35,16,14,213,24*79
$GPGSV,3,2,09,25,39,042,28,26,42,219,30,29,27,101,33,31,56,320,32*74
$GPGSV,3,3,09,32,71,098,34*41
$GLGSV,1,1,04,66,56,167,31,76,28,030,33,67,61,314,36,86,05,078,*69
$GAGSV,1,1,0,*74
$PQGSV,1,1,03,193,45,167,26,194,73,047,36,195,26,143,25,0,5*61
$PQGSV,1,1,0,*73
$GNGSA,A,3,03,10,14,16,22,25,26,29,31,32,,,1.0,0.7,0.7,1*3B
$GNGSA,A,3,66,67,76,78,,,,,,,,,1.0,0.7,0.7,2*3C
$PQGSA,A,2,01,02,03,,,,,,,,,,1.0,0.7,0.7,5*3D
$GNVTG,296.1,T,296.1,M,0.9,N,1.6,K,A*33
$GNRMC,083903.00,A,3117.172652,N,12130.024552,E,0.9,296.1,061219,4.5,W,A*35
$GNGGA,083903.00,3117.172652,N,12130.024552,E,1,12,0.7,3.9,M,9.7,M,,*47
$GPGSV,3,1,10,03,07,320,26,10,20,182,26,14,68,347,37,16,14,213,25*7D
$GPGSV,3,2,10,22,20,303,25,25,39,042,30,26,42,219,23,29,27,101,31*71
$GPGSV,3,3,10,31,56,320,35,32,71,098,37*7C
$GLGSV,2,1,05,78,26,253,22,66,56,167,34,76,28,030,29,67,61,314,35*6D
$GLGSV,2,2,05,86,05,078,*54
$GAGSV,1,1,0,*74
$PQGSV,1,1,03,193,45,167,25,194,73,047,33,195,26,143,22,0,5*60
$PQGSV,1,1,0,*73
$GNGSA,A,3,03,10,14,16,22,25,26,29,31,32,,,1.0,0.7,0.7,1*3B
$GNGSA,A,3,66,67,76,78,,,,,,,,,1.0,0.7,0.7,2*3C
$PQGSA,A,2,01,02,03,,,,,,,,,,1.0,0.7,0.7,5*3D
$GNVTG,296.0,T,296.0,M,1.5,N,2.8,K,A*33
$GNRMC,083904.00,A,3117.173082,N,12130.023961,E,1.5,296.0,061219,4.5,W,A*3F
$GNGGA,083904.00,3117.173082,N,12130.023961,E,1,12,0.7,3.2,M,9.7,M,,*4A
$GPGSV,3,1,10,03,07,320,29,10,20,182,33,14,68,347,38,16,14,213,26*7A
$GPGSV,3,2,10,22,20,303,28,25,39,042,40,26,42,219,23,29,27,101,29*72
$GPGSV,3,3,10,31,56,320,32,32,71,098,36*7A
$GLGSV,1,1,04,66,56,167,29,76,28,030,27,67,61,314,31,86,05,078,*62
$GAGSV,1,1,0,*74
$PQGSV,1,1,03,193,45,167,30,194,73,047,31,195,26,143,25,0,5*61
$PQGSV,1,1,0,*73
$GNGSA,A,3,03,10,14,16,22,25,26,29,31,32,,,1.0,0.7,0.7,1*3B
$GNGSA,A,3,66,67,76,78,,,,,,,,,1.0,0.7,0.7,2*3C
$PQGSA,A,2,01,02,03,,,,,,,,,,1.0,0.7,0.7,5*3D
$GNVTG,296.0,T,296.0,M,2.2,N,4.1,K,A*38
$GNRMC,083905.00,A,3117.173594,N,12130.023248,E,2.2,296.0,061219,4.5,W,A*38
$GNGGA,083905.00,3117.173594,N,12130.023248,E,1,12,0.7,3.9,M,9.7,M,,*42
$GPGSV,3,1,09,03,07,320,29,10,20,182,31,14,68,347,36,22,20,303,24*7C
$GPGSV,3,2,09,25,39,042,33,26,42,219,25,29,27,101,30,31,56,320,34*7F
$GPGSV,3,3,09,32,71,098,36*43
$GLGSV,1,1,04,76,28,030,32,67,61,314,38,78,26,253,,86,05,078,*68
$GAGSV,1,1,0,*74
$PQGSV,1,1,02,193,45,167,26,194,73,047,35,0,5*6B
$PQGSV,1,1,0,*73
$GNGSA,A,3,03,10,14,16,22,25,26,29,31,32,,,1.0,0.7,0.7,1*3B
$GNGSA,A,3,66,67,76,78,,,,,,,,,1.0,0.7,0.7,2*3C
$PQGSA,A,2,01,02,03,,,,,,,,,,1.0,0.7,0.7,5*3D
$GNVTG,296.0,T,296.0,M,1.1,N,2.1,K,A*3E
$GNRMC,083906.00,A,3117.173978,N,12130.022673,E,1.1,296.0,061219,4.5,W,A*38
$GNGGA,083906.00,3117.173978,N,12130.022673,E,1,12,0.7,4.5,M,9.7,M,,*49
$GPGSV,3,1,09,03,07,320,25,10,20,182,28,14,68,347,36,25,39,042,33*77
$GPGSV,3,2,09,26,42,219,24,29,27,101,29,31,56,320,38,32,71,098,33*77
$GPGSV,3,3,09,16,14,213,*42
$GLGSV,2,1,05,66,56,167,30,76,28,030,27,67,61,314,35,78,26,253,*67
$GLGSV,2,2,05,86,05,078,*54
$GAGSV,1,1,0,*74
$PQGSV,1,1,03,193,45,167,24,194,73,047,32,195,26,143,,0,5*60
$PQGSV,1,1,0,*73
$GNGSA,A,3,03,10,14,16,22,25,26,29,31,32,,,1.0,0.7,0.7,1*3B
$GNGSA,A,3,66,67,76,78,,,,,,,,,1.0,0.7,0.7,2*3C
$PQGSA,A,2,01,02,03,,,,,,,,,,1.0,0.7,0.7,5*3D
$GNVTG,296.0,T,296.0,M,2.1,N,3.8,K,A*35
$GNRMC,083907.00,A,3117.174247,N,12130.022036,E,2.1,296.0,061219,4.5,W,A*3D
$GNGGA,083907.00,3117.174247,N,12130.022036,E,1,12,0.7,4.6,M,9.7,M,,*4C
$GPGSV,3,1,10,03,07,320,25,10,20,182,30,14,68,347,29,16,14,213,25*76
$GPGSV,3,2,10,22,20,303,28,25,39,042,37,26,42,219,30,29,27,101,31*79
$GPGSV,3,3,10,31,56,320,37,32,71,098,39*70
$GLGSV,2,1,05,78,26,253,24,66,56,167,37,76,28,030,30,67,61,314,30*65
$GLGSV,2,2,05,86,05,078,*54
$GAGSV,1,1,0,*74
$PQGSV,1,1,03,193,45,167,28,194,73,047,32,195,26,143,,0,5*6C
$PQGSV,1,1,0,*73
$GNGSA,A,3,03,10,14,16,22,25,26,29,31,32,,,1.0,0.7,0.7,1*3B
$GNGSA,A,3,66,67,76,78,,,,,,,,,1.0,0.7,0.7,2*3C
$PQGSA,A,2,01,02,03,,,,,,,,,,1.0,0.7,0.7,5*3D
$GNVTG,295.9,T,295.9,M,1.9,N,3.5,K,A*33
$GNRMC,083908.00,A,3117.174439,N,12130.021182,E,1.9,295.9,061219,4.5,W,A*31
$GNGGA,083908.00,3117.174439,N,12130.021182,E,1,12,0.7,5.1,M,9.7,M,,*47
$GPGSV,3,1,10,03,07,320,21,10,20,182,25,14,68,347,35,16,14,213,22*7C
$GPGSV,3,2,10,22,20,303,28,25,39,042,29,26,42,219,23,29,27,101,29*7D
$GPGSV,3,3,10,31,56,320,29,32,71,098,36*70
$GLGSV,1,1,04,66,56,167,34,76,28,030,31,67,61,314,33,86,05,078,*6B
$GAGSV,1,1,0,*74
$PQGSV,1,1,03,193,45,167,25,194,73,047,27,195,26,143,,0,5*65
$PQGSV,1,1,0,*73
$GNGSA,A,3,03,10,14,16,22,25,26,29,31,32,,,1.0,0.7,0.7,1*3B
$GNGSA,A,3,66,67,76,78,,,,,,,,,1.0,0.7,0.7,2*3C
$PQGSA,A,2,01,02,03,,,,,,,,,,1.0,0.7,0.7,5*3D
$GNVTG,296.0,T,296.0,M,2.1,N,3.9,K,A*34
$GNRMC,083909.00,A,3117.174668,N,12130.020380,E,2.1,296.0,061219,4.5,W,A*36
$GNGGA,083909.00,3117.174668,N,12130.020380,E,1,12,0.7,4.1,M,9.7,M,,*40
$GPGSV,2,1,08,10,20,182,26,14,68,347,31,22,20,303,32,25,39,042,36*7A
$GPGSV,2,2,08,26,42,219,28,29,27,101,31,31,56,320,33,32,71,098,36*7C
$GLGSV,2,1,05,78,26,253,24,66,56,167,32,76,28,030,25,67,61,314,39*6D
$GLGSV,2,2,05,86,05,078,*54
$GAGSV,1,1,0,*74
$PQGSV,1,1,03,193,45,167,29,194,73,047,29,195,26,143,24,0,5*61
$PQGSV,1,1,0,*73
$GNGSA,A,3,03,10,14,16,22,25,26,29,31,32,,,1.0,0.7,0.7,1*3B
$GNGSA,A,3,66,67,76,78,,,,,,,,,1.0,0.7,0.7,2*3C
$PQGSA,A,2,01,02,03,,,,,,,,,,1.0,0.7,0.7,5*3D
$GNVTG,295.9,T,295.9,M,1.8,N,3.4,K,A*33
$GNRMC,083910.00,A,3117.174869,N,12130.019601,E,1.8,295.9,061219,4.5,W,A*37
$GNGGA,083910.00,3117.174869,N,12130.019601,E,1,12,0.7,3.8,M,9.7,M,,*4F
$GPGSV,3,1,10,03,07,320,29,10,20,182,27,14,68,347,25,22,20,303,30*74
$GPGSV,3,2,10,25,39,042,31,26,42,219,29,29,27,101,28,31,56,320,38*7C
$GPGSV,3,3,10,32,71,098,41,16,14,213,*79
$GLGSV,1,1,04,66,56,167,39,76,28,030,32,67,61,314,32,86,05,078,*64
$GAGSV,1,1,0,*74
$PQGSV,1,1,02,193,45,167,31,194,73,047,31,0,5*69
$PQGSV,1,1,0,*73
$GNGSA,A,3,03,10,14,16,22,25,26,29,31,32,,,1.0,0.7,0.7,1*3B
$GNGSA,A,3,66,67,76,78,,,,,,,,,1.0,0.7,0.7,2*3C
$PQGSA,A,2,01,02,03,,,,,,,,,,1.0,0.7,0.7,5*3D
$GNVTG,288.3,T,288.3,M,2.0,N,3.7,K,A*3B
$GNRMC,083911.00,A,3117.174885,N,12130.018904,E,2.0,288.3,061219,4.5,W,A*32
$GNGGA,083911.00,3117.174885,N,12130.018904,E,1,12,0.7,4.3,M,9.7,M,,*4B
$GPGSV,3,1,10,03,07,320,28,10,20,182,27,14,68,347,35,22,20,303,28*7D
$GPGSV,3,2,10,25,39,042,39,26,42,219,28,29,27,101,33,31,56,320,41*71
$GPGSV,3,3,10,32,71,098,36,16,14,213,*79
$GLGSV,2,1,05,78,26,253,24,66,56,167,40,76,28,030,36,67,61,314,34*67
$GLGSV,2,2,05,86,05,078,*54
$GAGSV,1,1,0,*74
$PQGSV,1,1,03,193,45,167,28,194,73,047,36,195,26,143,28,0,5*62
$PQGSV,1,1,0,*73
$GNGSA,A,3,03,10,14,16,22,25,26,29,31,32,,,1.0,0.7,0.7,1*3B
$GNGSA,A,3,66,67,76,78,,,,,,,,,1.0,0.7,0.7,2*3C
$PQGSA,A,2,01,02,03,,,,,,,,,,1.0,0.7,0.7,5*3D
$GNVTG,288.6,T,288.6,M,2.2,N,4.1,K,A*38
$GNRMC,083912.00,A,3117.175065,N,12130.018097,E,2.2,288.6,061219,4.5,W,A*32
$GNGGA,083912.00,3117.175065,N,12130.018097,E,1,12,0.7,3.6,M,9.7,M,,*4E
$GPGSV,3,1,09,03,07,320,30,14,68,347,39,22,20,303,29,25,39,042,31*75
$GPGSV,3,2,09,26,42,219,25,29,27,101,28,31,56,320,40,32,71,098,38*73
$GPGSV,3,3,09,16,14,213,*42
$GLGSV,2,1,05,78,26,253,26,66,56,167,36,76,28,030,33,67,61,314,37*62
$GLGSV,2,2,05,86,05,078,*54
$GAGSV,1,1,0,*74
$PQGSV,1,1,02,193,45,167,31,194,73,047,34,0,5*6C
$PQGSV,1,1,0,*73
$GNGSA,A,3,03,10,14,16,22,25,26,29,31,32,,,1.0,0.7,0.7,1*3B
$GNGSA,A,3,66,67,76,78,,,,,,,,,1.0,0.7,0.7,2*3C
$PQGSA,A,2,01,02,03,,,,,,,,,,1.0,0.7,0.7,5*3D
$GNVTG,288.4,T,288.4,M,2.7,N,5.0,K,A*3D
$GNRMC,083913.00,A,3117.175092,N,12130.017167,E,2.7,288.4,061219,4.5,W,A*3D
$GNGGA,083913.00,3117.175092,N,12130.017167,E,1,12,0.7,3.3,M,9.7,M,,*43
$GPGSV,3,1,10,03,07,320,34,10,20,182,27,14,68,347,36,16,14,213,24*7F
$GPGSV,3,2,10,22,20,303,36,25,39,042,36,26,42,219,29,29,27,101,31*7F
$GPGSV,3,3,10,31,56,320,39,32,71,098,40*70
$GLGSV,1,1,04,66,56,167,40,76,28,030,30,67,61,314,37,86,05,078,*6D
$GAGSV,1,1,0,*74
$PQGSV,1,1,02,193,45,167,30,194,73,047,28,0,5*60
$PQGSV,1,1,0,*73
$GNGSA,A,3,03,10,14,16,22,25,26,29,31,32,,,1.0,0.7,0.7,1*3B
$GNGSA,A,3,66,67,76,78,,,,,,,,,1.0,0.7,0.7,2*3C
$PQGSA,A,2,01,02,03,,,,,,,,,,1.0,0.7,0.7,5*3D
$GNVTG,306.8,T,306.8,M,2.4,N,4.5,K,A*3A
$GNRMC,083914.00,A,3117.175170,N,12130.016195,E,2.4,306.8,061219,4.5,W,A*33
$GNGGA,083914.00,3117.175170,N,12130.016195,E,1,12,0.7,2.9,M,9.7,M,,*4E
$GPGSV,3,1,10,03,07,320,32,10,20,182,23,14,68,347,37,16,14,213,30*79
$GPGSV,3,2,10,22,20,303,35,25,39,042,34,26,42,219,30,29,27,101,31*76
$GPGSV,3,3,10,31,56,320,25,32,71,098,34*7E
$GLGSV,2,1,05,78,26,253,25,66,56,167,38,76,28,030,30,67,61,314,35*6E
$GLGSV,2,2,05,86,05,078,*54
$GAGSV,1,1,0,*74
$PQGSV,1,1,03,193,45,167,34,194,73,047,33,195,26,143,27,0,5*65
$PQGSV,1,1,0,*73
$GNGSA,A,3,03,10,14,16,22,25,26,29,31,32,,,1.0,0.7,0.7,1*3B
$GNGSA,A,3,66,67,76,78,,,,,,,,,1.0,0.7,0.7,2*3C
$PQGSA,A,2,01,02,03,,,,,,,,,,1.0,0.7,0.7,5*3D
$GNVTG,306.9,T,306.9,M,2.2,N,4.1,K,A*38
$GNRMC,083915.00,A,3117.175310,N,12130.015355,E,2.2,306.9,061219,4.5,W,A*3C
$GNGGA,083915.00,3117.175310,N,12130.015355,E,1,12,0.7,4.0,M,9.7,M,,*49
$GPGSV,3,1,10,03,07,320,24,10,20,182,28,14,68,347,33,16,14,213,25*75
$GPGSV,3,2,10,22,20,303,28,25,39,042,27,26,42,219,27,29,27,101,29*77
$GPGSV,3,3,10,31,56,320,36,32,71,098,35*7D
$GLGSV,2,1,05,78,26,253,25,66,56,167,36,76,28,030,32,67,61,314,34*63
$GLGSV,2,2,05,86,05,078,*54
$GAGSV,1,1,0,*74
$PQGSV,1,1,03,193,45,167,33,194,73,047,33,195,26,143,25,0,5*60
$PQGSV,1,1,0,*73
$GNGSA,A,3,03,10,14,16,22,25,26,29,31,32,,,1.0,0.7,0.7,1*3B
$GNGSA,A,3,66,67,76,78,,,,,,,,,1.0,0.7,0.7,2*3C
$PQGSA,A,2,01,02,03,,,,,,,,,,1.0,0.7,0.7,5*3D
$GNVTG,306.9,T,306.9,M,2.1,N,4.0,K,A*3A
$GNRMC,083916.00,A,3117.175499,N,12130.014675,E,2.1,306.9,061219,4.5,W,A*3C
$GNGGA,083916.00,3117.175499,N,12130.014675,E,1,12,0.7,4.1,M,9.7,M,,*4B
$GPGSV,3,1,10,03,07,320,32,10,20,182,31,14,68,347,37,16,14,213,24*7F
$GPGSV,3,2,10,22,20,303,33,25,39,042,35,26,42,219,26,29,27,101,33*74
$GPGSV,3,3,10,31,56,320,40,32,71,098,39*70
$GLGSV,2,1,05,78,26,253,23,66,56,167,33,76,28,030,23,67,61,314,31*65
$GLGSV,2,2,05,86,05,078,*54
$GAGSV,1,1,01,03,81,292,31*58
$PQGSV,1,1,03,193,45,167,31,194,73,047,33,195,26,143,24,0,5*63
$PQGSV,4,1,16,21,64,237,31,26,43,274,38,01,47,147,,02,35,234,,0,4*64
$PQGSV,4,2,16,03,49,199,,04,33,122,,05,14,254,,06,79,071,,0,4*6D
$PQGSV,4,3,16,07,70,217,,09,63,330,,10,41,222,,14,08,322,,0,4*6B
$PQGSV,4,4,16,16,80,045,,22,29,167,,24,01,250,,29,15,102,,0,4*65
$GNGSA,A,3,03,10,14,16,22,25,26,29,31,32,,,1.0,0.7,0.7,1*3B
$GNGSA,A,3,66,67,76,78,,,,,,,,,1.0,0.7,0.7,2*3C
$GNGSA,A,2,03,,,,,,,,,,,,1.0,0.7,0.7,3*30
$PQGSA,A,2,01,02,03,,,,,,,,,,1.0,0.7,0.7,5*3D
$GNVTG,306.8,T,306.8,M,1.5,N,2.7,K,A*3C
$GNRMC,083917.00,A,3117.175675,N,12130.014178,E,1.5,306.8,061219,4.5,W,A*31
$GNGGA,083917.00,3117.175675,N,12130.014178,E,1,12,0.7,4.6,M,9.7,M,,*47
$GPGSV,3,1,09,03,07,320,31,14,68,347,38,16,14,213,25,22,20,303,39*78
$GPGSV,3,2,09,25,39,042,35,26,42,219,28,29,27,101,27,31,56,320,41*70
$GPGSV,3,3,09,32,71,098,33*46
$GLGSV,1,1,04,66,56,167,36,76,28,030,36,67,61,314,38,86,05,078,*65
$GAGSV,1,1,0,*74
$PQGSV,1,1,02,193,45,167,30,194,73,047,27,0,5*6F
$PQGSV,1,1,0,*73
$GNGSA,A,3,03,10,14,16,22,25,26,29,31,32,,,1.0,0.7,0.7,1*3B
$GNGSA,A,3,66,67,76,78,,,,,,,,,1.0,0.7,0.7,2*3C
$GNGSA,A,2,03,,,,,,,,,,,,1.0,0.7,0.7,3*30
$PQGSA,A,2,01,02,03,,,,,,,,,,1.0,0.7,0.7,5*3D
$GNVTG,307.2,T,307.2,M,2.1,N,3.9,K,A*34
$GNRMC,083918.00,A,3117.176042,N,12130.013862,E,2.1,307.2,061219,4.5,W,A*36
$GNGGA,083918.00,3117.176042,N,12130.013862,E,1,12,0.7,4.4,M,9.7,M,,*4E
$GPGSV,3,1,09,03,07,320,27,10,20,182,24,14,68,347,38,22,20,303,33*7E
$GPGSV,3,2,09,25,39,042,34,26,42,219,29,29,27,101,31,31,56,320,38*79
$GPGSV,3,3,09,32,71,098,34*41
$GLGSV,2,1,05,78,26,253,23,66,56,167,28,76,28,030,35,67,61,314,36*6F
$GLGSV,2,2,05,86,05,078,*54
$GAGSV,1,1,01,03,81,292,*5A
$PQGSV,1,1,03,193,45,167,25,194,73,047,32,195,26,143,,0,5*61
$PQGSV,4,1,16,06,79,071,30,07,70,217,32,09,63,330,37,16,80,045,26,0,4*63
$PQGSV,4,2,16,26,43,274,30,01,47,147,,02,35,234,,03,49,199,,0,4*65
$PQGSV,4,3,16,04,33,122,,05,14,254,,10,41,222,,14,08,322,,0,4*65
$PQGSV,4,4,16,21,64,237,,22,29,167,,24,01,250,,29,15,102,,0,4*6C
$GNGSA,A,3,03,10,14,16,22,25,26,29,31,32,,,0.9,0.7,0.7,1*33
$GNGSA,A,3,66,67,76,78,,,,,,,,,0.9,0.7,0.7,2*34
$GNGSA,A,2,03,,,,,,,,,,,,0.9,0.7,0.7,3*38
$PQGSA,A,2,01,02,03,,,,,,,,,,0.9,0.7,0.7,5*35
$PQGSA,A,3,06,07,09,16,,,,,,,,,0.9,0.7,0.7,4*3A
$GNVTG,307.1,T,307.1,M,2.2,N,4.0,K,A*39
$GNRMC,083919.00,A,3117.176323,N,12130.013356,E,2.2,307.1,061219,4.5,W,A*3F
$GNGGA,083919.00,3117.176323,N,12130.013356,E,1,12,0.7,4.9,M,9.7,M,,*4A
$GPGSV,3,1,10,03,07,320,23,10,20,182,25,14,68,347,34,16,14,213,17*79
$GPGSV,3,2,10,22,20,303,30,25,39,042,33,26,42,219,24,29,27,101,28*79
$GPGSV,3,3,10,31,56,320,37,32,71,098,35*7C
$GLGSV,2,1,05,78,26,253,21,66,56,167,38,76,28,030,34,67,61,314,33*68
$GLGSV,2,2,05,86,05,078,*54
$GAGSV,1,1,01,03,81,292,*5A
$PQGSV,1,1,03,193,45,167,27,194,73,047,29,195,26,143,,0,5*69
$PQGSV,4,1,16,01,47,147,27,03,49,199,22,06,79,071,28,07,70,217,30,0,4*60
$PQGSV,4,2,16,09,63,330,30,16,80,045,29,21,64,237,28,26,43,274,36,0,4*6A
$PQGSV,4,3,16,02,35,234,,04,33,122,,05,14,254,,10,41,222,,0,4*6A
$PQGSV,4,4,16,14,08,322,,22,29,167,,24,01,250,,29,15,102,,0,4*65
$GNGSA,A,3,03,10,14,16,22,25,26,29,31,32,,,0.9,0.6,0.7,1*32
$GNGSA,A,3,66,67,76,78,,,,,,,,,0.9,0.6,0.7,2*35
$GNGSA,A,2,03,,,,,,,,,,,,0.9,0.6,0.7,3*39
$PQGSA,A,2,01,02,03,,,,,,,,,,0.9,0.6,0.7,5*34
$PQGSA,A,3,01,06,07,09,16,,,,,,,,0.9,0.6,0.7,4*3A
$GNVTG,291.8,T,291.8,M,2.4,N,4.4,K,A*3B
$GNRMC,083920.00,A,3117.176582,N,12130.012754,E,2.4,291.8,061219,4.5,W,A*3E
$GNGGA,083920.00,3117.176582,N,12130.012754,E,1,12,0.6,4.6,M,9.7,M,,*44
$GPGSV,3,1,10,03,07,320,20,10,20,182,22,14,68,347,35,16,14,213,18*73
$GPGSV,3,2,10,22,20,303,35,25,39,042,34,26,42,219,25,29,27,101,31*72
$GPGSV,3,3,10,31,56,320,36,32,71,098,37*7F
$GLGSV,2,1,05,78,26,253,21,66,56,167,38,76,28,030,36,67,61,314,36*6F
$GLGSV,2,2,05,86,05,078,*54
$GAGSV,1,1,01,03,81,292,*5A
$PQGSV,1,1,03,193,45,167,29,194,73,047,30,195,26,143,21,0,5*6C
$PQGSV,4,1,16,01,47,147,28,03,49,199,21,06,79,071,28,07,70,217,27,0,4*6A
$PQGSV,4,2,16,09,63,330,30,10,41,222,17,14,08,322,18,16,80,045,27,0,4*69
$PQGSV,4,3,16,21,64,237,32,22,29,167,23,26,43,274,35,02,35,234,,0,4*62
$PQGSV,4,4,16,04,33,122,,05,14,254,,24,01,250,,29,15,102,,0,4*66
$GNGSA,A,3,03,10,14,16,22,25,26,29,31,32,,,0.9,0.6,0.7,1*32
$GNGSA,A,3,66,67,76,78,,,,,,,,,0.9,0.6,0.7,2*35
$GNGSA,A,2,03,,,,,,,,,,,,0.9,0.6,0.7,3*39
$PQGSA,A,2,01,02,03,,,,,,,,,,0.9,0.6,0.7,5*34
$PQGSA,A,3,01,06,07,09,16,,,,,,,,0.9,0.6,0.7,4*3A
$GNVTG,289.2,T,289.2,M,1.5,N,2.7,K,A*3C
$GNRMC,083921.00,A,3117.176777,N,12130.012209,E,1.5,289.2,061219,4.5,W,A*3B
$GNGGA,083921.00,3117.176777,N,12130.012209,E,1,12,0.6,4.2,M,9.7,M,,*44
$GPGSV,3,1,10,03,07,320,25,10,20,182,27,14,68,347,33,16,14,213,19*74
$GPGSV,3,2,10,22,20,303,37,25,39,042,33,26,42,219,24,29,27,101,33*74
$GPGSV,3,3,10,31,56,320,37,32,71,098,38*71
$GLGSV,2,1,05,78,26,253,23,66,56,167,38,76,28,030,36,67,61,314,36*6D
$GLGSV,2,2,05,86,05,078,*54
$GAGSV,1,1,01,03,81,292,*5A
$PQGSV,1,1,03,193,45,167,33,194,73,047,32,195,26,143,22,0,5*66
$PQGSV,4,1,16,01,47,147,30,03,49,199,21,06,79,071,25,07,70,217,30,0,4*68
$PQGSV,4,2,16,09,63,330,33,10,41,222,17,14,08,322,20,16,80,045,27,0,4*61
$PQGSV,4,3,16,21,64,237,31,22,29,167,20,02,35,234,,04,33,122,,0,4*63
$PQGSV,4,4,16,05,14,254,,24,01,250,,26,43,274,,29,15,102,,0,4*61
$GNGSA,A,3,03,10,14,16,22,25,26,29,31,32,,,0.9,0.6,0.6,1*33
$GNGSA,A,3,66,67,76,78,,,,,,,,,0.9,0.6,0.6,2*34
$GNGSA,A,2,03,,,,,,,,,,,,0.9,0.6,0.6,3*38
$PQGSA,A,2,01,02,03,,,,,,,,,,0.9,0.6,0.6,5*35
$PQGSA,A,3,01,06,07,09,14,16,,,,,,,0.9,0.6,0.6,4*3E
$GNVTG,289.1,T,289.1,M,1.8,N,3.3,K,A*34
$GNRMC,083922.00,A,3117.176896,N,12130.011705,E,1.8,289.1,061219,4.5,W,A*3C
$GNGGA,083922.00,3117.176896,N,12130.011705,E,1,12,0.6,3.7,M,9.7,M,,*4F
$GPGSV,3,1,10,03,07,320,27,10,20,182,27,14,68,347,35,16,14,213,18*71
$GPGSV,3,2,10,22,20,303,35,25,39,042,35,26,42,219,26,29,27,101,30*71
$GPGSV,3,3,10,31,56,320,41,32,71,098,36*7E
$GLGSV,2,1,05,78,26,253,25,66,56,167,31,76,28,030,33,67,61,314,36*67
$GLGSV,2,2,05,86,05,078,*54
$GAGSV,1,1,01,03,81,292,*5A
$PQGSV,1,1,03,193,45,167,23,194,73,047,32,195,26,143,25,0,5*60
$PQGSV,4,1,16,01,47,147,30,03,49,199,21,04,33,122,21,06,79,071,28,0,4*64
$PQGSV,4,2,16,07,70,217,30,09,63,330,31,14,08,322,21,16,80,045,31,0,4*62
$PQGSV,4,3,16,21,64,237,34,22,29,167,24,02,35,234,,05,14,254,,0,4*64
$PQGSV,4,4,16,10,41,222,,24,01,250,,26,43,274,,29,15,102,,0,4*64
$GNGSA,A,3,03,10,14,16,22,25,26,29,31,32,,,0.9,0.6,0.6,1*33
$GNGSA,A,3,66,67,76,78,,,,,,,,,0.9,0.6,0.6,2*34
$PQGSA,A,2,01,02,03,,,,,,,,,,0.9,0.6,0.6,5*35
$PQGSA,A,3,01,04,06,07,09,14,16,,,,,,0.9,0.6,0.6,4*3A
$GNVTG,288.3,T,288.3,M,1.9,N,3.5,K,A*33
$GNRMC,083923.00,A,3117.177047,N,12130.011152,E,1.9,288.3,061219,4.5,W,A*3E
$GNGGA,083923.00,3117.177047,N,12130.011152,E,1,12,0.6,3.5,M,9.7,M,,*4D
$GPGSV,3,1,10,03,07,320,27,10,20,182,26,14,68,347,32,16,14,213,17*78
$GPGSV,3,2,10,22,20,303,32,25,39,042,33,26,42,219,26,29,27,101,32*72
$GPGSV,3,3,10,31,56,320,40,32,71,098,36*7F
$GLGSV,2,1,05,78,26,253,25,66,56,167,38,76,28,030,30,67,61,314,35*6E
$GLGSV,2,2,05,86,05,078,*54
$GAGSV,1,1,01,03,81,292,*5A
$PQGSV,1,1,03,193,45,167,28,194,73,047,34,195,26,143,26,0,5*6E
$PQGSV,4,1,16,01,47,147,30,03,49,199,21,04,33,122,21,06,79,071,30,0,4*6D
$PQGSV,4,2,16,07,70,217,33,09,63,330,26,14,08,322,21,16,80,045,31,0,4*67
$PQGSV,4,3,16,21,64,237,33,22,29,167,21,02,35,234,,05,14,254,,0,4*66
$PQGSV,4,4,16,10,41,222,,24,01,250,,26,43,274,,29,15,102,,0,4*64
$GNGSA,A,3,03,10,14,22,25,26,29,31,32,,,,0.9,0.6,0.6,1*34
$GNGSA,A,3,66,67,76,78,,,,,,,,,0.9,0.6,0.6,2*34
$PQGSA,A,2,01,02,03,,,,,,,,,,0.9,0.6,0.6,5*35
$PQGSA,A,3,01,04,06,07,09,14,16,,,,,,0.9,0.6,0.6,4*3A
$GNVTG,288.0,T,288.0,M,1.6,N,3.0,K,A*39
$GNRMC,083924.00,A,3117.177142,N,12130.010603,E,1.6,288.0,061219,4.5,W,A*33
$GNGGA,083924.00,3117.177142,N,12130.010603,E,1,12,0.6,3.5,M,9.7,M,,*4C
$GPGSV,3,1,10,03,07,320,28,10,20,182,23,14,68,347,32,16,14,213,17*72
$GPGSV,3,2,10,22,20,303,34,25,39,042,30,26,42,219,28,29,27,101,29*73
$GPGSV,3,3,10,31,56,320,36,32,71,098,34*7C
$GLGSV,2,1,05,78,26,253,22,66,56,167,35,76,28,030,34,67,61,314,37*62
$GLGSV,2,2,05,86,05,078,*54
$GAGSV,1,1,01,03,81,292,*5A
$PQGSV,1,1,03,193,45,167,29,194,73,047,34,195,26,143,25,0,5*6C
$PQGSV,4,1,16,01,47,147,27,03,49,199,21,04,33,122,21,06,79,071,30,0,4*6B
$PQGSV,4,2,16,07,70,217,31,09,63,330,31,14,08,322,21,16,80,045,31,0,4*63
$PQGSV,4,3,16,21,64,237,32,22,29,167,21,02,35,234,,05,14,254,,0,4*67
$PQGSV,4,4,16,10,41,222,,24,01,250,,26,43,274,,29,15,102,,0,4*64
$GNGSA,A,3,03,10,14,22,25,26,29,31,32,,,,0.9,0.6,0.6,1*34
$GNGSA,A,3,66,67,76,78,,,,,,,,,0.9,0.6,0.6,2*34
$PQGSA,A,2,01,02,03,,,,,,,,,,0.9,0.6,0.6,5*35
$PQGSA,A,3,01,04,06,07,09,14,16,,,,,,0.9,0.6,0.6,4*3A
$GNVTG,283.3,T,283.3,M,1.7,N,3.1,K,A*39
$GNRMC,083925.00,A,3117.177234,N,12130.010100,E,1.7,283.3,061219,4.5,W,A*3D
$GNGGA,083925.00,3117.177234,N,12130.010100,E,1,12,0.6,2.9,M,9.7,M,,*46
$GPGSV,3,1,10,03,07,320,26,10,20,182,27,14,68,347,36,16,14,213,17*7C
$GPGSV,3,2,10,22,20,303,34,25,39,042,36,26,42,219,28,29,27,101,33*7E
$GPGSV,3,3,10,31,56,320,33,32,71,098,37*7A
$GLGSV,2,1,05,78,26,253,23,66,56,167,33,76,28,030,36,67,61,314,30*60
$GLGSV,2,2,05,86,05,078,*54
$GAGSV,1,1,0,*74
$PQGSV,1,1,02,193,45,167,31,194,73,047,34,0,5*6C
$PQGSV,1,1,0,*73
$GNGSA,A,3,03,10,14,22,25,26,29,31,32,,,,0.9,0.6,0.6,1*34
$GNGSA,A,3,66,67,76,78,,,,,,,,,0.9,0.6,0.6,2*34
$PQGSA,A,2,01,02,03,,,,,,,,,,0.9,0.6,0.6,5*35
$PQGSA,A,3,01,04,06,07,09,14,16,,,,,,0.9,0.6,0.6,4*3A
$GNVTG,283.5,T,283.5,M,1.8,N,3.4,K,A*33
$GNRMC,083926.00,A,3117.177450,N,12130.009535,E,1.8,283.5,061219,4.6,W,A*3A
$GNGGA,083926.00,3117.177450,N,12130.009535,E,1,12,0.6,3.0,M,9.7,M,,*43
$GPGSV,3,1,09,03,07,320,26,14,68,347,37,22,20,303,30,25,39,042,33*76
$GPGSV,3,2,09,26,42,219,27,29,27,101,33,31,56,320,40,32,71,098,36*75
$GPGSV,3,3,09,16,14,213,*42
$GLGSV,2,1,05,78,26,253,26,66,56,167,35,76,28,030,31,67,61,314,37*63
$GLGSV,2,2,05,86,05,078,*54
$GAGSV,1,1,0,*74
$PQGSV,1,1,03,193,45,167,29,194,73,047,32,195,26,143,,0,5*6D
$PQGSV,1,1,0,*73
$GNGSA,A,3,03,10,14,22,25,26,29,31,32,,,,0.9,0.6,0.6,1*34
$GNGSA,A,3,66,67,76,78,,,,,,,,,0.9,0.6,0.6,2*34
$PQGSA,A,2,01,02,03,,,,,,,,,,0.9,0.6,0.6,5*35
$PQGSA,A,3,01,04,06,07,09,14,16,,,,,,0.9,0.6,0.6,4*3A
$GNVTG,283.4,T,283.4,M,1.6,N,3.0,K,A*39
$GNRMC,083927.00,A,3117.177655,N,12130.008972,E,1.6,283.4,061219,4.6,W,A*3D
$GNGGA,083927.00,3117.177655,N,12130.008972,E,1,12,0.6,1.9,M,9.7,M,,*40
$GPGSV,3,1,09,10,20,182,34,14,68,347,37,22,20,303,33,25,39,042,31*79
$GPGSV,3,2,09,26,42,219,32,29,27,101,28,31,56,320,42,32,71,098,39*76
$GPGSV,3,3,09,16,14,213,*42
$GLGSV,2,1,05,78,26,253,25,66,56,167,39,76,28,030,29,67,61,314,33*61
$GLGSV,2,2,05,86,05,078,*54
$GAGSV,1,1,0,*74
$PQGSV,1,1,03,193,45,167,29,194,73,047,33,195,26,143,28,0,5*66
$PQGSV,1,1,0,*73
$GNGSA,A,3,03,10,14,22,25,26,29,31,32,,,,0.9,0.6,0.6,1*34
$GNGSA,A,3,66,67,76,78,,,,,,,,,0.9,0.6,0.6,2*34
$PQGSA,A,2,01,02,03,,,,,,,,,,0.9,0.6,0.6,5*35
$PQGSA,A,3,01,04,06,07,09,14,16,,,,,,0.9,0.6,0.6,4*3A
$GNVTG,283.5,T,283.5,M,2.4,N,4.5,K,A*3A
$GNRMC,083928.00,A,3117.178025,N,12130.008372,E,2.4,283.5,061219,4.6,W,A*36
$GNGGA,083928.00,3117.178025,N,12130.008372,E,1,12,0.6,2.3,M,9.7,M,,*42
$GPGSV,3,1,10,03,07,320,33,10,20,182,30,14,68,347,32,22,20,303,34*7B
$GPGSV,3,2,10,25,39,042,34,26,42,219,26,29,27,101,26,31,56,320,44*73
$GPGSV,3,3,10,32,71,098,37,16,14,213,*78
$GLGSV,1,1,04,66,56,167,35,76,28,030,36,67,61,314,36,86,05,078,*68
$GAGSV,1,1,0,*74
$PQGSV,1,1,02,193,45,167,27,194,73,047,28,0,5*66
$PQGSV,1,1,0,*73
$GNGSA,A,3,03,10,14,22,25,26,29,31,32,,,,1.0,0.7,0.7,1*3C
$GNGSA,A,3,66,67,76,78,,,,,,,,,1.0,0.7,0.7,2*3C
$PQGSA,A,2,01,02,03,,,,,,,,,,1.0,0.7,0.7,5*3D
$PQGSA,A,3,01,04,06,07,09,16,,,,,,,1.0,0.7,0.7,4*37
$GNVTG,296.2,T,296.2,M,2.2,N,4.0,K,A*39
$GNRMC,083929.00,A,3117.178484,N,12130.007685,E,2.2,296.2,061219,4.6,W,A*3F
$GNGGA,083929.00,3117.178484,N,12130.007685,E,1,12,0.7,1.8,M,9.7,M,,*47
$GPGSV,3,1,10,03,07,320,34,10,20,182,33,14,68,347,32,22,20,303,34*7F
$GPGSV,3,2,10,25,39,042,35,26,42,219,26,29,27,101,33,31,56,320,40*72
$GPGSV,3,3,10,32,71,098,41,16,14,213,*79
$GLGSV,2,1,05,78,26,253,27,66,56,167,37,76,28,030,27,67,61,314,40*67
$GLGSV,2,2,05,86,05,078,*54
$GAGSV,1,1,0,*74
$PQGSV,1,1,03,193,45,167,24,194,73,047,34,195,26,143,,0,5*66
$PQGSV,1,1,0,*73
$GNGSA,A,3,03,10,14,22,25,26,29,31,32,,,,1.0,0.7,0.7,1*3C
$GNGSA,A,3,66,67,76,78,,,,,,,,,1.0,0.7,0.7,2*3C
$PQGSA,A,2,01,02,03,,,,,,,,,,1.0,0.7,0.7,5*3D
$PQGSA,A,3,01,04,06,07,09,16,,,,,,,1.0,0.7,0.7,4*37
$GNVTG,296.4,T,296.4,M,2.5,N,4.6,K,A*38
$GNRMC,083930.00,A,3117.178911,N,12130.007016,E,2.5,296.4,061219,4.6,W,A*3B
$GNGGA,083930.00,3117.178911,N,12130.007016,E,1,12,0.7,2.1,M,9.7,M,,*48
$GPGSV,3,1,10,03,07,320,33,10,20,182,25,14,68,347,32,22,20,303,34*7F
$GPGSV,3,2,10,25,39,042,34,26,42,219,29,29,27,101,31,31,56,320,37*7E
$GPGSV,3,3,10,32,71,098,35,16,14,213,*7A
$GLGSV,2,1,05,78,26,253,23,66,56,167,33,76,28,030,28,67,61,314,33*6C
$GLGSV,2,2,05,86,05,078,*54
$GAGSV,1,1,0,*74
$PQGSV,1,1,02,194,73,047,27,195,26,143,,0,5*69
$PQGSV,1,1,0,*73
$GNGSA,A,3,03,10,14,22,25,26,29,31,32,,,,1.0,0.7,0.7,1*3C
$GNGSA,A,3,66,67,76,78,,,,,,,,,1.0,0.7,0.7,2*3C
$PQGSA,A,2,01,02,03,,,,,,,,,,1.0,0.7,0.7,5*3D
$GNVTG,296.4,T,296.4,M,1.4,N,2.6,K,A*3C
$GNRMC,083931.00,A,3117.179172,N,12130.006497,E,1.4,296.4,061219,4.6,W,A*38
$GNGGA,083931.00,3117.179172,N,12130.006497,E,1,12,0.7,3.1,M,9.7,M,,*48
$GPGSV,2,1,08,03,07,320,30,14,68,347,28,22,20,303,27,25,39,042,33*79
$GPGSV,2,2,08,29,27,101,27,31,56,320,36,32,71,098,35,16,14,213,*7D
$GLGSV,1,1,04,66,56,167,39,76,28,030,31,67,61,314,36,86,05,078,*63
$GAGSV,1,1,0,*74
$PQGSV,1,1,03,193,45,167,27,194,73,047,25,195,26,143,27,0,5*60
$PQGSV,1,1,0,*73
$GNGSA,A,3,03,10,14,22,25,26,29,31,32,,,,1.0,0.7,0.7,1*3C
$GNGSA,A,3,66,67,76,78,,,,,,,,,1.0,0.7,0.7,2*3C
$PQGSA,A,2,01,02,03,,,,,,,,,,1.0,0.7,0.7,5*3D
$GNVTG,296.4,T,296.4,M,1.8,N,3.3,K,A*34
$GNRMC,083932.00,A,3117.179360,N,12130.005995,E,1.8,296.4,061219,4.6,W,A*3A
$GNGGA,083932.00,3117.179360,N,12130.005995,E,1,12,0.7,3.4,M,9.7,M,,*43
$GPGSV,3,1,10,03,07,320,27,14,68,347,38,22,20,303,28,25,39,042,31*7B
$GPGSV,3,2,10,29,27,101,33,31,56,320,42,32,71,098,29,10,20,182,*74
$GPGSV,3,3,10,16,14,213,,26,42,219,*72
$GLGSV,2,1,05,78,26,253,25,66,56,167,37,76,28,030,29,67,61,314,39*65
$GLGSV,2,2,05,86,05,078,*54
$GAGSV,1,1,0,*74
$PQGSV,1,1,02,193,45,167,31,194,73,047,30,0,5*68
$PQGSV,1,1,0,*73
$GNGSA,A,3,03,10,14,22,25,26,29,31,32,,,,1.0,0.7,0.7,1*3C
$GNGSA,A,3,66,67,76,78,,,,,,,,,1.0,0.7,0.7,2*3C
$PQGSA,A,2,01,02,03,,,,,,,,,,1.0,0.7,0.7,5*3D
$GNVTG,296.6,T,296.6,M,1.3,N,2.4,K,A*39
$GNRMC,083933.00,A,3117.179652,N,12130.005555,E,1.3,296.6,061219,4.6,W,A*36
$GNGGA,083933.00,3117.179652,N,12130.005555,E,1,12,0.7,3.5,M,9.7,M,,*47
$GPGSV,3,1,10,03,07,320,26,14,68,347,37,22,20,303,29,25,39,042,28*7C
$GPGSV,3,2,10,26,42,219,26,29,27,101,31,31,56,320,42,32,71,098,40*7D
$GPGSV,3,3,10,10,20,182,,16,14,213,*72
$GLGSV,2,1,05,78,26,253,23,66,56,167,37,76,28,030,28,67,61,314,37*6C
$GLGSV,2,2,05,86,05,078,*54
$GAGSV,1,1,0,*74
$PQGSV,1,1,02,193,45,167,31,194,73,047,28,0,5*61
$PQGSV,1,1,0,*73
$GNGSA,A,3,03,10,14,22,25,26,29,31,32,,,,1.0,0.7,0.7,1*3C
$GNGSA,A,3,66,67,76,78,,,,,,,,,1.0,0.7,0.7,2*3C
$PQGSA,A,2,01,02,03,,,,,,,,,,1.0,0.7,0.7,5*3D
$GNVTG,296.6,T,296.6,M,2.4,N,4.4,K,A*3B
$GNRMC,083934.00,A,3117.179927,N,12130.004993,E,2.4,296.6,061219,4.6,W,A*3F
$GNGGA,083934.00,3117.179927,N,12130.004993,E,1,12,0.7,3.0,M,9.7,M,,*4F
$GPGSV,3,1,10,03,07,320,32,10,20,182,23,14,68,347,31,22,20,303,25*7B
$GPGSV,3,2,10,25,39,042,35,26,42,219,24,29,27,101,32,31,56,320,41*70
$GPGSV,3,3,10,32,71,098,39,16,14,213,*76
$GLGSV,1,1,04,66,56,167,37,76,28,030,33,67,61,314,38,86,05,078,*61
$GAGSV,1,1,0,*74
$PQGSV,1,1,02,194,73,047,34,195,26,143,,0,5*6B
$PQGSV,1,1,0,*73
$GNGSA,A,3,03,10,14,22,25,26,29,31,32,,,,1.0,0.7,0.7,1*3C
$GNGSA,A,3,66,67,76,78,,,,,,,,,1.0,0.7,0.7,2*3C
$PQGSA,A,2,01,02,03,,,,,,,,,,1.0,0.7,0.7,5*3D
$GNVTG,296.7,T,296.7,M,1.9,N,3.6,K,A*30
$GNRMC,083935.00,A,3117.180152,N,12130.004322,E,1.9,296.7,061219,4.6,W,A*3D
$GNGGA,083935.00,3117.180152,N,12130.004322,E,1,12,0.7,2.5,M,9.7,M,,*46
$GPGSV,3,1,09,10,20,182,26,14,68,347,40,22,20,303,31,25,39,042,31*78
$GPGSV,3,2,09,26,42,219,23,29,27,101,33,31,56,320,41,32,71,098,36*70
$GPGSV,3,3,09,16,14,213,*42
$GLGSV,2,1,05,78,26,253,25,66,56,167,39,76,28,030,31,67,61,314,36*6D
$GLGSV,2,2,05,86,05,078,*54
$GAGSV,1,1,0,*74
$PQGSV,1,1,02,193,45,167,32,194,73,047,35,0,5*6E
$PQGSV,1,1,0,*73
$GNGSA,A,3,03,10,14,22,25,26,29,31,32,,,,1.0,0.7,0.7,1*3C
$GNGSA,A,3,66,67,76,78,,,,,,,,,1.0,0.7,0.7,2*3C
$PQGSA,A,2,01,02,03,,,,,,,,,,1.0,0.7,0.7,5*3D
$GNVTG,296.8,T,296.8,M,1.3,N,2.3,K,A*3E
$GNRMC,083936.00,A,3117.180318,N,12130.003832,E,1.3,296.8,061219,4.6,W,A*3A
$GNGGA,083936.00,3117.180318,N,12130.003832,E,1,12,0.7,2.8,M,9.7,M,,*49
$GPGSV,2,1,08,03,07,320,28,14,68,347,38,22,20,303,28,25,39,042,30*7D
$GPGSV,2,2,08,29,27,101,23,31,56,320,38,32,71,098,36,16,14,213,*74
$GLGSV,2,1,05,78,26,253,25,66,56,167,39,76,28,030,28,67,61,314,38*6B
$GLGSV,2,2,05,86,05,078,*54
$GAGSV,1,1,0,*74
$PQGSV,1,1,02,193,45,167,28,194,73,047,36,0,5*66
$PQGSV,1,1,0,*73
$GNGSA,A,3,03,10,14,22,25,26,29,31,32,,,,1.0,0.7,0.7,1*3C
$GNGSA,A,3,66,67,76,78,,,,,,,,,1.0,0.7,0.7,2*3C
$PQGSA,A,2,01,02,03,,,,,,,,,,1.0,0.7,0.7,5*3D
$GNVTG,296.8,T,296.8,M,2.2,N,4.1,K,A*38
$GNRMC,083937.00,A,3117.180488,N,12130.003262,E,2.2,296.8,061219,4.6,W,A*38
$GNGGA,083937.00,3117.180488,N,12130.003262,E,1,12,0.7,2.1,M,9.7,M,,*40
$GPGSV,2,1,08,14,68,347,25,22,20,303,23,25,39,042,26,26,42,219,23*7B
$GPGSV,2,2,08,31,56,320,37,32,71,098,32,10,20,182,,16,14,213,*78
$GLGSV,1,1,04,66,56,167,33,76,28,030,26,67,61,314,34,86,05,078,*6D
$GAGSV,1,1,0,*74
$PQGSV,1,1,03,193,45,167,23,194,73,047,28,195,26,143,,0,5*6C
$PQGSV,1,1,0,*73
$GNGSA,A,3,03,10,14,22,25,26,29,31,32,,,,1.0,0.7,0.7,1*3C
$GNGSA,A,3,66,67,76,78,,,,,,,,,1.0,0.7,0.7,2*3C
$PQGSA,A,2,01,02,,,,,,,,,,,1.0,0.7,0.7,5*3E
$GNVTG,294.6,T,294.6,M,2.7,N,5.1,K,A*3C
$GNRMC,083938.00,A,3117.180835,N,12130.002500,E,2.7,294.6,061219,4.6,W,A*36
$GNGGA,083938.00,3117.180835,N,12130.002500,E,1,12,0.7,2.1,M,9.7,M,,*47
$GPGSV,3,1,10,03,07,320,22,14,68,347,37,22,20,303,33,25,39,042,28*73
$GPGSV,3,2,10,26,42,219,27,29,27,101,31,31,56,320,39,32,71,098,38*7F
$GPGSV,3,3,10,10,20,182,,16,14,213,*72
$GLGSV,2,1,05,78,26,253,22,66,56,167,35,76,28,030,30,67,61,314,36*67
$GLGSV,2,2,05,86,05,078,*54
$GAGSV,1,1,0,*74
$PQGSV,1,1,03,193,45,167,25,194,73,047,33,195,26,143,,0,5*60
$PQGSV,1,1,0,*73
$GNGSA,A,3,03,10,14,22,25,26,29,31,32,,,,1.0,0.7,0.7,1*3C
$GNGSA,A,3,66,67,76,78,,,,,,,,,1.0,0.7,0.7,2*3C
$PQGSA,A,2,01,02,,,,,,,,,,,1.0,0.7,0.7,5*3E
$GNVTG,294.1,T,294.1,M,3.3,N,6.1,K,A*3A
$GNRMC,083939.00,A,3117.181302,N,12130.001543,E,3.3,294.1,061219,4.6,W,A*3F
$GNGGA,083939.00,3117.181302,N,12130.001543,E,1,12,0.7,3.5,M,9.7,M,,*49
$GPGSV,2,1,08,10,20,182,25,14,68,347,38,22,20,303,24,25,39,042,26*76
$GPGSV,2,2,08,29,27,101,30,31,56,320,45,32,71,098,40,16,14,213,*7D
$GLGSV,2,1,05,78,26,253,27,66,56,167,28,76,28,030,28,67,61,314,39*68
$GLGSV,2,2,05,86,05,078,*54
$GAGSV,1,1,0,*74
$PQGSV,1,1,02,194,73,047,35,195,26,143,25,0,5*6D
$PQGSV,1,1,0,*73
$GNGSA,A,3,03,10,14,22,25,26,29,31,32,,,,1.0,0.7,0.7,1*3C
$GNGSA,A,3,66,67,76,78,,,,,,,,,1.0,0.7,0.7,2*3C
$PQGSA,A,2,01,02,03,,,,,,,,,,1.0,0.7,0.7,5*3D
$GNVTG,290.4,T,290.4,M,3.0,N,5.5,K,A*3E
$GNRMC,083940.00,A,3117.181671,N,12130.000486,E,3.0,290.4,061219,4.6,W,A*3B
$GNGGA,083940.00,3117.181671,N,12130.000486,E,1,12,0.7,3.6,M,9.7,M,,*4C
$GPGSV,3,1,10,03,07,320,24,10,20,182,23,14,68,347,36,22,20,303,28*76
$GPGSV,3,2,10,25,39,042,27,26,42,219,25,29,27,101,30,31,56,320,39*7F
$GPGSV,3,3,10,32,71,098,35,16,14,213,*7A
$GLGSV,2,1,05,78,26,253,21,66,56,167,39,76,28,030,24,67,61,314,37*6C
$GLGSV,2,2,05,86,05,078,*54
$GAGSV,1,1,0,*74
$PQGSV,1,1,02,193,45,167,27,194,73,047,32,0,5*6D
$PQGSV,1,1,0,*73
$GNGSA,A,3,03,10,14,22,25,26,29,31,32,,,,1.0,0.7,0.7,1*3C
$GNGSA,A,3,66,67,76,78,,,,,,,,,1.0,0.7,0.7,2*3C
$PQGSA,A,2,01,02,03,,,,,,,,,,1.0,0.7,0.7,5*3D
$GNVTG,284.7,T,284.7,M,2.8,N,5.1,K,A*33
$GNRMC,083941.00,A,3117.181955,N,12129.999521,E,2.8,284.7,061219,4.6,W,A*31
$GNGGA,083941.00,3117.181955,N,12129.999521,E,1,12,0.7,3.6,M,9.7,M,,*49
$GPGSV,3,1,09,03,07,320,28,14,68,347,39,22,20,303,25,25,39,042,26*76
$GPGSV,3,2,09,26,42,219,24,29,27,101,27,31,56,320,40,32,71,098,40*72
$GPGSV,3,3,09,16,14,213,*42
$GLGSV,1,1,04,66,56,167,37,76,28,030,30,67,61,314,37,86,05,078,*6D
$GAGSV,1,1,0,*74
$PQGSV,1,1,03,193,45,167,24,194,73,047,35,195,26,143,26,0,5*63
$PQGSV,1,1,0,*73
$GNGSA,A,3,03,10,14,22,25,26,29,31,32,,,,1.0,0.7,0.7,1*3C
$GNGSA,A,3,66,67,76,78,,,,,,,,,1.0,0.7,0.7,2*3C
$PQGSA,A,2,01,02,03,,,,,,,,,,1.0,0.7,0.7,5*3D
$GNVTG,289.6,T,289.6,M,2.7,N,5.0,K,A*3D
$GNRMC,083942.00,A,3117.182274,N,12129.998678,E,2.7,289.6,061219,4.6,W,A*34
$GNGGA,083942.00,3117.182274,N,12129.998678,E,1,12,0.7,3.4,M,9.7,M,,*4D
$GPGSV,2,1,08,14,68,347,33,22,20,303,31,25,39,042,32,29,27,101,30*7E
$GPGSV,2,2,08,31,56,320,34,32,71,098,40,10,20,182,,16,14,213,*7E
$GLGSV,2,1,05,66,56,167,35,76,28,030,35,67,61,314,40,78,26,253,*63
$GLGSV,2,2,05,86,05,078,*54
$GAGSV,1,1,0,*74
$PQGSV,1,1,02,193,45,167,27,194,73,047,37,0,5*68
$PQGSV,1,1,0,*73
$GNGSA,A,3,03,10,14,22,25,26,29,31,32,,,,1.0,0.7,0.7,1*3C
$GNGSA,A,3,66,67,76,78,,,,,,,,,1.0,0.7,0.7,2*3C
$PQGSA,A,2,01,02,03,,,,,,,,,,1.0,0.7,0.7,5*3D
$GNVTG,302.9,T,302.9,M,2.0,N,3.7,K,A*3B
$GNRMC,083943.00,A,3117.182682,N,12129.998169,E,2.0,302.9,061219,4.6,W,A*35
$GNGGA,083943.00,3117.182682,N,12129.998169,E,1,12,0.7,1.5,M,9.7,M,,*45
$GPGSV,3,1,10,03,07,320,23,14,68,347,35,22,20,303,27,25,39,042,41*7A
$GPGSV,3,2,10,26,42,219,30,29,27,101,29,31,56,320,44,32,71,098,40*75
$GPGSV,3,3,10,10,20,182,,16,14,213,*72
$GLGSV,2,1,05,78,26,253,27,66,56,167,35,76,28,030,37,67,61,314,38*6B
$GLGSV,2,2,05,86,05,078,*54
$GAGSV,1,1,0,*74
$PQGSV,1,1,03,193,45,167,26,194,73,047,36,195,26,143,,0,5*66
$PQGSV,1,1,0,*73
$GNGSA,A,3,03,10,14,22,25,26,29,31,32,,,,1.0,0.7,0.7,1*3C
$GNGSA,A,3,66,67,76,78,,,,,,,,,1.0,0.7,0.7,2*3C
$PQGSA,A,2,01,02,03,,,,,,,,,,1.0,0.7,0.7,5*3D
$GNVTG,323.8,T,323.8,M,2.0,N,3.8,K,A*34
$GNRMC,083944.00,A,3117.183092,N,12129.997803,E,2.0,323.8,061219,4.6,W,A*3C
$GNGGA,083944.00,3117.183092,N,12129.997803,E,1,12,0.7,2.3,M,9.7,M,,*4B
$GPGSV,3,1,09,10,20,182,24,14,68,347,30,16,14,213,26,22,20,303,26*74
$GPGSV,3,2,09,25,39,042,41,26,42,219,33,29,27,101,27,31,56,320,44*7C
$GPGSV,3,3,09,32,71,098,41*43
$GLGSV,2,1,05,78,26,253,22,66,56,167,35,76,28,030,33,67,61,314,36*64
$GLGSV,2,2,05,86,05,078,*54
$GAGSV,1,1,0,*74
$PQGSV,1,1,03,193,45,167,27,194,73,047,37,195,26,143,22,0,5*66
$PQGSV,1,1,0,*73
$GNGSA,A,3,03,10,14,16,22,25,26,29,31,32,,,1.0,0.7,0.7,1*3B
$GNGSA,A,3,66,67,76,78,,,,,,,,,1.0,0.7,0.7,2*3C
$PQGSA,A,2,01,02,03,,,,,,,,,,1.0,0.7,0.7,5*3D
$GNVTG,347.0,T,347.0,M,2.0,N,3.6,K,A*3A
$GNRMC,083945.00,A,3117.183695,N,12129.997709,E,2.0,347.0,061219,4.6,W,A*33
$GNGGA,083945.00,3117.183695,N,12129.997709,E,1,12,0.7,2.3,M,9.7,M,,*4E
$GPGSV,3,1,09,10,20,182,24,14,68,347,39,22,20,303,30,25,39,042,34*70
$GPGSV,3,2,09,26,42,219,26,29,27,101,34,31,56,320,42,32,71,098,45*75
$GPGSV,3,3,09,03,07,320,*45
$GLGSV,2,1,05,78,26,253,27,66,56,167,37,76,28,030,32,67,61,314,37*63
$GLGSV,2,2,05,86,05,078,*54
$GAGSV,1,1,0,*74
$PQGSV,1,1,03,193,45,167,30,194,73,047,38,195,26,143,29,0,5*64
$PQGSV,1,1,0,*73
$GNGSA,A,3,03,10,14,16,22,25,26,29,31,32,,,1.0,0.7,0.7,1*3B
$GNGSA,A,3,66,67,76,78,,,,,,,,,1.0,0.7,0.7,2*3C
$PQGSA,A,2,01,02,03,,,,,,,,,,1.0,0.7,0.7,5*3D
$GNVTG,,T,,M,0.0,N,0.0,K,A*3D
$GNRMC,083946.00,A,3117.184083,N,12129.997783,E,0.0,,061219,4.6,W,A*18
$GNGGA,083946.00,3117.184083,N,12129.997783,E,1,12,0.7,3.3,M,9.7,M,,*48
$GPGSV,3,1,09,14,68,347,33,22,20,303,30,25,39,042,36,26,42,219,34*79
$GPGSV,3,2,09,29,27,101,37,31,56,320,41,32,71,098,42,03,07,320,*7B
$GPGSV,3,3,09,16,14,213,*42
$GLGSV,2,1,05,78,26,253,32,66,56,167,38,76,28,030,35,67,61,314,37*6F
$GLGSV,2,2,05,86,05,078,*54
$GAGSV,1,1,0,*74
$PQGSV,1,1,02,193,45,167,34,194,73,047,33,0,5*6E
$PQGSV,1,1,0,*73
$GNGSA,A,3,03,10,14,16,22,25,26,29,31,32,,,1.0,0.7,0.7,1*3B
$GNGSA,A,3,66,67,76,78,,,,,,,,,1.0,0.7,0.7,2*3C
$PQGSA,A,2,01,02,03,,,,,,,,,,1.0,0.7,0.7,5*3D
$GNVTG,14.7,T,14.7,M,2.7,N,5.0,K,A*3D
$GNRMC,083947.00,A,3117.184650,N,12129.998079,E,2.7,14.7,061219,4.6,W,A*05
$GNGGA,083947.00,3117.184650,N,12129.998079,E,1,12,0.7,5.1,M,9.7,M,,*48
$GPGSV,3,1,10,14,68,347,34,22,20,303,26,25,39,042,36,26,42,219,33*76
$GPGSV,3,2,10,29,27,101,32,31,56,320,39,32,71,098,42,03,07,320,*79
$GPGSV,3,3,10,10,20,182,,16,14,213,*72
$GLGSV,2,1,05,78,26,253,28,66,56,167,37,76,28,030,35,67,61,314,36*6A
$GLGSV,2,2,05,86,05,078,*54
$GAGSV,1,1,0,*74
$PQGSV,1,1,03,193,45,167,35,194,73,047,34,195,26,143,34,0,5*61
$PQGSV,1,1,0,*73
$GNGSA,A,3,03,10,14,16,22,25,26,29,31,32,,,1.0,0.7,0.7,1*3B
$GNGSA,A,3,66,67,76,78,,,,,,,,,1.0,0.7,0.7,2*3C
$PQGSA,A,2,01,02,03,,,,,,,,,,1.0,0.7,0.7,5*3D
$GNVTG,33.2,T,33.2,M,2.8,N,5.1,K,A*33
$GNRMC,083948.00,A,3117.185438,N,12129.998619,E,2.8,33.2,061219,4.6,W,A*08
$GNGGA,083948.00,3117.185438,N,12129.998619,E,1,12,0.7,5.6,M,9.7,M,,*4D
$GPGSV,3,1,10,03,07,320,25,14,68,347,29,22,20,303,25,25,39,042,30*75
$GPGSV,3,2,10,26,42,219,34,29,27,101,30,31,56,320,36,32,71,098,41*7D
$GPGSV,3,3,10,10,20,182,,16,14,213,*72
$GLGSV,2,1,05,78,26,253,33,66,56,167,35,76,28,030,35,67,61,314,37*63
$GLGSV,2,2,05,86,05,078,*54
$GAGSV,1,1,0,*74
$PQGSV,1,1,03,193,45,167,28,194,73,047,37,195,26,143,28,0,5*63
$PQGSV,1,1,0,*73
$GNGSA,A,3,03,10,14,16,22,25,26,29,31,32,,,1.0,0.7,0.7,1*3B
$GNGSA,A,3,66,67,76,78,,,,,,,,,1.0,0.7,0.7,2*3C
$PQGSA,A,2,01,02,03,,,,,,,,,,1.0,0.7,0.7,5*3D
$GNVTG,21.2,T,21.2,M,2.8,N,5.2,K,A*30
$GNRMC,083949.00,A,3117.186152,N,12129.999214,E,2.8,21.2,061219,4.6,W,A*08
$GNGGA,083949.00,3117.186152,N,12129.999214,E,1,12,0.7,5.5,M,9.7,M,,*4D
$GPGSV,3,1,10,03,07,320,24,14,68,347,32,22,20,303,28,25,39,042,38*7B
$GPGSV,3,2,10,26,42,219,37,29,27,101,33,31,56,320,32,32,71,098,38*77
$GPGSV,3,3,10,10,20,182,,16,14,213,*72
$GLGSV,2,1,05,78,26,253,35,66,56,167,35,76,28,030,26,67,61,314,35*65
$GLGSV,2,2,05,86,05,078,*54
$GAGSV,1,1,0,*74
$PQGSV,1,1,03,193,45,167,29,194,73,047,39,195,26,143,31,0,5*64
$PQGSV,1,1,0,*73
$GNGSA,A,3,03,10,14,16,22,25,26,29,31,32,,,1.0,0.7,0.7,1*3B
$GNGSA,A,3,66,67,76,78,,,,,,,,,1.0,0.7,0.7,2*3C
$PQGSA,A,2,01,02,03,,,,,,,,,,1.0,0.7,0.7,5*3D
$GNVTG,20.9,T,20.9,M,2.2,N,4.0,K,A*39
$GNRMC,083950.00,A,3117.186846,N,12129.999582,E,2.2,20.9,061219,4.6,W,A*04
$GNGGA,083950.00,3117.186846,N,12129.999582,E,1,12,0.7,6.3,M,9.7,M,,*44
$GPGSV,3,1,10,03,07,320,24,14,68,347,37,22,20,303,26,25,39,042,36*7E
$GPGSV,3,2,10,26,42,219,32,29,27,101,31,31,56,320,35,32,71,098,38*77
$GPGSV,3,3,10,10,20,182,,16,14,213,*72
$GLGSV,2,1,05,78,26,253,36,66,56,167,37,76,28,030,34,67,61,314,31*63
$GLGSV,2,2,05,86,05,078,*54
$GAGSV,1,1,0,*74
$PQGSV,1,1,02,193,45,167,26,194,73,047,39,0,5*67
$PQGSV,1,1,0,*73
$GNGSA,A,3,03,10,14,22,25,26,29,31,32,,,,1.0,0.7,0.7,1*3C
$GNGSA,A,3,66,67,76,78,,,,,,,,,1.0,0.7,0.7,2*3C
$PQGSA,A,2,01,02,03,,,,,,,,,,1.0,0.7,0.7,5*3D
$GNVTG,20.8,T,20.8,M,2.4,N,4.4,K,A*3B
$GNRMC,083951.00,A,3117.187491,N,12129.999731,E,2.4,20.8,061219,4.6,W,A*0F
$GNGGA,083951.00,3117.187491,N,12129.999731,E,1,12,0.7,5.1,M,9.7,M,,*49
$GPGSV,3,1,09,10,20,182,25,14,68,347,37,16,14,213,23,22,20,303,28*79
$GPGSV,3,2,09,25,39,042,31,26,42,219,35,29,27,101,38,31,56,320,40*77
$GPGSV,3,3,09,32,71,098,41*43
$GLGSV,2,1,05,78,26,253,39,66,56,167,35,76,28,030,30,67,61,314,32*69
$GLGSV,2,2,05,86,05,078,*54
$GAGSV,1,1,0,*74
$PQGSV,1,1,03,193,45,167,28,194,73,047,39,195,26,143,30,0,5*64
$PQGSV,1,1,0,*73
$GNGSA,A,3,03,10,14,16,22,25,26,29,31,32,,,1.0,0.7,0.7,1*3B
$GNGSA,A,3,66,67,76,78,,,,,,,,,1.0,0.7,0.7,2*3C
$PQGSA,A,2,01,02,03,,,,,,,,,,1.0,0.7,0.7,5*3D
$GNVTG,20.8,T,20.8,M,0.5,N,0.9,K,A*31
$GNRMC,083952.00,A,3117.187868,N,12129.999744,E,0.5,20.8,061219,4.6,W,A*07
$GNGGA,083952.00,3117.187868,N,12129.999744,E,1,12,0.7,5.0,M,9.7,M,,*43
$GPGSV,3,1,09,10,20,182,25,14,68,347,37,22,20,303,25,25,39,042,36*79
$GPGSV,3,2,09,26,42,219,36,29,27,101,38,31,56,320,29,32,71,098,40*70
$GPGSV,3,3,09,03,07,320,*45
$GLGSV,2,1,05,78,26,253,39,66,56,167,34,76,28,030,36,67,61,314,27*6A
$GLGSV,2,2,05,86,05,078,*54
$GAGSV,1,1,0,*74
$PQGSV,1,1,03,193,45,167,34,194,73,047,38,195,26,143,26,0,5*6F
$PQGSV,1,1,0,*73
$GNGSA,A,3,03,10,14,16,22,25,26,29,31,32,,,1.0,0.7,0.7,1*3B
$GNGSA,A,3,66,67,76,78,,,,,,,,,1.0,0.7,0.7,2*3C
$PQGSA,A,2,01,02,03,,,,,,,,,,1.0,0.7,0.7,5*3D
$GNVTG,20.8,T,20.8,M,2.1,N,3.8,K,A*35
$GNRMC,083953.00,A,3117.188169,N,12129.999848,E,2.1,20.8,061219,4.6,W,A*04
$GNGGA,083953.00,3117.188169,N,12129.999848,E,1,12,0.7,6.0,M,9.7,M,,*45
$GPGSV,3,1,10,10,20,182,26,14,68,347,37,16,14,213,27,22,20,303,28*76
$GPGSV,3,2,10,25,39,042,35,26,42,219,34,29,27,101,31,31,56,320,31*75
$GPGSV,3,3,10,32,71,098,38,03,07,320,*70
$GLGSV,2,1,05,78,26,253,34,66,56,167,34,76,28,030,34,67,61,314,36*65
$GLGSV,2,2,05,86,05,078,*54
$GAGSV,1,1,0,*74
$PQGSV,1,1,03,193,45,167,34,194,73,047,39,195,26,143,28,0,5*60
$PQGSV,1,1,0,*73
$GNGSA,A,3,03,10,14,16,22,25,26,29,31,32,,,1.0,0.7,0.7,1*3B
$GNGSA,A,3,66,67,76,78,,,,,,,,,1.0,0.7,0.7,2*3C
$PQGSA,A,2,01,02,03,,,,,,,,,,1.0,0.7,0.7,5*3D
$GNVTG,20.9,T,20.9,M,2.1,N,4.0,K,A*3A
$GNRMC,083954.00,A,3117.188547,N,12130.000137,E,2.1,20.9,061219,4.6,W,A*0A
$GNGGA,083954.00,3117.188547,N,12130.000137,E,1,12,0.7,5.3,M,9.7,M,,*4A
$GPGSV,3,1,09,14,68,347,35,16,14,213,29,22,20,303,29,25,39,042,29*7F
$GPGSV,3,2,09,26,42,219,38,29,27,101,38,31,56,320,36,32,71,098,37*70
$GPGSV,3,3,09,03,07,320,*45
$GLGSV,2,1,05,78,26,253,31,66,56,167,29,76,28,030,24,67,61,314,35*6E
$GLGSV,2,2,05,86,05,078,*54
$GAGSV,1,1,0,*74
$PQGSV,1,1,03,193,45,167,30,194,73,047,32,195,26,143,27,0,5*60
$PQGSV,1,1,0,*73
$GNGSA,A,3,03,10,14,16,22,25,26,29,31,32,,,1.0,0.7,0.7,1*3B
$GNGSA,A,3,66,67,76,78,,,,,,,,,1.0,0.7,0.7,2*3C
$PQGSA,A,2,01,02,03,,,,,,,,,,1.0,0.7,0.7,5*3D
$GNVTG,20.9,T,20.9,M,2.1,N,3.8,K,A*35
$GNRMC,083955.00,A,3117.188863,N,12130.000594,E,2.1,20.9,061219,4.6,W,A*0D
$GNGGA,083955.00,3117.188863,N,12130.000594,E,1,12,0.7,5.6,M,9.7,M,,*48
$GPGSV,3,1,09,03,07,320,28,14,68,347,39,16,14,213,26,22,20,303,30*7B
$GPGSV,3,2,09,25,39,042,35,26,42,219,39,29,27,101,37,31,56,320,32*75
$GPGSV,3,3,09,32,71,098,42*40
$GLGSV,2,1,05,78,26,253,33,66,56,167,29,76,28,030,32,67,61,314,29*66
$GLGSV,2,2,05,86,05,078,*54
$GAGSV,1,1,0,*74
$PQGSV,1,1,03,193,45,167,32,194,73,047,38,195,26,143,28,0,5*67
$PQGSV,1,1,0,*73
$GNGSA,A,3,03,10,14,16,22,25,26,29,31,32,,,1.0,0.7,0.7,1*3B
$GNGSA,A,3,66,67,76,78,,,,,,,,,1.0,0.7,0.7,2*3C
$PQGSA,A,2,01,02,03,,,,,,,,,,1.0,0.7,0.7,5*3D
$GNVTG,37.2,T,37.2,M,2.4,N,4.5,K,A*3A
$GNRMC,083956.00,A,3117.189182,N,12130.001144,E,2.4,37.2,061219,4.6,W,A*09
$GNGGA,083956.00,3117.189182,N,12130.001144,E,1,12,0.7,5.7,M,9.7,M,,*45
$GPGSV,3,1,09,03,07,320,28,14,68,347,35,22,20,303,29,25,39,042,26*76
$GPGSV,3,2,09,26,42,219,38,29,27,101,32,31,56,320,41,32,71,098,40*7A
$GPGSV,3,3,09,10,20,182,*48
$GLGSV,2,1,05,78,26,253,22,66,56,167,31,76,28,030,32,67,61,314,35*62
$GLGSV,2,2,05,86,05,078,*54
$GAGSV,1,1,0,*74
$PQGSV,1,1,03,193,45,167,32,194,73,047,36,195,26,143,32,0,5*62
$PQGSV,1,1,0,*73
$GNGSA,A,3,03,10,14,16,22,25,26,29,31,32,,,1.0,0.7,0.7,1*3B
$GNGSA,A,3,66,67,76,78,,,,,,,,,1.0,0.7,0.7,2*3C
$PQGSA,A,2,01,02,03,,,,,,,,,,1.0,0.7,0.7,5*3D
$GNVTG,38.0,T,38.0,M,1.6,N,2.9,K,A*31
$GNRMC,083957.00,A,3117.189361,N,12130.001689,E,1.6,38.0,061219,4.6,W,A*0D
$GNGGA,083957.00,3117.189361,N,12130.001689,E,1,12,0.7,5.4,M,9.7,M,,*4E
$GPGSV,3,1,09,10,20,182,26,14,68,347,31,16,14,213,25,22,20,303,25*77
$GPGSV,3,2,09,25,39,042,34,26,42,219,40,29,27,101,32,31,56,320,39*74
$GPGSV,3,3,09,32,71,098,37*42
$GLGSV,2,1,05,78,26,253,27,66,56,167,36,76,28,030,27,67,61,314,37*66
$GLGSV,2,2,05,86,05,078,*54
$GAGSV,1,1,0,*74
$PQGSV,1,1,03,193,45,167,23,194,73,047,35,195,26,143,33,0,5*60
$PQGSV,1,1,0,*73
$GNGSA,A,3,03,10,14,16,22,25,26,29,31,32,,,1.0,0.7,0.7,1*3B
$GNGSA,A,3,66,67,76,78,,,,,,,,,1.0,0.7,0.7,2*3C
$PQGSA,A,2,01,02,03,,,,,,,,,,1.0,0.7,0.7,5*3D
$GNVTG,86.4,T,86.4,M,2.3,N,4.3,K,A*3B
$GNRMC,083958.00,A,3117.189359,N,12130.002372,E,2.3,86.4,061219,4.6,W,A*0C
$GNGGA,083958.00,3117.189359,N,12130.002372,E,1,12,0.7,4.6,M,9.7,M,,*4B
$GPGSV,3,1,09,03,07,320,26,14,68,347,31,16,14,213,28,22,20,303,28*7A
$GPGSV,3,2,09,25,39,042,27,26,42,219,40,29,27,101,30,31,56,320,38*75
$GPGSV,3,3,09,32,71,098,35*40
$GLGSV,2,1,05,78,26,253,32,66,56,167,39,76,28,030,30,67,61,314,32*6E
$GLGSV,2,2,05,86,05,078,*54
$GAGSV,1,1,0,*74
$PQGSV,1,1,03,193,45,167,30,194,73,047,33,195,26,143,31,0,5*66
$PQGSV,1,1,0,*73
$GNGSA,A,3,03,10,14,16,22,25,26,29,31,32,,,1.0,0.7,0.7,1*3B
$GNGSA,A,3,66,67,76,78,,,,,,,,,1.0,0.7,0.7,2*3C
$PQGSA,A,2,01,02,03,,,,,,,,,,1.0,0.7,0.7,5*3D
$GNVTG,87.0,T,87.0,M,2.4,N,4.5,K,A*3A
$GNRMC,083959.00,A,3117.189277,N,12130.003200,E,2.4,87.0,061219,4.6,W,A*07
$GNGGA,083959.00,3117.189277,N,12130.003200,E,1,12,0.7,5.1,M,9.7,M,,*44
$GPGSV,3,1,10,03,07,320,26,10,20,182,25,14,68,347,34,16,14,213,27*7F
$GPGSV,3,2,10,22,20,303,30,25,39,042,32,26,42,219,39,29,27,101,29*75
$GPGSV,3,3,10,31,56,320,31,32,71,098,40*78
$GLGSV,2,1,05,78,26,253,26,66,56,167,35,76,28,030,26,67,61,314,29*6A
$GLGSV,2,2,05,86,05,078,*54
$GAGSV,1,1,0,*74
$PQGSV,1,1,03,193,45,167,35,194,73,047,27,195,26,143,28,0,5*6E
$PQGSV,1,1,0,*73
$GNGSA,A,3,03,10,14,16,22,25,26,29,31,32,,,1.0,0.7,0.7,1*3B
$GNGSA,A,3,66,67,76,78,,,,,,,,,1.0,0.7,0.7,2*3C
$PQGSA,A,2,01,02,03,,,,,,,,,,1.0,0.7,0.7,5*3D
$GNVTG,95.5,T,95.5,M,2.5,N,4.6,K,A*38
$GNRMC,084000.00,A,3117.189069,N,12130.004037,E,2.5,95.5,061219,4.6,W,A*0E
$GNGGA,084000.00,3117.189069,N,12130.004037,E,1,12,0.7,4.0,M,9.7,M,,*4A
$GPGSV,2,1,08,03,07,320,25,14,68,347,33,22,20,303,29,25,39,042,35*7F
$GPGSV,2,2,08,26,42,219,38,29,27,101,34,31,56,320,37,32,71,098,30*7A
$GLGSV,2,1,05,78,26,253,29,66,56,167,38,76,28,030,24,67,61,314,32*60
$GLGSV,2,2,05,86,05,078,*54
$GAGSV,1,1,0,*74
$PQGSV,1,1,03,193,45,167,33,194,73,047,30,195,26,143,35,0,5*62
$PQGSV,1,1,0,*73
$GNGSA,A,3,03,10,14,16,22,25,26,29,31,32,,,1.0,0.7,0.7,1*3B
$GNGSA,A,3,66,67,76,78,,,,,,,,,1.0,0.7,0.7,2*3C
$PQGSA,A,2,01,02,03,,,,,,,,,,1.0,0.7,0.7,5*3D
$GNVTG,95.0,T,95.0,M,2.7,N,5.0,K,A*3D
$GNRMC,084001.00,A,3117.188902,N,12130.004937,E,2.7,95.0,061219,4.6,W,A*04
$GNGGA,084001.00,3117.188902,N,12130.004937,E,1,12,0.7,3.8,M,9.7,M,,*48
$GPGSV,3,1,09,10,20,182,24,14,68,347,34,22,20,303,31,25,39,042,30*78
$GPGSV,3,2,09,26,42,219,39,29,27,101,37,31,56,320,38,32,71,098,37*70
$GPGSV,3,3,09,16,14,213,*42
$GLGSV,2,1,05,78,26,253,31,66,56,167,38,76,28,030,28,67,61,314,34*63
$GLGSV,2,2,05,86,05,078,*54
$GAGSV,1,1,0,*74
$PQGSV,1,1,03,193,45,167,38,194,73,047,33,195,26,143,25,0,5*6B
$PQGSV,1,1,0,*73
$GNGSA,A,3,03,10,14,16,22,25,26,29,31,32,,,1.0,0.7,0.7,1*3B
$GNGSA,A,3,66,67,76,78,,,,,,,,,1.0,0.7,0.7,2*3C
$PQGSA,A,2,01,02,03,,,,,,,,,,1.0,0.7,0.7,5*3D
$GNVTG,95.3,T,95.3,M,2.5,N,4.6,K,A*38
$GNRMC,084002.00,A,3117.188718,N,12130.005725,E,2.5,95.3,061219,4.6,W,A*0F
$GNGGA,084002.00,3117.188718,N,12130.005725,E,1,12,0.7,2.8,M,9.7,M,,*43
$GPGSV,3,1,10,03,07,320,23,10,20,182,23,14,68,347,34,22,20,303,28*73
$GPGSV,3,2,10,25,39,042,29,26,42,219,37,29,27,101,35,31,56,320,39*77
$GPGSV,3,3,10,32,71,098,40,16,14,213,*78
$GLGSV,1,1,04,66,56,167,34,76,28,030,32,67,61,314,36,86,05,078,*6D
$GAGSV,1,1,0,*74
$PQGSV,1,1,03,193,45,167,38,194,73,047,30,195,26,143,31,0,5*6D
$PQGSV,1,1,0,*73
$GNGSA,A,3,03,10,14,16,22,25,26,29,31,32,,,1.0,0.7,0.7,1*3B
$GNGSA,A,3,66,67,76,78,,,,,,,,,1.0,0.7,0.7,2*3C
$PQGSA,A,2,01,02,03,,,,,,,,,,1.0,0.7,0.7,5*3D
$GNVTG,95.4,T,95.4,M,1.7,N,3.2,K,A*3A
$GNRMC,084003.00,A,3117.188489,N,12130.006273,E,1.7,95.4,061219,4.6,W,A*06
$GNGGA,084003.00,3117.188489,N,12130.006273,E,1,12,0.7,2.7,M,9.7,M,,*43
$GPGSV,3,1,09,10,20,182,27,14,68,347,36,22,20,303,30,25,39,042,27*7E
$GPGSV,3,2,09,26,42,219,31,29,27,101,37,31,56,320,37,32,71,098,31*71
$GPGSV,3,3,09,16,14,213,*42
$GLGSV,2,1,05,78,26,253,31,66,56,167,31,76,28,030,28,67,61,314,33*6D
$GLGSV,2,2,05,86,05,078,*54
$GAGSV,1,1,0,*74
$PQGSV,1,1,03,193,45,167,34,194,73,047,26,195,26,143,24,0,5*62
$PQGSV,1,1,0,*73
$GNGSA,A,3,03,10,14,16,22,25,26,29,31,32,,,1.0,0.7,0.7,1*3B
$GNGSA,A,3,66,67,76,78,,,,,,,,,1.0,0.7,0.7,2*3C
$PQGSA,A,2,01,02,03,,,,,,,,,,1.0,0.7,0.7,5*3D
$GNVTG,95.5,T,95.5,M,2.1,N,3.9,K,A*34
$GNRMC,084004.00,A,3117.188092,N,12130.006645,E,2.1,95.5,061219,4.6,W,A*0A
$GNGGA,084004.00,3117.188092,N,12130.006645,E,1,12,0.7,2.6,M,9.7,M,,*4A
$GPGSV,3,1,10,03,07,320,24,10,20,182,27,14,68,347,28,22,20,303,29*7C
$GPGSV,3,2,10,25,39,042,30,26,42,219,41,29,27,101,40,31,56,320,33*76
$GPGSV,3,3,10,32,71,098,36,16,14,213,*79
$GLGSV,1,1,04,66,56,167,30,76,28,030,32,67,61,314,31,86,05,078,*6E
$GAGSV,1,1,0,*74
$PQGSV,1,1,03,193,45,167,35,194,73,047,34,195,26,143,29,0,5*6D
$PQGSV,1,1,0,*73
$GNGSA,A,3,03,10,14,16,22,25,26,29,31,32,,,1.0,0.7,0.7,1*3B
$GNGSA,A,3,66,67,76,78,,,,,,,,,1.0,0.7,0.7,2*3C
$PQGSA,A,2,01,02,03,,,,,,,,,,1.0,0.7,0.7,5*3D
$GNVTG,118.5,T,118.5,M,2.6,N,4.8,K,A*35
$GNRMC,084005.00,A,3117.187479,N,12130.007160,E,2.6,118.5,061219,4.6,W,A*37
$GNGGA,084005.00,3117.187479,N,12130.007160,E,1,12,0.7,3.9,M,9.7,M,,*4A
$GPGSV,2,1,08,14,68,347,30,22,20,303,27,25,39,042,31,26,42,219,40*78
$GPGSV,2,2,08,29,27,101,39,31,56,320,35,32,71,098,41,16,14,213,*72
$GLGSV,2,1,05,78,26,253,33,66,56,167,36,76,28,030,24,67,61,314,32*65
$GLGSV,2,2,05,86,05,078,*54
$GAGSV,1,1,0,*74
$PQGSV,1,1,03,193,45,167,34,194,73,047,37,195,26,143,31,0,5*66
$PQGSV,1,1,0,*73
$GNGSA,A,3,03,10,14,22,25,26,29,31,32,,,,1.0,0.7,0.7,1*3C
$GNGSA,A,3,66,67,76,78,,,,,,,,,1.0,0.7,0.7,2*3C
$PQGSA,A,2,01,02,03,,,,,,,,,,1.0,0.7,0.7,5*3D
$GNVTG,118.3,T,118.3,M,2.6,N,4.9,K,A*34
$GNRMC,084006.00,A,3117.186854,N,12130.007793,E,2.6,118.3,061219,4.6,W,A*3A
$GNGGA,084006.00,3117.186854,N,12130.007793,E,1,12,0.7,3.7,M,9.7,M,,*4F
$GPGSV,3,1,10,14,68,347,31,22,20,303,23,25,39,042,32,26,42,219,36*77
$GPGSV,3,2,10,29,27,101,37,31,56,320,34,32,71,098,33,03,07,320,*77
$GPGSV,3,3,10,10,20,182,,16,14,213,*72
$GLGSV,2,1,05,78,26,253,30,66,56,167,34,76,28,030,28,67,61,314,27*6C
$GLGSV,2,2,05,86,05,078,*54
$GAGSV,1,1,0,*74
$PQGSV,1,1,03,193,45,167,34,194,73,047,32,195,26,143,28,0,5*6B
$PQGSV,1,1,0,*73
$GNGSA,A,3,03,10,14,22,25,26,29,31,32,,,,1.0,0.7,0.7,1*3C
$GNGSA,A,3,66,67,76,78,,,,,,,,,1.0,0.7,0.7,2*3C
$PQGSA,A,2,01,02,03,,,,,,,,,,1.0,0.7,0.7,5*3D
$GNVTG,118.4,T,118.4,M,2.5,N,4.7,K,A*39
$GNRMC,084007.00,A,3117.186350,N,12130.008441,E,2.5,118.4,061219,4.6,W,A*33
$GNGGA,084007.00,3117.186350,N,12130.008441,E,1,12,0.7,3.6,M,9.7,M,,*43
$GPGSV,3,1,10,03,07,320,25,14,68,347,30,22,20,303,31,25,39,042,32*7A
$GPGSV,3,2,10,26,42,219,37,29,27,101,34,31,56,320,34,32,71,098,35*7B
$GPGSV,3,3,10,10,20,182,,16,14,213,*72
$GLGSV,2,1,05,78,26,253,25,66,56,167,31,76,28,030,27,67,61,314,31*65
$GLGSV,2,2,05,86,05,078,*54
$GAGSV,1,1,0,*74
$PQGSV,1,1,03,193,45,167,30,194,73,047,36,195,26,143,25,0,5*66
$PQGSV,1,1,0,*73
$GNGSA,A,3,03,10,14,22,25,26,29,31,32,,,,1.0,0.7,0.7,1*3C
$GNGSA,A,3,66,67,76,78,,,,,,,,,1.0,0.7,0.7,2*3C
$PQGSA,A,2,01,02,03,,,,,,,,,,1.0,0.7,0.7,5*3D
$GNVTG,118.3,T,118.3,M,1.9,N,3.5,K,A*33
$GNRMC,084008.00,A,3117.185933,N,12130.009074,E,1.9,118.3,061219,4.6,W,A*3B
$GNGGA,084008.00,3117.185933,N,12130.009074,E,1,12,0.7,4.1,M,9.7,M,,*43
$GPGSV,3,1,10,03,07,320,25,14,68,347,35,22,20,303,32,25,39,042,31*7F
$GPGSV,3,2,10,26,42,219,32,29,27,101,32,31,56,320,34,32,71,098,30*7D
$GPGSV,3,3,10,10,20,182,,16,14,213,*72
$GLGSV,2,1,05,78,26,253,30,66,56,167,31,76,28,030,24,67,61,314,34*67
$GLGSV,2,2,05,86,05,078,*54
$GAGSV,1,1,0,*74
$PQGSV,1,1,03,193,45,167,37,194,73,047,35,195,26,143,31,0,5*67
$PQGSV,1,1,0,*73
$GNGSA,A,3,03,10,14,22,25,26,29,31,32,,,,1.0,0.7,0.7,1*3C
$GNGSA,A,3,66,67,76,78,,,,,,,,,1.0,0.7,0.7,2*3C
$PQGSA,A,2,01,02,03,,,,,,,,,,1.0,0.7,0.7,5*3D
$GNVTG,118.8,T,118.8,M,1.8,N,3.3,K,A*34
$GNRMC,084009.00,A,3117.185484,N,12130.009572,E,1.8,118.8,061219,4.6,W,A*32
$GNGGA,084009.00,3117.185484,N,12130.009572,E,1,12,0.7,3.3,M,9.7,M,,*45
$GPGSV,3,1,10,03,07,320,29,10,20,182,23,14,68,347,34,22,20,303,32*72
$GPGSV,3,2,10,25,39,042,28,26,42,219,30,29,27,101,37,31,56,320,34*7E
$GPGSV,3,3,10,32,71,098,36,16,14,213,*79
$GLGSV,2,1,05,78,26,253,31,66,56,167,36,76,28,030,29,67,61,314,33*6B
$GLGSV,2,2,05,86,05,078,*54
$GAGSV,1,1,0,*74
$PQGSV,1,1,03,193,45,167,25,194,73,047,27,195,26,143,23,0,5*64
$PQGSV,1,1,0,*73
$GNGSA,A,3,03,10,14,22,25,26,29,31,32,,,,1.0,0.7,0.7,1*3C
$GNGSA,A,3,66,67,76,78,,,,,,,,,1.0,0.7,0.7,2*3C
$PQGSA,A,2,01,02,03,,,,,,,,,,1.0,0.7,0.7,5*3D
$GNVTG,118.7,T,118.7,M,2.5,N,4.7,K,A*39
$GNRMC,084010.00,A,3117.184920,N,12130.010159,E,2.5,118.7,061219,4.6,W,A*3C
$GNGGA,084010.00,3117.184920,N,12130.010159,E,1,12,0.7,3.3,M,9.7,M,,*4A
$GPGSV,3,1,10,03,07,320,25,10,20,182,26,14,68,347,33,22,20,303,36*78
$GPGSV,3,2,10,25,39,042,25,26,42,219,34,29,27,101,34,31,56,320,37*77
$GPGSV,3,3,10,32,71,098,37,16,14,213,*78
$GLGSV,2,1,05,78,26,253,31,66,56,167,36,76,28,030,29,67,61,314,38*60
$GLGSV,2,2,05,86,05,078,*54
$GAGSV,1,1,0,*74
$PQGSV,1,1,03,193,45,167,31,194,73,047,34,195,26,143,31,0,5*60
$PQGSV,1,1,0,*73
$GNGSA,A,3,03,10,14,22,25,26,29,31,32,,,,1.0,0.7,0.7,1*3C
$GNGSA,A,3,66,67,76,78,,,,,,,,,1.0,0.7,0.7,2*3C
$PQGSA,A,2,01,02,03,,,,,,,,,,1.0,0.7,0.7,5*3D
$GNVTG,133.2,T,133.2,M,3.4,N,6.3,K,A*3F
$GNRMC,084011.00,A,3117.184179,N,12130.010814,E,3.4,133.2,061219,4.6,W,A*35
$GNGGA,084011.00,3117.184179,N,12130.010814,E,1,12,0.7,3.7,M,9.7,M,,*4B
$GPGSV,3,1,09,03,07,320,24,14,68,347,33,22,20,303,35,25,39,042,28*7F
$GPGSV,3,2,09,26,42,219,35,29,27,101,28,31,56,320,33,32,71,098,39*77
$GPGSV,3,3,09,16,14,213,*42
$GLGSV,1,1,04,78,26,253,31,66,56,167,34,67,61,314,27,86,05,078,*69
$GAGSV,1,1,0,*74
$PQGSV,1,1,03,193,45,167,35,194,73,047,27,195,26,143,28,0,5*6E
$PQGSV,1,1,0,*73
$GNGSA,A,3,03,10,14,22,25,26,29,31,32,,,,1.0,0.7,0.7,1*3C
$GNGSA,A,3,66,67,76,78,,,,,,,,,1.0,0.7,0.7,2*3C
$PQGSA,A,2,01,02,03,,,,,,,,,,1.0,0.7,0.7,5*3D
$GNVTG,132.8,T,132.8,M,1.7,N,3.2,K,A*3A
$GNRMC,084012.00,A,3117.183574,N,12130.011356,E,1.7,132.8,061219,4.6,W,A*3E
$GNGGA,084012.00,3117.183574,N,12130.011356,E,1,12,0.7,4.4,M,9.7,M,,*4E
$GPGSV,3,1,10,03,07,320,25,10,20,182,25,14,68,347,34,22,20,303,26*7D
$GPGSV,3,2,10,25,39,042,32,26,42,219,36,29,27,101,34,31,56,320,37*73
$GPGSV,3,3,10,32,71,098,39,16,14,213,*76
$GLGSV,2,1,05,78,26,253,34,66,56,167,33,76,28,030,25,67,61,314,31*65
$GLGSV,2,2,05,86,05,078,*54
$GAGSV,1,1,0,*74
$PQGSV,1,1,03,193,45,167,30,194,73,047,30,195,26,143,27,0,5*62
$PQGSV,1,1,0,*73
$GNGSA,A,3,03,10,14,22,25,26,29,31,32,,,,1.0,0.7,0.7,1*3C
$GNGSA,A,3,66,67,76,78,,,,,,,,,1.0,0.7,0.7,2*3C
$PQGSA,A,2,01,02,03,,,,,,,,,,1.0,0.7,0.7,5*3D
$GNVTG,119.0,T,119.0,M,2.5,N,4.7,K,A*39
$GNRMC,084013.00,A,3117.183148,N,12130.011962,E,2.5,119.0,061219,4.6,W,A*39
$GNGGA,084013.00,3117.183148,N,12130.011962,E,1,12,0.7,4.9,M,9.7,M,,*44
$GPGSV,3,1,09,10,20,182,26,14,68,347,32,22,20,303,31,25,39,042,33*7F
$GPGSV,3,2,09,26,42,219,38,29,27,101,43,31,56,320,35,32,71,098,41*7E
$GPGSV,3,3,09,16,14,213,*42
$GLGSV,2,1,05,78,26,253,27,66,56,167,33,76,28,030,30,67,61,314,29*6A
$GLGSV,2,2,05,86,05,078,*54
$GAGSV,1,1,0,*74
$PQGSV,1,1,03,193,45,167,27,194,73,047,36,195,26,143,31,0,5*65
$PQGSV,1,1,0,*73
$GNGSA,A,3,03,10,14,22,25,26,29,31,32,,,,1.0,0.7,0.7,1*3C
$GNGSA,A,3,66,67,76,78,,,,,,,,,1.0,0.7,0.7,2*3C
$PQGSA,A,2,01,02,03,,,,,,,,,,1.0,0.7,0.7,5*3D
$GNVTG,118.7,T,118.7,M,2.3,N,4.2,K,A*3A
$GNRMC,084014.00,A,3117.182780,N,12130.012682,E,2.3,118.7,061219,4.6,W,A*3F
$GNGGA,084014.00,3117.182780,N,12130.012682,E,1,12,0.7,4.9,M,9.7,M,,*42
$GPGSV,3,1,10,10,20,182,26,14,68,347,30,16,14,213,24,22,20,303,25*7F
$GPGSV,3,2,10,25,39,042,34,26,42,219,35,29,27,101,41,31,56,320,37*74
$GPGSV,3,3,10,32,71,098,35,03,07,320,*7D
$GLGSV,2,1,05,78,26,253,29,66,56,167,36,76,28,030,26,67,61,314,34*6A
$GLGSV,2,2,05,86,05,078,*54
$GAGSV,1,1,0,*74
$PQGSV,1,1,03,193,45,167,33,194,73,047,35,195,26,143,25,0,5*66
$PQGSV,1,1,0,*73
$GNGSA,A,3,03,10,14,16,22,25,26,29,31,32,,,1.0,0.7,0.7,1*3B
$GNGSA,A,3,66,67,76,78,,,,,,,,,1.0,0.7,0.7,2*3C
$PQGSA,A,2,01,02,03,,,,,,,,,,1.0,0.7,0.7,5*3D
$GNVTG,118.5,T,118.5,M,2.3,N,4.2,K,A*3A
$GNRMC,084015.00,A,3117.182513,N,12130.013442,E,2.3,118.5,061219,4.6,W,A*3B
$GNGGA,084015.00,3117.182513,N,12130.013442,E,1,12,0.7,4.4,M,9.7,M,,*49
$GPGSV,3,1,09,10,20,182,27,14,68,347,37,22,20,303,30,25,39,042,34*7D
$GPGSV,3,2,09,26,42,219,38,29,27,101,44,31,56,320,40,32,71,098,44*7E
$GPGSV,3,3,09,03,07,320,*45
$GLGSV,2,1,05,78,26,253,25,66,56,167,38,76,28,030,30,67,61,314,31*6A
$GLGSV,2,2,05,86,05,078,*54
$GAGSV,1,1,0,*74
$PQGSV,1,1,03,193,45,167,38,194,73,047,35,195,26,143,28,0,5*60
$PQGSV,1,1,0,*73
$GNGSA,A,3,03,10,14,16,22,25,26,29,31,32,,,1.0,0.7,0.7,1*3B
$GNGSA,A,3,66,67,76,78,,,,,,,,,1.0,0.7,0.7,2*3C
$PQGSA,A,2,01,02,03,,,,,,,,,,1.0,0.7,0.7,5*3D
$GNVTG,100.6,T,100.6,M,2.7,N,5.0,K,A*3D
$GNRMC,084016.00,A,3117.182315,N,12130.014277,E,2.7,100.6,061219,4.6,W,A*31
$GNGGA,084016.00,3117.182315,N,12130.014277,E,1,12,0.7,4.5,M,9.7,M,,*4C
$GPGSV,3,1,09,03,07,320,25,14,68,347,36,22,20,303,30,25,39,042,32*75
$GPGSV,3,2,09,26,42,219,42,29,27,101,39,31,56,320,39,32,71,098,43*70
$GPGSV,3,3,09,16,14,213,*42
$GLGSV,2,1,05,78,26,253,27,66,56,167,37,76,28,030,27,67,61,314,32*62
$GLGSV,2,2,05,86,05,078,*54
$GAGSV,1,1,0,*74
$PQGSV,1,1,03,193,45,167,38,194,73,047,39,195,26,143,32,0,5*67
$PQGSV,1,1,0,*73
$GNGSA,A,3,03,10,14,16,22,25,26,29,31,32,,,1.0,0.7,0.7,1*3B
$GNGSA,A,3,66,67,76,78,,,,,,,,,1.0,0.7,0.7,2*3C
$PQGSA,A,2,01,02,03,,,,,,,,,,1.0,0.7,0.7,5*3D
$GNVTG,100.8,T,100.8,M,2.2,N,4.0,K,A*39
$GNRMC,084017.00,A,3117.182153,N,12130.015127,E,2.2,100.8,061219,4.6,W,A*3C
$GNGGA,084017.00,3117.182153,N,12130.015127,E,1,12,0.7,4.8,M,9.7,M,,*47
$GPGSV,3,1,10,03,07,320,22,10,20,182,25,14,68,347,37,22,20,303,31*7F
$GPGSV,3,2,10,25,39,042,29,26,42,219,30,29,27,101,40,31,56,320,35*7E
$GPGSV,3,3,10,32,71,098,43,16,14,213,*7B
$GLGSV,2,1,05,78,26,253,27,66,56,167,42,76,28,030,23,67,61,314,29*6E
$GLGSV,2,2,05,86,05,078,*54
$GAGSV,1,1,0,*74
$PQGSV,1,1,03,193,45,167,31,194,73,047,37,195,26,143,26,0,5*65
$PQGSV,1,1,0,*73
$GNGSA,A,3,03,10,14,16,22,25,26,29,31,32,,,1.0,0.7,0.7,1*3B
$GNGSA,A,3,66,67,76,78,,,,,,,,,1.0,0.7,0.7,2*3C
$PQGSA,A,2,01,02,03,,,,,,,,,,1.0,0.7,0.7,5*3D
$GNVTG,100.7,T,100.7,M,2.5,N,4.7,K,A*39
$GNRMC,084018.00,A,3117.181973,N,12130.015931,E,2.5,100.7,061219,4.6,W,A*3D
