$GPGGA,084058.00,3117.103080,N,12129.859437,E,1,20,0.7,15.1,M,,M,,*40
$GNGSA,A,3,3,10,14,16,22,25,26,29,31,32,206,207,1.4,0.7,1.1*14
$GPGSA,A,3,3,10,14,16,22,25,26,29,31,32,,,1.4,0.7,1.1*0B
$GPGSA,A,3,3,25,26,32,,,,,,,,,1.4,0.7,1.1,8*15
$GLGSA,A,3,69,70,78,79,80,,,,,,,,1.4,0.7,1.1*2D
$BDGSA,A,3,206,207,209,210,219,228,,,,,,,1.4,0.7,1.1*2A
$BDGSA,A,3,,,,,,,,,,,,,1.4,0.7,1.1,7*3A
$GAGSA,A,3,101,107,119,,,,,,,,,,1.4,0.7,1.1*1E
$GAGSA,A,3,101,107,119,,,,,,,,,,1.4,0.7,1.1,1*03
$QZGSA,A,3,194,195,,,,,,,,,,,1.4,0.7,1.1*2D
$PJGSA,A,3,194,195,,,,,,,,,,,1.4,0.7,1.1*3C
$GPGSV,4,1,15,03,11,318,27,04,05,,,10,16,181,16,14,73,355,38*45
$GPGSV,4,2,15,16,19,216,24,22,22,300,27,25,34,041,36,26,47,223,42*73
$GPGSV,4,3,15,29,29,096,39,31,57,330,38,32,67,111,43*42
$GPGSV,4,4,15,03,11,318,27,25,34,041,35,26,47,223,31,32,05,,35,8*52
$GLGSV,3,1,10,67,,157,,68,51,177,,69,68,304,37,70,12,330,20*6B
$GLGSV,3,2,10,73,05,,,78,25,034,36,79,57,331,39,80,28,259,24*53
$GLGSV,3,3,10,81,03,116,,87,01,032,*67
$BDGSV,3,1,12,201,48,147,,202,35,235,,203,50,200,,204,34,123,*61
$BDGSV,3,2,12,205,14,254,,206,80,083,34,207,72,225,33,209,65,330,35*60
$BDGSV,3,3,12,210,42,226,30,216,82,056,,219,60,264,41,228,08,062,23*6B
$QZGSV,2,1,05,193,05,,,194,73,045,35,195,29,144,21*56
$QZGSV,2,2,05,194,73,045,35,195,29,144,19,8*74
$GAGSV,3,1,10,101,14,235,32,107,27,144,14,119,47,314,35,121,56,255,*65
$GAGSV,3,2,10,125,05,,,127,59,020,,131,05,,*67
$GAGSV,3,3,10,101,14,235,29,107,27,144,22,119,47,314,31,1*72
$GPRMC,084058.00,A,3117.103080,N,12129.859437,E,000.9,321.9,081219,,E,A*1A
$GPGGA,084059.00,3117.103080,N,12129.859437,E,1,21,0.7,15.1,M,,M,,*40
$GNGSA,A,3,3,10,14,16,22,25,26,29,31,32,206,207,1.2,0.7,1.0*13
$GPGSA,A,3,3,10,14,16,22,25,26,29,31,32,,,1.2,0.7,1.0*0C
$GPGSA,A,3,3,25,26,32,,,,,,,,,1.2,0.7,1.0,8*12
$GLGSA,A,3,69,70,78,79,80,,,,,,,,1.2,0.7,1.0*2A
$BDGSA,A,3,206,207,209,210,219,228,,,,,,,1.2,0.7,1.0*2D
$BDGSA,A,3,,,,,,,,,,,,,1.2,0.7,1.0,7*3D
$GAGSA,A,3,101,107,119,,,,,,,,,,1.2,0.7,1.0*19
$GAGSA,A,3,101,107,119,,,,,,,,,,1.2,0.7,1.0,1*04
$QZGSA,A,3,194,195,,,,,,,,,,,1.2,0.7,1.0*2A
$PJGSA,A,3,194,195,,,,,,,,,,,1.2,0.7,1.0*3B
$GPGSV,4,1,15,03,11,318,34,04,05,,,10,16,181,16,14,73,355,34*4B
$GPGSV,4,2,15,16,19,216,22,22,22,300,34,25,34,041,36,26,47,223,37*75
$GPGSV,4,3,15,29,29,096,34,31,57,330,39,32,67,111,38*42
$GPGSV,4,4,15,03,11,318,28,25,34,041,34,26,47,223,35,32,05,,33,8*5E
$GLGSV,3,1,10,67,,157,,68,51,177,,69,68,304,37,70,12,330,17*6F
$GLGSV,3,2,10,73,05,,,78,25,034,37,79,57,331,36,80,28,259,27*5E
$GLGSV,3,3,10,81,03,116,,87,01,032,*67
$BDGSV,3,1,12,201,48,147,,202,35,235,,203,50,200,,204,34,123,*61
$BDGSV,3,2,12,205,14,254,,206,80,083,33,207,72,225,33,209,65,330,35*67
$BDGSV,3,3,12,210,42,226,29,216,82,056,,219,60,264,39,228,08,062,22*6D
$QZGSV,2,1,05,193,05,,,194,73,045,33,195,29,144,23*52
$QZGSV,2,2,05,194,73,045,35,195,29,144,20,8*7E
$GAGSV,3,1,10,101,14,235,33,107,27,144,15,119,47,314,35,121,56,255,*65
$GAGSV,3,2,10,125,05,,,127,59,020,,131,05,,*67
$GAGSV,3,3,10,101,14,235,29,107,27,144,19,119,47,314,28,1*72
$GPRMC,084059.00,A,3117.103080,N,12129.859437,E,001.3,321.9,081219,,E,A*10
$GPGGA,084100.00,3117.103059,N,12129.859456,E,1,21,0.7,15.1,M,,M,,*4E
$GNGSA,A,3,3,10,14,16,22,25,26,29,31,32,206,207,1.2,0.7,1.0*13
$GPGSA,A,3,3,10,14,16,22,25,26,29,31,32,,,1.2,0.7,1.0*0C
$GPGSA,A,3,3,25,26,32,,,,,,,,,1.2,0.7,1.0,8*12
$GLGSA,A,3,69,70,78,79,80,,,,,,,,1.2,0.7,1.0*2A
$BDGSA,A,3,206,207,209,210,219,228,,,,,,,1.2,0.7,1.0*2D
$BDGSA,A,3,209,,,,,,,,,,,,1.2,0.7,1.0,7*06
$GAGSA,A,3,101,107,119,,,,,,,,,,1.2,0.7,1.0*19
$GAGSA,A,3,101,107,119,,,,,,,,,,1.2,0.7,1.0,1*04
$QZGSA,A,3,194,195,,,,,,,,,,,1.2,0.7,1.0*2A
$PJGSA,A,3,194,195,,,,,,,,,,,1.2,0.7,1.0*3B
$GPGSV,4,1,15,03,11,318,31,04,05,,,10,16,181,17,14,73,355,37*4C
$GPGSV,4,2,15,16,19,216,22,22,22,300,42,25,34,041,36,26,47,223,37*74
$GPGSV,4,3,15,29,29,096,32,31,57,330,41,32,67,111,43*47
$GPGSV,4,4,15,03,11,318,28,25,34,041,36,26,47,223,35,32,05,,35,8*5A
$GLGSV,3,1,10,67,,157,,68,51,177,,69,68,304,37,70,12,330,24*6F
$GLGSV,3,2,10,73,05,,,78,25,034,35,79,57,332,37,80,28,259,28*51
$GLGSV,3,3,10,81,03,116,,87,01,032,*67
$BDGSV,3,1,12,201,48,147,,202,35,235,,203,50,200,,204,34,123,*61
$BDGSV,3,2,12,205,14,254,,206,80,083,37,207,72,225,37,209,65,330,35*67
$BDGSV,3,3,12,210,42,226,32,216,82,056,,219,60,264,33,228,08,062,23*6C
$BDGSV,4,4,13,209,,,,7*4A
$QZGSV,2,1,05,193,05,,,194,73,045,37,195,29,144,24*51
$QZGSV,2,2,05,194,73,045,39,195,29,144,19,8*78
$GAGSV,3,1,10,101,14,235,26,107,27,144,15,119,47,314,35,121,56,255,*61
$GAGSV,3,2,10,125,05,,,127,59,020,,131,05,,*67
$GAGSV,3,3,10,101,14,235,32,107,27,144,19,119,47,314,26,1*76
$GPRMC,084100.00,A,3117.103059,N,12129.859456,E,000.9,321.9,081219,,E,A*15
$GPGGA,084101.00,3117.103183,N,12129.858955,E,1,21,0.7,15.1,M,,M,,*46
$GNGSA,A,3,3,10,14,16,22,25,26,29,31,32,206,207,1.2,0.7,1.0*13
$GPGSA,A,3,3,10,14,16,22,25,26,29,31,32,,,1.2,0.7,1.0*0C
$GPGSA,A,3,3,25,26,32,,,,,,,,,1.2,0.7,1.0,8*12
$GLGSA,A,3,69,70,78,79,80,,,,,,,,1.2,0.7,1.0*2A
$BDGSA,A,3,206,207,209,210,219,228,,,,,,,1.2,0.7,1.0*2D
$BDGSA,A,3,,,,,,,,,,,,,1.2,0.7,1.0,7*3D
$GAGSA,A,3,101,107,119,,,,,,,,,,1.2,0.7,1.0*19
$GAGSA,A,3,101,107,119,,,,,,,,,,1.2,0.7,1.0,1*04
$QZGSA,A,3,194,195,,,,,,,,,,,1.2,0.7,1.0*2A
$PJGSA,A,3,194,195,,,,,,,,,,,1.2,0.7,1.0*3B
$GPGSV,4,1,15,03,11,318,29,04,05,,,10,16,181,19,14,73,355,35*49
$GPGSV,4,2,15,16,19,216,25,22,22,300,35,25,34,041,36,26,47,223,34*70
$GPGSV,4,3,15,29,29,096,32,31,57,330,42,32,67,111,37*47
$GPGSV,4,4,15,03,11,318,25,25,34,041,37,26,47,223,31,32,05,,35,8*52
$GLGSV,3,1,10,67,,157,,68,51,177,,69,68,304,39,70,12,330,26*63
$GLGSV,3,2,10,73,05,,,78,25,034,35,79,57,332,39,80,28,259,27*50
$GLGSV,3,3,10,81,03,116,,87,01,032,*67
$BDGSV,5,1,17,201,48,147,,202,35,235,,203,50,200,,204,34,123,*62
$BDGSV,5,2,17,205,14,254,,206,80,083,31,207,72,225,30,209,65,330,37*67
$BDGSV,5,3,17,210,42,226,24,216,82,056,,218,29,239,,219,60,264,39*6F
$BDGSV,5,4,17,220,37,177,,222,22,315,,227,15,112,,228,08,062,20*68
$BDGSV,5,5,17,230,05,161,*6C
$QZGSV,2,1,05,193,05,,,194,73,045,33,195,29,144,21*50
$QZGSV,2,2,05,194,73,045,36,195,29,144,19,8*77
$GAGSV,3,1,10,101,14,235,26,107,27,144,15,119,47,314,33,121,56,255,*67
$GAGSV,3,2,10,125,05,,,127,59,020,,131,05,,*67
$GAGSV,3,3,10,101,14,235,29,107,27,144,18,119,47,314,28,1*73
$GPRMC,084101.00,A,3117.103183,N,12129.858955,E,000.6,321.9,081219,,E,A*12
$GPGGA,084102.00,3117.103373,N,12129.858150,E,1,21,0.7,15.1,M,,M,,*45
$GNGSA,A,3,3,10,14,16,22,25,26,29,31,32,206,207,1.2,0.7,1.0*13
$GPGSA,A,3,3,10,14,16,22,25,26,29,31,32,,,1.2,0.7,1.0*0C
$GPGSA,A,3,3,25,26,32,,,,,,,,,1.2,0.7,1.0,8*12
$GLGSA,A,3,69,70,78,79,80,,,,,,,,1.2,0.7,1.0*2A
$BDGSA,A,3,206,207,209,210,219,228,,,,,,,1.2,0.7,1.0*2D
$BDGSA,A,3,219,,,,,,,,,,,,1.2,0.7,1.0,7*07
$GAGSA,A,3,101,107,119,,,,,,,,,,1.2,0.7,1.0*19
$GAGSA,A,3,101,107,119,,,,,,,,,,1.2,0.7,1.0,1*04
$QZGSA,A,3,194,195,,,,,,,,,,,1.2,0.7,1.0*2A
$PJGSA,A,3,194,195,,,,,,,,,,,1.2,0.7,1.0*3B
$GPGSV,4,1,15,03,11,318,31,04,05,,,10,16,181,19,14,73,355,40*42
$GPGSV,4,2,15,16,19,216,28,22,22,300,33,25,34,041,36,26,47,223,32*7D
$GPGSV,4,3,15,29,29,096,30,31,57,330,37,32,67,111,37*47
$GPGSV,4,4,15,03,11,318,27,25,34,041,40,26,47,223,26,32,05,,35,8*56
$GLGSV,3,1,10,67,,157,,68,51,177,,69,68,304,38,70,12,330,28*6C
$GLGSV,3,2,10,73,05,,,78,25,034,34,79,57,332,39,80,28,259,31*56
$GLGSV,3,3,10,81,03,116,,87,01,032,*67
$BDGSV,3,1,12,201,48,147,,202,35,235,,203,50,200,,204,34,123,*61
$BDGSV,3,2,12,205,14,254,,206,80,083,34,207,72,225,35,209,65,330,35*66
$BDGSV,3,3,12,210,42,226,29,216,82,056,,219,60,264,36,228,08,062,25*65
$BDGSV,4,4,13,219,,,,7*4B
$QZGSV,2,1,05,193,05,,,194,73,045,39,195,29,144,22*59
$QZGSV,2,2,05,194,73,045,33,195,29,144,19,8*72
$GAGSV,3,1,10,101,14,235,31,107,27,144,15,119,47,314,32,121,56,255,*60
$GAGSV,3,2,10,125,05,,,127,59,020,,131,05,,*67
$GAGSV,3,3,10,101,14,235,24,107,27,144,17,119,47,314,32,1*7A
$GPRMC,084102.00,A,3117.103373,N,12129.858150,E,000.4,321.9,081219,,E,A*13
$GPGGA,084103.00,3117.103526,N,12129.857511,E,1,20,0.7,15.5,M,,M,,*49
$GNGSA,A,3,3,10,14,16,22,25,26,29,31,32,202,203,1.2,0.7,1.0*13
$GPGSA,A,3,3,10,14,16,22,25,26,29,31,32,,,1.2,0.7,1.0*0C
$GPGSA,A,3,3,25,26,32,,,,,,,,,1.2,0.7,1.0,8*12
$GLGSA,A,3,69,70,78,79,80,,,,,,,,1.2,0.7,1.0*2A
$BDGSA,A,3,202,203,204,205,206,207,209,210,216,219,228,,1.2,0.7,1.0*18
$BDGSA,A,3,207,,,,,,,,,,,,1.2,0.7,1.0,7*08
$GAGSA,A,3,101,107,119,,,,,,,,,,1.2,0.7,1.0*19
$GAGSA,A,3,101,107,119,,,,,,,,,,1.2,0.7,1.0,1*04
$QZGSA,A,3,194,195,,,,,,,,,,,1.2,0.7,1.0*2A
$PJGSA,A,3,194,195,,,,,,,,,,,1.2,0.7,1.0*3B
$GPGSV,4,1,15,03,11,318,28,04,05,,,10,16,181,20,14,73,355,40*40
$GPGSV,4,2,15,16,19,216,30,22,22,300,35,25,34,041,37,26,47,223,33*72
$GPGSV,4,3,15,29,29,096,30,31,57,330,34,32,67,111,35*46
$GPGSV,4,4,15,03,11,318,21,25,34,041,41,26,47,223,28,32,05,,32,8*58
$GLGSV,3,1,10,67,,157,,68,51,177,,69,68,304,42,70,12,330,28*61
$GLGSV,3,2,10,73,05,,,78,25,034,34,79,57,332,35,80,28,259,26*5C
$GLGSV,3,3,10,81,04,116,,87,01,032,*60
$BDGSV,3,1,12,201,48,147,,202,35,235,32,203,50,200,33,204,34,123,35*66
$BDGSV,3,2,12,205,14,254,31,206,80,083,35,207,72,225,34,209,65,330,32*63
$BDGSV,3,3,12,210,42,226,31,216,82,056,37,219,60,264,36,228,08,062,25*68
$BDGSV,4,4,13,207,,,,7*44
$QZGSV,2,1,05,193,05,,,194,73,045,39,195,29,144,22*59
$QZGSV,2,2,05,194,73,045,31,195,29,144,19,8*70
$GAGSV,3,1,10,101,14,235,30,107,27,144,16,119,47,314,31,121,56,255,*61
$GAGSV,3,2,10,125,05,,,127,59,020,,131,05,,*67
$GAGSV,3,3,10,101,14,235,23,107,27,144,17,119,47,314,32,1*7D
$GPRMC,084103.00,A,3117.103526,N,12129.857511,E,000.9,296.9,081219,,E,A*1A
$GPGGA,084104.00,3117.103956,N,12129.856873,E,1,22,0.7,15.2,M,,M,,*48
$GNGSA,A,3,3,10,14,16,22,25,26,29,31,32,202,203,1.2,0.7,1.0*13
$GPGSA,A,3,3,10,14,16,22,25,26,29,31,32,,,1.2,0.7,1.0*0C
$GPGSA,A,3,3,25,26,32,,,,,,,,,1.2,0.7,1.0,8*12
$GLGSA,A,3,69,70,78,79,80,,,,,,,,1.2,0.7,1.0*2A
$BDGSA,A,3,202,203,204,205,206,207,209,210,216,219,228,,1.2,0.7,1.0*18
$BDGSA,A,3,228,,,,,,,,,,,,1.2,0.7,1.0,7*05
$GAGSA,A,3,101,107,119,121,,,,,,,,,1.2,0.7,1.0*2B
$GAGSA,A,3,101,107,119,121,,,,,,,,,1.2,0.7,1.0,1*36
$QZGSA,A,3,194,195,,,,,,,,,,,1.2,0.7,1.0*2A
$PJGSA,A,3,194,195,,,,,,,,,,,1.2,0.7,1.0*3B
$GPGSV,4,1,15,03,11,318,30,04,05,,,10,16,181,20,14,73,355,36*48
$GPGSV,4,2,15,16,19,216,30,22,22,300,37,25,34,041,33,26,47,223,33*74
$GPGSV,4,3,15,29,29,096,32,31,57,330,34,32,67,111,39*48
$GPGSV,4,4,15,03,11,318,25,25,34,041,36,26,47,223,30,32,05,,32,8*55
$GLGSV,3,1,10,67,,157,,68,51,177,,69,68,304,38,70,12,330,32*67
$GLGSV,3,2,10,73,05,,,78,25,034,34,79,57,332,36,80,28,259,27*5E
$GLGSV,3,3,10,81,04,116,,87,01,032,*60
$BDGSV,3,1,12,201,48,147,,202,35,235,30,203,50,200,35,204,34,123,34*63
$BDGSV,3,2,12,205,14,254,27,206,80,083,35,207,72,225,35,209,65,330,32*65
$BDGSV,3,3,12,210,42,226,29,216,82,056,27,219,60,264,35,228,08,062,23*65
$BDGSV,4,4,13,228,,,,7*49
$QZGSV,2,1,05,193,05,,,194,73,045,38,195,29,144,22*58
$QZGSV,2,2,05,194,73,045,32,195,29,144,19,8*73
$GAGSV,3,1,11,101,14,235,30,107,27,144,15,119,47,314,33,121,56,255,36*64
$GAGSV,3,2,11,125,05,,,127,59,020,,131,05,,*66
$GAGSV,3,3,11,101,14,235,27,107,27,144,17,119,47,314,30,121,05,,,1*4D
$GPRMC,084104.00,A,3117.103956,N,12129.856873,E,001.7,296.3,081219,,E,A*1B
$GPGGA,084105.00,3117.104191,N,12129.856369,E,1,22,0.6,14.7,M,,M,,*48
$GNGSA,A,3,3,10,14,16,22,25,26,29,31,32,202,203,1.2,0.6,1.0*12
$GPGSA,A,3,3,10,14,16,22,25,26,29,31,32,,,1.2,0.6,1.0*0D
$GPGSA,A,3,3,10,25,26,32,,,,,,,,1.2,0.6,1.0,8*12
$GLGSA,A,3,69,70,78,79,80,,,,,,,,1.2,0.6,1.0*2B
$BDGSA,A,3,202,203,204,205,206,207,209,210,216,219,228,,1.2,0.6,1.0*19
$BDGSA,A,3,228,,,,,,,,,,,,1.2,0.6,1.0,7*04
$GAGSA,A,3,101,107,119,121,127,,,,,,,,1.2,0.6,1.0*1E
$GAGSA,A,3,101,107,119,121,127,,,,,,,,1.2,0.6,1.0,1*03
$QZGSA,A,3,193,194,195,,,,,,,,,,1.2,0.6,1.0*10
$PJGSA,A,3,194,195,,,,,,,,,,,1.2,0.6,1.0*3A
$GPGSV,5,1,16,03,11,318,30,04,05,,,10,16,181,21,14,73,355,37*4A
$GPGSV,5,2,16,16,19,216,30,22,22,300,39,25,34,041,33,26,47,223,37*7C
$GPGSV,5,3,16,29,29,096,31,31,57,330,35,32,67,111,35*44
$GPGSV,5,4,16,03,11,318,26,10,16,181,20,25,34,041,35,26,47,223,30,8*6E
$GPGSV,5,5,16,32,05,,33,8*6E
$GLGSV,3,1,10,67,,157,,68,51,177,,69,68,304,41,70,12,330,26*6C
$GLGSV,3,2,10,73,05,,,78,25,034,32,79,57,332,33,80,28,259,26*5C
$GLGSV,3,3,10,81,04,116,,87,01,032,*60
$BDGSV,3,1,12,201,48,147,,202,35,235,26,203,50,200,29,204,34,123,32*6F
$BDGSV,3,2,12,205,14,254,24,206,80,083,36,207,72,225,35,209,65,330,35*62
$BDGSV,3,3,12,210,42,226,32,216,82,056,37,219,60,264,32,228,08,062,21*6B
$BDGSV,4,4,13,228,,,09,7*40
$QZGSV,2,1,05,193,05,,32,194,73,045,37,195,29,144,22*56
$QZGSV,2,2,05,194,73,045,30,195,29,144,20,8*7B
$GAGSV,4,1,12,101,14,235,31,107,27,144,14,119,47,314,26,121,56,255,26*65
$GAGSV,4,2,12,125,05,,,127,59,020,35,131,05,,*64
$GAGSV,4,3,12,101,14,235,24,107,27,144,18,119,47,314,31,121,05,,,1*44
$GAGSV,4,4,12,127,05,,,1*47
$GPRMC,084105.00,A,3117.104191,N,12129.856369,E,002.2,297.1,081219,,E,A*1B
$GPGGA,084106.00,3117.104978,N,12129.854849,E,1,22,0.6,14.3,M,,M,,*4B
$GNGSA,A,3,3,4,10,14,16,22,25,26,29,31,32,202,1.2,0.6,1.0*17
$GPGSA,A,3,3,4,10,14,16,22,25,26,29,31,32,,1.2,0.6,1.0*39
$GPGSA,A,3,3,10,25,26,32,,,,,,,,1.2,0.6,1.0,8*12
$GLGSA,A,3,69,70,78,79,80,,,,,,,,1.2,0.6,1.0*2B
$BDGSA,A,3,202,203,204,205,206,207,209,210,216,219,228,,1.2,0.6,1.0*19
$BDGSA,A,3,228,,,,,,,,,,,,1.2,0.6,1.0,7*04
$GAGSA,A,3,101,107,119,121,127,,,,,,,,1.2,0.6,1.0*1E
$GAGSA,A,3,101,107,119,121,127,,,,,,,,1.2,0.6,1.0,1*03
$QZGSA,A,3,193,194,195,,,,,,,,,,1.2,0.6,1.0*10
$PJGSA,A,3,194,195,,,,,,,,,,,1.2,0.6,1.0*3A
$GPGSV,5,1,16,03,11,318,28,04,05,,09,10,16,181,24,14,73,355,37*4F
$GPGSV,5,2,16,16,19,216,30,22,22,300,32,25,34,041,30,26,47,223,36*75
$GPGSV,5,3,16,29,29,096,29,31,57,330,38,32,67,111,38*4D
$GPGSV,5,4,16,03,11,318,22,10,16,181,18,25,34,041,30,26,47,223,32,8*66
$GPGSV,5,5,16,32,05,,32,8*6F
$GLGSV,3,1,10,67,,157,,68,51,177,,69,68,304,38,70,12,330,26*62
$GLGSV,3,2,10,73,05,,,78,25,034,28,79,57,332,36,80,28,259,29*5D
$GLGSV,3,3,10,81,04,116,,87,01,032,*60
$BDGSV,3,1,12,201,48,147,,202,35,235,28,203,50,200,29,204,34,123,32*61
$BDGSV,3,2,12,205,14,254,27,206,80,083,34,207,72,225,32,209,65,330,35*64
$BDGSV,3,3,12,210,42,226,30,216,82,056,35,219,60,264,34,228,08,062,24*68
$BDGSV,4,4,13,228,,,09,7*40
$QZGSV,2,1,05,193,05,,27,194,73,045,33,195,29,144,26*52
$QZGSV,2,2,05,194,73,045,31,195,29,144,20,8*7A
$GAGSV,4,1,12,101,14,235,34,107,27,144,14,119,47,314,27,121,56,255,33*65
$GAGSV,4,2,12,125,05,,,127,59,020,21,131,05,,*61
$GAGSV,4,3,12,101,14,235,27,107,27,144,18,119,47,314,29,121,05,,33,1*4E
$GAGSV,4,4,12,127,05,,30,1*44
$GPRMC,084106.00,A,3117.104978,N,12129.854849,E,002.0,297.0,081219,,E,A*1F
$GPGGA,084107.00,3117.105354,N,12129.853949,E,1,20,0.7,14.4,M,,M,,*4D
$GNGSA,A,3,3,4,10,14,16,22,25,26,29,31,32,202,1.3,0.7,1.1*16
$GPGSA,A,3,3,4,10,14,16,22,25,26,29,31,32,,1.3,0.7,1.1*38
$GPGSA,A,3,3,10,25,26,32,,,,,,,,1.3,0.7,1.1,8*13
$GLGSA,A,3,69,70,78,79,80,,,,,,,,1.3,0.7,1.1*2A
$BDGSA,A,3,202,203,204,205,206,207,209,210,216,219,228,,1.3,0.7,1.1*18
$BDGSA,A,3,228,,,,,,,,,,,,1.3,0.7,1.1,7*05
$GAGSA,A,3,101,107,119,121,127,,,,,,,,1.3,0.7,1.1*1F
$GAGSA,A,3,101,107,119,121,127,,,,,,,,1.3,0.7,1.1,1*02
$QZGSA,A,3,193,194,195,,,,,,,,,,1.3,0.7,1.1*11
$PJGSA,A,3,194,195,,,,,,,,,,,1.3,0.7,1.1*3B
$GPGSV,5,1,16,03,11,318,29,04,05,,09,10,16,181,25,14,73,355,33*4B
$GPGSV,5,2,16,16,19,216,30,22,22,300,29,25,34,041,34,26,47,223,40*7A
$GPGSV,5,3,16,29,29,096,30,31,57,330,37,32,67,111,39*4B
$GPGSV,5,4,16,03,11,318,21,10,16,181,17,25,34,041,36,26,47,223,33,8*6D
$GPGSV,5,5,16,32,05,,36,8*6B
$GLGSV,3,1,10,67,,157,,68,51,177,,69,68,304,40,70,12,330,24*6F
$GLGSV,3,2,10,73,05,,,78,25,034,30,79,57,332,34,80,28,259,28*57
$GLGSV,3,3,10,81,04,116,,87,01,032,*60
$BDGSV,3,1,12,201,48,147,,202,35,235,27,203,50,200,27,204,34,123,24*67
$BDGSV,3,2,12,205,14,254,19,206,80,083,34,207,72,225,29,209,65,330,34*62
$BDGSV,3,3,12,210,42,226,30,216,82,056,35,219,60,264,35,228,08,062,26*6B
$BDGSV,4,4,13,228,,,09,7*40
$QZGSV,2,1,05,193,05,,30,194,73,045,29,195,29,144,25*5C
$QZGSV,2,2,05,194,73,045,35,195,29,144,20,8*7E
$GAGSV,4,1,12,101,14,235,28,107,27,144,16,119,47,314,27,121,56,255,27*6F
$GAGSV,4,2,12,125,05,,,127,59,020,25,131,05,,*65
$GAGSV,4,3,12,101,14,235,25,107,27,144,18,119,47,314,29,121,05,,32,1*4D
$GAGSV,4,4,12,127,05,,26,1*43
$GPRMC,084107.00,A,3117.105354,N,12129.853949,E,002.3,295.4,081219,,E,A*18
$GPGGA,084108.00,3117.105678,N,12129.853276,E,1,20,0.7,14.6,M,,M,,*4C
$GNGSA,A,3,3,4,10,14,16,22,25,26,29,31,32,202,1.3,0.7,1.1*16
$GPGSA,A,3,3,4,10,14,16,22,25,26,29,31,32,,1.3,0.7,1.1*38
$GPGSA,A,3,3,10,25,26,32,,,,,,,,1.3,0.7,1.1,8*13
$GLGSA,A,3,69,70,78,79,80,,,,,,,,1.3,0.7,1.1*2A
$BDGSA,A,3,202,203,204,205,206,207,209,210,216,219,228,,1.3,0.7,1.1*18
$BDGSA,A,3,228,,,,,,,,,,,,1.3,0.7,1.1,7*05
$GAGSA,A,3,101,107,119,121,127,,,,,,,,1.3,0.7,1.1*1F
$GAGSA,A,3,101,107,119,121,127,,,,,,,,1.3,0.7,1.1,1*02
$QZGSA,A,3,193,194,195,,,,,,,,,,1.3,0.7,1.1*11
$PJGSA,A,3,194,195,,,,,,,,,,,1.3,0.7,1.1*3B
$GPGSV,5,1,16,03,11,318,28,04,05,,09,10,16,181,26,14,73,355,39*43
$GPGSV,5,2,16,16,19,216,27,22,22,300,30,25,34,041,33,26,47,223,34*70
$GPGSV,5,3,16,29,29,096,30,31,57,330,37,32,67,111,36*44
$GPGSV,5,4,16,03,11,318,22,10,16,181,19,25,34,041,30,26,47,223,24,8*60
$GPGSV,5,5,16,32,05,,29,8*65
$GLGSV,3,1,10,67,,157,,68,51,177,,69,68,304,40,70,12,330,25*6E
$GLGSV,3,2,10,73,05,,,78,25,034,29,79,57,332,34,80,28,259,25*52
$GLGSV,3,3,10,81,04,116,,87,01,032,*60
$BDGSV,3,1,12,201,48,147,,202,35,235,27,203,50,200,29,204,34,123,24*69
$BDGSV,3,2,12,205,14,254,20,206,80,083,35,207,72,225,31,209,65,330,36*62
$BDGSV,3,3,12,210,42,226,27,216,82,056,37,219,60,264,38,228,08,062,24*60
$BDGSV,4,4,13,228,,,09,7*40
$QZGSV,2,1,05,193,05,,26,194,73,045,34,195,29,144,24*56
$QZGSV,2,2,05,194,73,045,29,195,29,144,19,8*79
$GAGSV,4,1,12,101,14,235,24,107,27,144,15,119,47,314,29,121,56,255,38*60
$GAGSV,4,2,12,125,05,,,127,59,020,30,131,05,,*61
$GAGSV,4,3,12,101,14,235,24,107,27,144,18,119,47,314,24,121,05,,29,1*4B
$GAGSV,4,4,12,127,05,,26,1*43
$GPRMC,084108.00,A,3117.105678,N,12129.853276,E,002.5,294.9,081219,,E,A*11
$GPGGA,084109.00,3117.106147,N,12129.852519,E,1,20,0.7,15.1,M,,M,,*4C
$GNGSA,A,3,3,4,10,14,16,22,25,26,29,31,32,202,1.2,0.7,1.0*16
$GPGSA,A,3,3,4,10,14,16,22,25,26,29,31,32,,1.2,0.7,1.0*38
$GPGSA,A,3,3,10,25,26,32,,,,,,,,1.2,0.7,1.0,8*13
$GLGSA,A,3,69,70,78,79,80,,,,,,,,1.2,0.7,1.0*2A
$BDGSA,A,3,202,203,204,205,206,207,209,210,216,219,228,,1.2,0.7,1.0*18
$BDGSA,A,3,228,,,,,,,,,,,,1.2,0.7,1.0,7*05
$GAGSA,A,3,101,107,119,121,127,,,,,,,,1.2,0.7,1.0*1F
$GAGSA,A,3,101,107,119,121,127,,,,,,,,1.2,0.7,1.0,1*02
$QZGSA,A,3,193,194,195,,,,,,,,,,1.2,0.7,1.0*11
$PJGSA,A,3,193,194,195,,,,,,,,,,1.2,0.7,1.0*00
$GPGSV,5,1,16,03,11,318,27,04,05,,09,10,16,181,24,14,73,355,33*44
$GPGSV,5,2,16,16,19,216,25,22,22,300,31,25,34,041,31,26,47,223,34*71
$GPGSV,5,3,16,29,29,096,30,31,57,330,42,32,67,111,32*42
$GPGSV,5,4,16,03,11,318,23,10,16,181,20,25,34,041,31,26,47,223,25,8*6B
$GPGSV,5,5,16,32,05,,26,8*6A
$GLGSV,3,1,10,67,,157,,68,51,177,,69,68,303,41,70,12,330,23*6E
$GLGSV,3,2,10,73,05,,,78,25,034,32,79,57,332,38,80,28,259,26*57
$GLGSV,3,3,10,81,04,116,,87,01,032,*60
$BDGSV,3,1,12,201,48,147,,202,35,235,27,203,50,200,29,204,34,123,19*67
$BDGSV,3,2,12,205,14,254,20,206,80,083,31,207,72,225,27,209,65,330,33*64
$BDGSV,3,3,12,210,42,226,26,216,82,056,31,219,60,264,37,228,08,062,25*69
$BDGSV,4,4,13,228,,,09,7*40
$QZGSV,2,1,06,193,05,,24,194,73,045,32,195,29,144,23*56
$QZGSV,2,2,06,193,,,18,194,73,045,29,195,29,144,19,8*48
$GAGSV,4,1,12,101,14,235,28,107,27,144,16,119,47,314,31,121,56,255,35*6B
$GAGSV,4,2,12,125,05,,,127,59,020,31,131,05,,*60
$GAGSV,4,3,12,101,14,235,27,107,27,144,17,119,47,314,25,121,05,,27,1*48
$GAGSV,4,4,12,127,05,,30,1*44
$GPRMC,084109.00,A,3117.106147,N,12129.852519,E,002.2,295.1,081219,,E,A*19
$GPGGA,084110.00,3117.106382,N,12129.851988,E,1,20,0.7,15.2,M,,M,,*4B
$GNGSA,A,3,3,4,10,14,16,22,25,26,29,31,32,202,1.2,0.7,1.0*16
$GPGSA,A,3,3,4,10,14,16,22,25,26,29,31,32,,1.2,0.7,1.0*38
$GPGSA,A,3,3,10,25,26,32,,,,,,,,1.2,0.7,1.0,8*13
$GLGSA,A,3,69,70,78,79,80,81,,,,,,,1.2,0.7,1.0*23
$BDGSA,A,3,202,203,204,205,206,207,209,210,216,219,228,,1.2,0.7,1.0*18
$BDGSA,A,3,219,,,,,,,,,,,,1.2,0.7,1.0,7*07
$GAGSA,A,3,101,107,119,121,127,,,,,,,,1.2,0.7,1.0*1F
$GAGSA,A,3,101,107,119,121,127,,,,,,,,1.2,0.7,1.0,1*02
$QZGSA,A,3,193,194,195,,,,,,,,,,1.2,0.7,1.0*11
$PJGSA,A,3,193,194,195,,,,,,,,,,1.2,0.7,1.0*00
$GPGSV,5,1,16,03,11,318,25,04,05,,09,10,16,181,31,14,73,355,34*45
$GPGSV,5,2,16,16,19,216,26,22,22,300,35,25,34,041,27,26,47,223,33*76
$GPGSV,5,3,16,29,29,096,28,31,57,330,36,32,67,111,30*4A
$GPGSV,5,4,16,03,11,318,23,10,16,181,24,25,34,041,34,26,47,223,31,8*6F
$GPGSV,5,5,16,32,05,,31,8*6C
$GLGSV,3,1,10,67,,157,,68,51,177,,69,68,303,36,70,12,330,18*66
$GLGSV,3,2,10,73,05,,,78,25,034,30,79,57,332,39,80,28,259,25*57
$GLGSV,3,3,10,81,04,116,19,87,01,032,*68
$BDGSV,3,1,12,201,48,147,,202,35,235,24,203,50,200,22,204,34,123,21*64
$BDGSV,3,2,12,205,14,254,25,206,80,083,28,207,72,225,29,209,65,330,32*66
$BDGSV,3,3,12,210,42,226,26,216,82,056,32,219,60,264,40,228,08,062,23*6C
$BDGSV,4,4,13,219,,,,7*4B
$QZGSV,2,1,06,193,05,,25,194,73,045,26,195,29,144,21*50
$QZGSV,2,2,06,193,,,20,194,73,045,30,195,29,144,19,8*4B
$GAGSV,4,1,12,101,14,235,25,107,27,144,16,119,47,314,36,121,56,255,36*62
$GAGSV,4,2,12,125,05,,,127,59,020,31,131,05,,*60
$GAGSV,4,3,12,101,14,235,26,107,27,144,17,119,47,314,31,121,05,,33,1*49
$GAGSV,4,4,12,127,05,,31,1*45
$GPRMC,084110.00,A,3117.106382,N,12129.851988,E,002.4,294.2,081219,,E,A*19
$GPGGA,084111.00,3117.106845,N,12129.851420,E,1,20,0.7,15.3,M,,M,,*44
$GNGSA,A,3,3,4,10,14,16,22,25,26,29,31,32,201,1.2,0.7,1.0*15
$GPGSA,A,3,3,4,10,14,16,22,25,26,29,31,32,,1.2,0.7,1.0*38
$GPGSA,A,3,3,10,25,26,32,,,,,,,,1.2,0.7,1.0,8*13
$GLGSA,A,3,69,70,78,79,80,81,,,,,,,1.2,0.7,1.0*23
$BDGSA,A,3,201,202,203,204,205,206,207,209,210,216,219,228,1.2,0.7,1.0*2B
$BDGSA,A,3,219,,,,,,,,,,,,1.2,0.7,1.0,7*07
$GAGSA,A,3,101,107,119,121,127,,,,,,,,1.2,0.7,1.0*1F
$GAGSA,A,3,101,107,119,121,127,,,,,,,,1.2,0.7,1.0,1*02
$QZGSA,A,3,193,194,195,,,,,,,,,,1.2,0.7,1.0*11
$PJGSA,A,3,193,194,195,,,,,,,,,,1.2,0.7,1.0*00
$GPGSV,5,1,16,03,11,318,26,04,05,,09,10,16,181,34,14,73,355,33*44
$GPGSV,5,2,16,16,19,216,28,22,22,299,30,25,34,041,28,26,47,223,37*77
$GPGSV,5,3,16,29,29,096,27,31,57,330,40,32,67,111,31*45
$GPGSV,5,4,16,03,11,318,25,10,16,181,26,25,34,041,38,26,47,223,29,8*6E
$GPGSV,5,5,16,32,05,,30,8*6D
$GLGSV,3,1,09,67,,157,,69,68,303,38,70,12,330,20,78,25,034,32*6E
$GLGSV,3,2,09,79,57,332,36,80,28,259,29,81,04,116,19,87,01,032,*6D
$GLGSV,3,3,09,88,10,075,*5F
$BDGSV,3,1,12,201,48,147,29,202,35,235,21,203,50,200,21,204,34,123,21*69
$BDGSV,3,2,12,205,14,254,24,206,80,083,33,207,72,225,30,209,65,330,34*63
$BDGSV,3,3,12,210,42,226,29,216,82,056,34,219,60,264,38,228,08,062,21*68
$BDGSV,4,4,13,219,,,,7*4B
$QZGSV,2,1,06,193,05,,25,194,73,045,29,195,29,144,23*5D
$QZGSV,2,2,06,193,,,24,194,73,045,28,195,29,144,19,8*46
$GAGSV,4,1,12,101,14,235,27,107,27,144,15,119,47,314,32,121,56,255,40*66
$GAGSV,4,2,12,125,05,,,127,59,020,29,131,05,,*69
$GAGSV,4,3,12,101,14,235,27,107,27,144,16,119,47,314,28,121,05,,34,1*46
$GAGSV,4,4,12,127,05,,29,1*4C
$GPRMC,084111.00,A,3117.106845,N,12129.851420,E,002.6,295.8,081219,,E,A*1E
$GPGGA,084112.00,3117.107115,N,12129.850943,E,1,20,0.7,15.5,M,,M,,*45
$GNGSA,A,3,3,10,14,16,22,25,26,29,31,32,201,202,1.2,0.7,1.0*11
$GPGSA,A,3,3,10,14,16,22,25,26,29,31,32,,,1.2,0.7,1.0*0C
$GPGSA,A,3,3,10,25,26,32,,,,,,,,1.2,0.7,1.0,8*13
$GLGSA,A,3,69,70,78,79,80,81,,,,,,,1.2,0.7,1.0*23
$BDGSA,A,3,201,202,203,204,205,206,207,209,210,216,219,228,1.2,0.7,1.0*2B
$BDGSA,A,3,228,,,,,,,,,,,,1.2,0.7,1.0,7*05
$GAGSA,A,3,101,107,119,121,127,,,,,,,,1.2,0.7,1.0*1F
$GAGSA,A,3,101,107,119,121,127,,,,,,,,1.2,0.7,1.0,1*02
$QZGSA,A,3,193,194,195,,,,,,,,,,1.2,0.7,1.0*11
$PJGSA,A,3,193,194,195,,,,,,,,,,1.2,0.7,1.0*00
$GPGSV,5,1,15,03,11,318,26,10,16,181,26,14,73,355,33,16,19,216,31*74
$GPGSV,5,2,15,22,22,299,31,25,34,041,32,26,47,223,32,29,29,096,26*70
$GPGSV,5,3,15,31,57,330,40,32,67,111,31*7C
$GPGSV,5,4,15,03,11,318,22,10,16,181,21,25,34,041,35,26,47,223,30,8*68
$GPGSV,5,5,15,32,05,,31,8*6F
$GLGSV,3,1,10,67,,157,,68,51,177,,69,68,303,39,70,12,330,21*63
$GLGSV,3,2,10,78,25,034,33,79,57,332,37,80,28,259,23,81,04,116,14*63
$GLGSV,3,3,10,87,01,032,,88,10,075,*68
$BDGSV,3,1,12,201,48,147,28,202,35,235,24,203,50,200,26,204,34,123,23*68
$BDGSV,3,2,12,205,14,254,23,206,80,083,30,207,72,225,32,209,65,330,36*67
$BDGSV,3,3,12,210,42,226,28,216,82,056,33,219,60,264,37,228,08,062,21*61
$BDGSV,4,4,13,228,,,,7*49
$QZGSV,2,1,06,193,05,,25,194,73,045,29,195,29,144,22*5C
$QZGSV,2,2,06,193,,,24,194,73,045,30,195,29,144,19,8*4F
$GAGSV,4,1,12,101,14,235,26,107,27,144,13,119,47,314,32,121,56,255,38*6E
$GAGSV,4,2,12,125,05,,,127,59,020,31,131,05,,*60
$GAGSV,4,3,12,101,14,235,28,107,27,144,17,119,47,314,29,121,05,,32,1*4F
$GAGSV,4,4,12,127,05,,30,1*44
$GPRMC,084112.00,A,3117.107115,N,12129.850943,E,002.3,295.3,081219,,E,A*17
$GPGGA,084113.00,3117.107411,N,12129.850418,E,1,19,0.8,15.5,M,,M,,*43
$GNGSA,A,3,3,10,14,16,22,25,26,29,31,32,201,202,1.3,0.8,1.0*1F
$GPGSA,A,3,3,10,14,16,22,25,26,29,31,32,,,1.3,0.8,1.0*02
$GPGSA,A,3,3,10,25,26,32,,,,,,,,1.3,0.8,1.0,8*1D
$GLGSA,A,3,69,70,78,79,80,81,,,,,,,1.3,0.8,1.0*2D
$BDGSA,A,3,201,202,203,204,205,206,207,209,210,216,219,228,1.3,0.8,1.0*25
$BDGSA,A,3,209,,,,,,,,,,,,1.3,0.8,1.0,7*08
$GAGSA,A,3,101,107,119,121,127,,,,,,,,1.3,0.8,1.0*11
$GAGSA,A,3,101,107,119,121,127,,,,,,,,1.3,0.8,1.0,1*0C
$QZGSA,A,3,193,194,195,,,,,,,,,,1.3,0.8,1.0*1F
$PJGSA,A,3,193,194,195,,,,,,,,,,1.3,0.8,1.0*0E
$GPGSV,5,1,16,03,11,318,23,04,05,,,10,16,181,23,14,73,355,31*4C
$GPGSV,5,2,16,16,19,216,30,22,22,299,26,25,34,041,30,26,47,223,32*75
$GPGSV,5,3,16,29,29,096,27,31,57,330,40,32,67,111,29*4C
$GPGSV,5,4,16,03,11,318,23,10,16,181,20,25,34,041,29,26,47,223,29,8*6E
$GPGSV,5,5,16,32,05,,29,8*65
$GLGSV,3,1,10,67,,157,,68,51,177,,69,68,303,37,70,12,330,21*6D
$GLGSV,3,2,10,78,25,034,28,79,57,332,38,80,28,259,26,81,04,116,09*6F
$GLGSV,3,3,10,87,01,032,,88,10,075,*68
$BDGSV,3,1,12,201,48,147,21,202,35,235,23,203,50,200,21,204,34,123,20*62
$BDGSV,3,2,12,205,14,254,14,206,80,084,31,207,72,225,31,209,65,330,33*63
$BDGSV,3,3,12,210,42,226,25,216,82,057,32,219,60,264,37,228,08,062,18*66
$BDGSV,4,4,13,209,,,,7*4A
$QZGSV,2,1,06,193,05,,25,194,73,045,28,195,29,144,20*5F
$QZGSV,2,2,06,193,,,22,194,73,045,28,195,29,144,19,8*40
$GAGSV,4,1,12,101,14,235,24,107,27,144,12,119,47,314,33,121,56,255,32*66
$GAGSV,4,2,12,125,05,,,127,59,020,27,131,05,,*67
$GAGSV,4,3,12,101,14,235,26,107,27,144,16,119,47,314,31,121,05,,33,1*48
$GAGSV,4,4,12,127,05,,31,1*45
$GPRMC,084113.00,A,3117.107411,N,12129.850418,E,002.3,296.9,081219,,E,A*1D
$GPGGA,084114.00,3117.107816,N,12129.849416,E,1,20,0.7,15.7,M,,M,,*4E
$GNGSA,A,3,3,10,14,16,22,25,26,29,31,32,201,202,1.2,0.7,1.0*11
$GPGSA,A,3,3,10,14,16,22,25,26,29,31,32,,,1.2,0.7,1.0*0C
$GPGSA,A,3,3,10,25,26,32,,,,,,,,1.2,0.7,1.0,8*13
$GLGSA,A,3,69,70,78,79,80,81,,,,,,,1.2,0.7,1.0*23
$BDGSA,A,3,201,202,203,205,206,207,209,210,216,219,228,,1.2,0.7,1.0*1D
$BDGSA,A,3,219,,,,,,,,,,,,1.2,0.7,1.0,7*07
$GAGSA,A,3,101,107,119,121,127,,,,,,,,1.2,0.7,1.0*1F
$GAGSA,A,3,101,107,119,121,127,,,,,,,,1.2,0.7,1.0,1*02
$QZGSA,A,3,193,194,195,,,,,,,,,,1.2,0.7,1.0*11
$PJGSA,A,3,193,194,195,,,,,,,,,,1.2,0.7,1.0*00
$GPGSV,5,1,16,03,11,318,24,04,05,,,10,16,181,24,14,73,355,33*4E
$GPGSV,5,2,16,16,19,216,27,22,22,299,27,25,34,041,27,26,47,223,35*73
$GPGSV,5,3,16,29,29,096,27,31,57,330,41,32,67,111,31*44
$GPGSV,5,4,16,03,11,318,22,10,16,181,21,25,34,041,34,26,47,223,29,8*62
$GPGSV,5,5,16,32,05,,26,8*6A
$GLGSV,3,1,10,67,,157,,68,51,177,,69,68,303,36,70,12,330,20*6D
$GLGSV,3,2,10,78,25,034,30,79,57,332,39,80,28,259,29,81,04,116,11*61
$GLGSV,3,3,10,87,01,032,,88,10,075,*68
$BDGSV,3,1,12,201,48,147,21,202,35,235,21,203,50,200,23,204,34,123,*60
$BDGSV,3,2,12,205,14,254,19,206,80,084,30,207,72,225,31,209,65,330,37*6B
$BDGSV,3,3,12,210,42,226,29,216,82,057,32,219,60,263,32,228,08,062,20*63
$BDGSV,4,4,13,219,,,,7*4B
$QZGSV,2,1,06,193,05,,25,194,73,045,28,195,29,144,20*5F
$QZGSV,2,2,06,193,,,24,194,73,045,27,195,29,144,18,8*48
$GAGSV,4,1,12,101,14,235,26,107,27,144,12,119,47,314,30,121,56,255,32*67
$GAGSV,4,2,12,125,05,,,127,59,020,31,131,05,,*60
$GAGSV,4,3,12,101,14,235,26,107,27,144,17,119,47,314,28,121,05,,31,1*43
$GAGSV,4,4,12,127,05,,29,1*4C
$GPRMC,084114.00,A,3117.107816,N,12129.849416,E,002.9,294.0,081219,,E,A*16
$GPGGA,084115.00,3117.108221,N,12129.848464,E,1,19,0.8,16.0,M,,M,,*4B
$GNGSA,A,3,3,10,14,16,22,25,26,29,31,32,201,202,1.3,0.8,1.0*1F
$GPGSA,A,3,3,10,14,16,22,25,26,29,31,32,,,1.3,0.8,1.0*02
$GPGSA,A,3,3,10,25,26,32,,,,,,,,1.3,0.8,1.0,8*1D
$GLGSA,A,3,69,70,78,79,80,81,,,,,,,1.3,0.8,1.0*2D
$BDGSA,A,3,201,202,203,205,206,207,209,210,216,219,228,,1.3,0.8,1.0*13
$BDGSA,A,3,209,,,,,,,,,,,,1.3,0.8,1.0,7*08
$GAGSA,A,3,101,107,119,121,127,,,,,,,,1.3,0.8,1.0*11
$GAGSA,A,3,101,107,119,121,127,,,,,,,,1.3,0.8,1.0,1*0C
$QZGSA,A,3,193,194,195,,,,,,,,,,1.3,0.8,1.0*1F
$PJGSA,A,3,193,194,195,,,,,,,,,,1.3,0.8,1.0*0E
$GPGSV,5,1,16,03,11,318,26,04,05,,,10,16,181,22,14,73,355,35*4C
$GPGSV,5,2,16,16,19,216,28,22,22,299,31,25,34,041,28,26,47,223,34*75
$GPGSV,5,3,16,29,29,096,29,31,57,330,39,32,67,111,31*45
$GPGSV,5,4,16,03,11,318,25,10,16,181,20,25,34,041,36,26,47,223,31,8*6F
$GPGSV,5,5,16,32,05,,30,8*6D
$GLGSV,3,1,10,67,,157,,68,51,177,,69,68,303,37,70,12,330,20*6C
$GLGSV,3,2,10,78,25,034,29,79,57,332,38,80,28,259,26,81,04,116,10*66
$GLGSV,3,3,10,87,01,032,,88,10,075,*68
$BDGSV,3,1,12,201,48,147,22,202,35,235,24,203,50,200,24,204,34,123,*61
$BDGSV,3,2,12,205,14,254,20,206,80,084,29,207,72,225,30,209,65,330,35*6A
$BDGSV,3,3,12,210,42,226,26,216,82,057,33,219,60,263,35,228,08,062,21*6B
$BDGSV,4,4,13,209,,,,7*4A
$QZGSV,2,1,06,193,05,,23,194,73,045,27,195,29,144,23*55
$QZGSV,2,2,06,193,,,24,194,73,045,29,195,29,144,18,8*46
$GAGSV,4,1,12,101,14,235,27,107,27,144,12,119,47,314,26,121,56,255,34*67
$GAGSV,4,2,12,125,05,,,127,59,020,31,131,05,,*60
$GAGSV,4,3,12,101,14,235,27,107,27,144,16,119,47,314,28,121,05,,28,1*4B
$GAGSV,4,4,12,127,05,,30,1*44
$GPRMC,084115.00,A,3117.108221,N,12129.848464,E,002.9,296.7,081219,,E,A*17
$GPGGA,084116.00,3117.108567,N,12129.847455,E,1,21,0.7,16.1,M,,M,,*45
$GNGSA,A,3,3,10,14,16,22,25,26,29,31,32,201,202,1.2,0.7,1.0*11
$GPGSA,A,3,3,10,14,16,22,25,26,29,31,32,,,1.2,0.7,1.0*0C
$GPGSA,A,3,3,10,25,26,32,,,,,,,,1.2,0.7,1.0,8*13
$GLGSA,A,3,69,70,78,79,80,81,,,,,,,1.2,0.7,1.0*23
$BDGSA,A,3,201,202,203,206,207,209,210,216,219,228,,,1.2,0.7,1.0*2A
$BDGSA,A,3,219,,,,,,,,,,,,1.2,0.7,1.0,7*07
$GAGSA,A,3,101,107,119,121,127,,,,,,,,1.2,0.7,1.0*1F
$GAGSA,A,3,101,107,119,121,127,,,,,,,,1.2,0.7,1.0,1*02
$QZGSA,A,3,193,194,195,,,,,,,,,,1.2,0.7,1.0*11
$PJGSA,A,3,193,194,195,,,,,,,,,,1.2,0.7,1.0*00
$GPGSV,5,1,16,03,11,317,28,04,05,,,10,16,181,22,14,73,355,36*4E
$GPGSV,5,2,16,16,19,216,24,22,22,299,30,25,34,041,27,26,47,223,34*77
$GPGSV,5,3,16,29,29,096,28,31,57,330,29,32,67,111,30*44
$GPGSV,5,4,16,03,11,317,27,10,16,181,21,25,34,041,33,26,47,223,29,8*6F
$GPGSV,5,5,16,32,05,,32,8*6F
$GLGSV,3,1,10,67,,157,,68,51,177,,69,68,303,33,70,12,330,19*62
$GLGSV,3,2,10,78,25,034,28,79,57,332,32,80,28,259,25,81,04,116,12*6C
$GLGSV,3,3,10,87,01,032,,88,10,075,*68
$BDGSV,3,1,12,201,48,147,20,202,35,235,26,203,50,200,22,204,34,123,*67
$BDGSV,3,2,12,205,14,254,,206,80,084,32,207,72,225,31,209,65,330,33*65
$BDGSV,3,3,12,210,42,226,32,216,82,057,35,219,60,263,35,228,08,062,21*68
$BDGSV,4,4,13,219,,,,7*4B
$QZGSV,2,1,06,193,05,,26,194,73,045,32,195,29,144,23*54
$QZGSV,2,2,06,193,,,26,194,73,045,31,195,29,144,18,8*4D
$GAGSV,4,1,12,101,14,235,29,107,27,144,12,119,47,314,27,121,56,255,36*6A
$GAGSV,4,2,12,125,05,,,127,59,020,29,131,05,,*69
$GAGSV,4,3,12,101,14,235,26,107,27,144,17,119,47,314,26,121,05,,32,1*4E
$GAGSV,4,4,12,127,05,,31,1*45
$GPRMC,084116.00,A,3117.108567,N,12129.847455,E,002.7,294.4,081219,,E,A*13
$GPGGA,084117.00,3117.108669,N,12129.846571,E,1,19,0.7,16.3,M,,M,,*46
$GNGSA,A,3,3,10,14,16,22,25,26,29,31,32,202,203,1.3,0.7,1.1*13
$GPGSA,A,3,3,10,14,16,22,25,26,29,31,32,,,1.3,0.7,1.1*0C
$GPGSA,A,3,3,10,25,26,32,,,,,,,,1.3,0.7,1.1,8*13
$GLGSA,A,3,69,70,78,79,80,81,,,,,,,1.3,0.7,1.1*23
$BDGSA,A,3,202,203,206,207,209,210,216,219,228,,,,1.3,0.7,1.1*19
$BDGSA,A,3,209,,,,,,,,,,,,1.3,0.7,1.1,7*06
$GAGSA,A,3,101,107,119,121,127,,,,,,,,1.3,0.7,1.1*1F
$GAGSA,A,3,101,107,119,121,127,,,,,,,,1.3,0.7,1.1,1*02
$QZGSA,A,3,193,194,195,,,,,,,,,,1.3,0.7,1.1*11
$PJGSA,A,3,193,194,195,,,,,,,,,,1.3,0.7,1.1*00
$GPGSV,5,1,16,03,11,317,24,04,05,,,10,16,181,22,14,73,355,34*40
$GPGSV,5,2,16,16,19,216,30,22,22,299,29,25,34,041,30,26,47,223,38*70
$GPGSV,5,3,16,29,29,096,26,31,57,330,36,32,67,111,30*44
$GPGSV,5,4,16,03,11,317,24,10,16,181,19,25,34,041,35,26,47,223,33,8*6A
$GPGSV,5,5,16,32,05,,31,8*6C
$GLGSV,3,1,10,67,,157,,68,51,177,,69,68,303,37,70,12,330,19*66
$GLGSV,3,2,10,78,25,034,32,79,57,332,34,80,28,259,27,81,04,116,11*60
$GLGSV,3,3,10,87,01,032,,88,10,075,*68
$BDGSV,3,1,12,201,48,147,,202,35,235,27,203,50,200,24,204,34,123,*62
$BDGSV,3,2,12,205,14,254,,206,80,084,32,207,72,225,32,209,65,330,33*66
$BDGSV,3,3,12,210,42,226,31,216,82,057,34,219,60,263,35,228,08,062,20*6B
$BDGSV,4,4,13,209,,,,7*4A
$QZGSV,2,1,06,193,05,,26,194,73,045,32,195,29,144,20*57
$QZGSV,2,2,06,193,,,24,194,73,045,33,195,29,144,19,8*4C
$GAGSV,4,1,12,101,14,235,26,107,27,144,12,119,47,314,26,121,56,255,36*64
$GAGSV,4,2,12,125,05,,,127,59,020,32,131,05,,*63
$GAGSV,4,3,12,101,14,235,25,107,27,144,17,119,47,314,29,121,05,,31,1*41
$GAGSV,4,4,12,127,05,,30,1*44
$GPRMC,084117.00,A,3117.108669,N,12129.846571,E,002.4,290.2,081219,,E,A*18
$GPGGA,084118.00,3117.109095,N,12129.845637,E,1,19,0.8,16.2,M,,M,,*41
$GNGSA,A,3,3,10,14,16,22,25,26,29,31,32,202,203,1.3,0.8,1.0*1D
$GPGSA,A,3,3,10,14,16,22,25,26,29,31,32,,,1.3,0.8,1.0*02
$GPGSA,A,3,3,10,25,26,32,,,,,,,,1.3,0.8,1.0,8*1D
$GLGSA,A,3,69,70,78,79,80,81,,,,,,,1.3,0.8,1.0*2D
$BDGSA,A,3,202,203,206,207,209,210,216,219,228,,,,1.3,0.8,1.0*17
$BDGSA,A,3,219,,,,,,,,,,,,1.3,0.8,1.0,7*09
$GAGSA,A,3,101,107,119,121,127,,,,,,,,1.3,0.8,1.0*11
$GAGSA,A,3,101,107,119,121,127,,,,,,,,1.3,0.8,1.0,1*0C
$QZGSA,A,3,193,194,195,,,,,,,,,,1.3,0.8,1.0*1F
$PJGSA,A,3,193,194,195,,,,,,,,,,1.3,0.8,1.0*0E
$GPGSV,5,1,16,03,11,317,24,04,05,,,10,16,181,20,14,73,355,33*45
$GPGSV,5,2,16,16,19,216,28,22,22,299,29,25,34,041,27,26,47,223,35*72
$GPGSV,5,3,16,29,29,096,26,31,57,330,31,32,67,111,31*42
$GPGSV,5,4,16,03,11,317,24,10,16,181,18,25,34,041,30,26,47,223,33,8*6E
$GPGSV,5,5,16,32,05,,32,8*6F
$GLGSV,3,1,10,67,,157,,68,51,177,,69,68,303,36,70,12,330,18*66
$GLGSV,3,2,10,78,25,034,33,79,57,332,30,80,28,259,26,81,04,116,10*65
$GLGSV,3,3,10,87,01,032,,88,10,075,*68
$BDGSV,3,1,12,201,48,147,,202,35,235,26,203,50,200,24,204,34,123,*63
$BDGSV,3,2,12,205,14,254,,206,80,084,31,207,72,225,31,209,65,330,30*65
$BDGSV,3,3,12,210,42,226,28,216,82,057,33,219,60,263,37,228,08,062,21*67
$BDGSV,4,4,13,219,,,,7*4B
$QZGSV,2,1,06,193,05,,25,194,73,045,30,195,29,144,21*57
$QZGSV,2,2,06,193,,,25,194,73,045,34,195,29,144,20,8*40
$GAGSV,4,1,12,101,14,235,25,107,27,144,14,119,47,314,28,121,56,255,37*6E
$GAGSV,4,2,12,125,05,,,127,59,020,35,131,05,,*64
$GAGSV,4,3,12,101,14,235,26,107,27,144,18,119,47,314,28,121,05,,33,1*4E
$GAGSV,4,4,12,127,05,,30,1*44
$GPRMC,084118.00,A,3117.109095,N,12129.845637,E,002.2,291.6,081219,,E,A*12
$GPGGA,084119.00,3117.109597,N,12129.844553,E,1,20,0.7,16.4,M,,M,,*44
$GNGSA,A,3,3,10,14,16,22,25,26,29,31,32,202,203,1.2,0.7,1.0*13
$GPGSA,A,3,3,10,14,16,22,25,26,29,31,32,,,1.2,0.7,1.0*0C
$GPGSA,A,3,3,10,25,26,32,,,,,,,,1.2,0.7,1.0,8*13
$GLGSA,A,3,69,70,78,79,80,81,,,,,,,1.2,0.7,1.0*23
$BDGSA,A,3,202,203,206,207,209,210,216,219,228,,,,1.2,0.7,1.0*19
$BDGSA,A,3,209,,,,,,,,,,,,1.2,0.7,1.0,7*06
$GAGSA,A,3,101,107,119,121,127,,,,,,,,1.2,0.7,1.0*1F
$GAGSA,A,3,101,107,119,121,127,,,,,,,,1.2,0.7,1.0,1*02
$QZGSA,A,3,193,194,195,,,,,,,,,,1.2,0.7,1.0*11
$PJGSA,A,3,193,194,195,,,,,,,,,,1.2,0.7,1.0*00
$GPGSV,5,1,16,03,11,317,25,04,05,,,10,16,181,20,14,73,355,31*46
$GPGSV,5,2,16,16,19,216,30,22,22,299,31,25,34,041,30,26,47,223,35*74
$GPGSV,5,3,16,29,29,096,26,31,57,330,32,32,67,111,30*40
$GPGSV,5,4,16,03,11,317,25,10,16,181,19,25,34,041,30,26,47,223,32,8*6F
$GPGSV,5,5,16,32,05,,33,8*6E
$GLGSV,3,1,10,67,,157,,68,51,177,,69,68,303,36,70,12,330,18*66
$GLGSV,3,2,10,78,25,034,32,79,57,332,34,80,28,259,24,81,04,116,10*62
$GLGSV,3,3,10,87,01,032,,88,10,075,*68
$BDGSV,3,1,12,201,48,147,,202,35,235,24,203,50,200,26,204,34,123,*63
$BDGSV,3,2,12,205,14,254,,206,80,084,29,207,72,225,30,209,65,330,34*69
$BDGSV,3,3,12,210,42,226,28,216,82,057,32,219,60,263,37,228,08,062,20*67
$BDGSV,4,4,13,209,,,,7*4A
$QZGSV,2,1,06,193,05,,25,194,73,045,29,195,29,144,24*5A
$QZGSV,2,2,06,193,,,24,194,73,045,30,195,29,144,24,8*41
$GAGSV,4,1,12,101,14,235,26,107,27,144,14,119,47,314,32,121,56,255,35*64
$GAGSV,4,2,12,125,05,,,127,59,020,33,131,05,,*62
$GAGSV,4,3,12,101,14,235,26,107,27,144,20,119,47,314,32,121,05,,33,1*4E
$GAGSV,4,4,12,127,05,,31,1*45
$GPRMC,084119.00,A,3117.109597,N,12129.844553,E,002.1,291.4,081219,,E,A*15
$GPGGA,084120.00,3117.110076,N,12129.843594,E,1,21,0.7,16.6,M,,M,,*43
$GNGSA,A,3,3,10,14,16,22,25,26,29,31,32,202,203,1.2,0.7,1.0*13
$GPGSA,A,3,3,10,14,16,22,25,26,29,31,32,,,1.2,0.7,1.0*0C
$GPGSA,A,3,3,10,25,26,32,,,,,,,,1.2,0.7,1.0,8*13
$GLGSA,A,3,69,70,78,79,80,81,,,,,,,1.2,0.7,1.0*23
$BDGSA,A,3,202,203,206,207,209,210,216,219,228,,,,1.2,0.7,1.0*19
$BDGSA,A,3,219,,,,,,,,,,,,1.2,0.7,1.0,7*07
$GAGSA,A,3,101,107,119,121,127,,,,,,,,1.2,0.7,1.0*1F
$GAGSA,A,3,101,107,119,121,127,,,,,,,,1.2,0.7,1.0,1*02
$QZGSA,A,3,193,194,195,,,,,,,,,,1.2,0.7,1.0*11
$PJGSA,A,3,193,194,195,,,,,,,,,,1.2,0.7,1.0*00
$GPGSV,5,1,16,03,11,317,23,04,05,,,10,16,181,18,14,73,355,31*4B
$GPGSV,5,2,16,16,19,216,24,22,22,299,30,25,34,041,32,26,47,223,35*72
$GPGSV,5,3,16,29,29,096,26,31,57,330,38,32,67,111,31*4B
$GPGSV,5,4,16,03,11,317,23,10,16,181,18,25,34,041,30,26,47,223,32,8*68
$GPGSV,5,5,16,32,05,,32,8*6F
$GLGSV,3,1,10,67,,157,,68,51,177,,69,68,303,37,70,12,330,19*66
$GLGSV,3,2,10,78,25,034,32,79,57,332,36,80,28,259,25,81,04,116,09*69
$GLGSV,3,3,10,87,01,032,,88,10,075,*68
$BDGSV,3,1,12,201,48,147,,202,35,235,27,203,50,200,25,204,34,123,*63
$BDGSV,3,2,12,205,14,254,,206,80,084,29,207,72,225,31,209,65,330,35*69
$BDGSV,3,3,12,210,42,226,31,216,82,057,32,219,60,263,36,228,08,062,20*6E
$BDGSV,4,4,13,219,,,,7*4B
$QZGSV,2,1,06,193,05,,26,194,73,045,28,195,29,144,23*5F
$QZGSV,2,2,06,193,,,25,194,73,045,31,195,29,144,22,8*47
$GAGSV,4,1,12,101,14,235,26,107,27,144,14,119,47,314,31,121,56,255,36*64
$GAGSV,4,2,12,125,05,,,127,59,020,29,131,05,,*69
$GAGSV,4,3,12,101,14,235,25,107,27,144,20,119,47,314,34,121,05,,32,1*4A
$GAGSV,4,4,12,127,05,,25,1*40
$GPRMC,084120.00,A,3117.110076,N,12129.843594,E,001.9,290.8,081219,,E,A*17
$GPGGA,084121.00,3117.110501,N,12129.842775,E,1,19,0.7,16.8,M,,M,,*4E
$GNGSA,A,3,3,10,14,16,22,25,26,29,31,32,202,203,1.3,0.7,1.1*13
$GPGSA,A,3,3,10,14,16,22,25,26,29,31,32,,,1.3,0.7,1.1*0C
$GPGSA,A,3,3,10,25,26,32,,,,,,,,1.3,0.7,1.1,8*13
$GLGSA,A,3,69,70,78,79,80,81,,,,,,,1.3,0.7,1.1*23
$BDGSA,A,3,202,203,206,207,209,210,216,219,228,,,,1.3,0.7,1.1*19
$BDGSA,A,3,209,,,,,,,,,,,,1.3,0.7,1.1,7*06
$GAGSA,A,3,101,107,119,121,127,,,,,,,,1.3,0.7,1.1*1F
$GAGSA,A,3,101,107,119,121,127,,,,,,,,1.3,0.7,1.1,1*02
$QZGSA,A,3,193,194,195,,,,,,,,,,1.3,0.7,1.1*11
$PJGSA,A,3,193,194,195,,,,,,,,,,1.3,0.7,1.1*00
$GPGSV,5,1,16,03,11,317,25,04,05,,,10,16,181,20,14,73,355,36*41
$GPGSV,5,2,16,16,19,216,31,22,22,299,30,25,34,041,31,26,47,223,31*71
$GPGSV,5,3,16,29,29,096,28,31,57,330,43,32,67,111,32*4A
$GPGSV,5,4,16,03,11,317,23,10,16,181,18,25,34,041,31,26,47,223,32,8*69
$GPGSV,5,5,16,32,05,,30,8*6D
$GLGSV,3,1,10,67,,157,,68,51,177,,69,68,303,37,70,12,330,18*67
$GLGSV,3,2,10,78,25,034,30,79,57,332,39,80,28,259,25,81,04,116,09*64
$GLGSV,3,3,10,87,01,032,,88,10,075,*68
$BDGSV,3,1,12,201,48,147,,202,35,235,28,203,50,200,25,204,34,123,*6C
$BDGSV,3,2,12,205,14,254,,206,80,084,31,207,72,225,34,209,65,330,38*68
$BDGSV,3,3,12,210,42,226,30,216,82,057,34,219,60,263,36,228,08,062,19*63
$BDGSV,4,4,13,209,,,,7*4A
$QZGSV,2,1,06,193,05,,24,194,73,045,29,195,29,144,23*5C
$QZGSV,2,2,06,193,,,25,194,73,045,29,195,29,144,21,8*4D
$GAGSV,4,1,12,101,14,235,24,107,27,144,14,119,47,314,32,121,56,255,37*64
$GAGSV,4,2,12,125,05,,,127,59,020,28,131,05,,*68
$GAGSV,4,3,12,101,14,235,26,107,27,144,20,119,47,314,34,121,05,,31,1*4A
$GAGSV,4,4,12,127,05,,29,1*4C
$GPRMC,084121.00,A,3117.110501,N,12129.842775,E,002.2,295.3,081219,,E,A*19
$GPGGA,084122.00,3117.110929,N,12129.841880,E,1,20,0.7,16.8,M,,M,,*47
$GNGSA,A,3,3,10,14,16,22,25,26,29,31,32,202,203,1.3,0.7,1.1*13
$GPGSA,A,3,3,10,14,16,22,25,26,29,31,32,,,1.3,0.7,1.1*0C
$GPGSA,A,3,3,10,25,26,32,,,,,,,,1.3,0.7,1.1,8*13
$GLGSA,A,3,69,70,78,79,80,81,,,,,,,1.3,0.7,1.1*23
$BDGSA,A,3,202,203,206,207,209,210,216,219,228,,,,1.3,0.7,1.1*19
$BDGSA,A,3,219,,,,,,,,,,,,1.3,0.7,1.1,7*07
$GAGSA,A,3,101,107,119,121,127,,,,,,,,1.3,0.7,1.1*1F
$GAGSA,A,3,101,107,119,121,127,,,,,,,,1.3,0.7,1.1,1*02
$QZGSA,A,3,193,194,195,,,,,,,,,,1.3,0.7,1.1*11
$PJGSA,A,3,193,194,195,,,,,,,,,,1.3,0.7,1.1*00
$GPGSV,5,1,16,03,11,317,24,04,05,,,10,16,181,21,14,73,355,37*40
$GPGSV,5,2,16,16,19,216,31,22,22,299,30,25,34,041,28,26,47,223,35*7D
$GPGSV,5,3,16,29,29,096,27,31,57,330,40,32,67,111,33*47
$GPGSV,5,4,16,03,11,317,23,10,16,181,19,25,34,041,32,26,47,223,33,8*6A
$GPGSV,5,5,16,32,05,,34,8*69
$GLGSV,3,1,10,67,,157,,68,51,177,,69,68,303,37,70,12,330,18*67
$GLGSV,3,2,10,78,25,034,31,79,57,332,39,80,28,259,27,81,04,116,09*67
$GLGSV,3,3,10,87,01,032,,88,10,075,*68
$BDGSV,3,1,12,201,48,147,,202,35,235,25,203,50,200,24,204,34,123,*60
$BDGSV,3,2,12,205,14,254,,206,80,084,32,207,72,225,33,209,65,330,38*6C
$BDGSV,3,3,12,210,42,226,28,216,82,057,34,219,60,263,38,228,08,062,19*64
$BDGSV,4,4,13,219,,,,7*4B
$QZGSV,2,1,06,193,05,,24,194,73,045,30,195,29,144,20*57
$QZGSV,2,2,06,193,,,26,194,73,045,31,195,29,144,22,8*44
$GAGSV,4,1,12,101,14,236,28,107,27,144,14,119,47,314,31,121,56,255,36*69
$GAGSV,4,2,12,125,05,,,127,59,020,34,131,05,,*65
$GAGSV,4,3,12,101,14,236,28,107,27,144,20,119,47,314,33,121,05,,34,1*45
$GAGSV,4,4,12,127,05,,27,1*42
$GPRMC,084122.00,A,3117.110929,N,12129.841880,E,002.1,295.2,081219,,E,A*18
$GPGGA,084123.00,3117.111267,N,12129.841042,E,1,20,0.7,16.8,M,,M,,*40
$GNGSA,A,3,3,10,14,16,22,25,26,29,31,32,202,203,1.2,0.7,1.0*13
$GPGSA,A,3,3,10,14,16,22,25,26,29,31,32,,,1.2,0.7,1.0*0C
$GPGSA,A,3,3,10,25,26,32,,,,,,,,1.2,0.7,1.0,8*13
$GLGSA,A,3,69,70,78,79,80,81,,,,,,,1.2,0.7,1.0*23
$BDGSA,A,3,202,203,205,206,207,209,210,216,219,228,,,1.2,0.7,1.0*2E
$BDGSA,A,3,216,,,,,,,,,,,,1.2,0.7,1.0,7*08
$GAGSA,A,3,101,107,119,121,127,,,,,,,,1.2,0.7,1.0*1F
$GAGSA,A,3,101,107,119,121,127,,,,,,,,1.2,0.7,1.0,1*02
$QZGSA,A,3,193,194,195,,,,,,,,,,1.2,0.7,1.0*11
$PJGSA,A,3,193,194,195,,,,,,,,,,1.2,0.7,1.0*00
$GPGSV,5,1,16,03,11,317,24,04,05,,,10,16,181,24,14,73,355,36*44
$GPGSV,5,2,16,16,19,216,27,22,22,299,30,25,34,041,29,26,47,223,36*78
$GPGSV,5,3,16,29,29,096,25,31,57,330,38,32,67,111,32*4B
$GPGSV,5,4,16,03,11,317,21,10,16,181,20,25,34,041,30,26,47,223,30,8*63
$GPGSV,5,5,16,32,05,,31,8*6C
$GLGSV,3,1,10,67,,157,,68,51,177,,69,68,303,40,70,12,330,19*66
$GLGSV,3,2,10,78,25,034,34,79,57,332,37,80,28,259,28,81,04,116,09*63
$GLGSV,3,3,10,87,01,032,,88,10,075,*68
$BDGSV,3,1,12,201,48,147,,202,35,235,27,203,50,200,23,204,34,123,*65
$BDGSV,3,2,12,205,14,254,29,206,80,084,31,207,72,225,30,209,65,330,34*6B
$BDGSV,3,3,12,210,42,226,27,216,82,057,36,219,60,263,37,228,08,062,18*67
$BDGSV,4,4,13,216,,,,7*44
$QZGSV,2,1,06,193,05,,25,194,73,045,31,195,29,144,24*53
$QZGSV,2,2,06,193,,,28,194,73,045,32,195,29,144,22,8*49
$GAGSV,4,1,12,101,14,236,25,107,27,144,12,119,47,314,27,121,56,255,38*6B
$GAGSV,4,2,12,125,05,,,127,59,020,28,131,05,,*68
$GAGSV,4,3,12,101,14,236,28,107,27,144,20,119,47,314,32,121,05,,35,1*45
$GAGSV,4,4,12,127,05,,29,1*4C
$GPRMC,084123.00,A,3117.111267,N,12129.841042,E,002.2,292.0,081219,,E,A*19
$GPGGA,084124.00,3117.111772,N,12129.840156,E,1,21,0.7,17.0,M,,M,,*4B
$GNGSA,A,3,3,10,14,16,22,25,26,29,31,32,202,203,1.2,0.7,1.0*13
$GPGSA,A,3,3,10,14,16,22,25,26,29,31,32,,,1.2,0.7,1.0*0C
$GPGSA,A,3,3,10,25,26,32,,,,,,,,1.2,0.7,1.0,8*13
$GLGSA,A,3,69,70,78,79,80,81,,,,,,,1.2,0.7,1.0*23
$BDGSA,A,3,202,203,205,206,207,209,210,216,219,228,,,1.2,0.7,1.0*2E
$BDGSA,A,3,219,,,,,,,,,,,,1.2,0.7,1.0,7*07
$GAGSA,A,3,101,107,119,121,127,,,,,,,,1.2,0.7,1.0*1F
$GAGSA,A,3,101,107,119,121,127,,,,,,,,1.2,0.7,1.0,1*02
$QZGSA,A,3,193,194,195,,,,,,,,,,1.2,0.7,1.0*11
$PJGSA,A,3,193,194,195,,,,,,,,,,1.2,0.7,1.0*00
$GPGSV,5,1,16,03,11,317,25,04,05,,,10,16,181,26,14,73,355,37*46
$GPGSV,5,2,16,16,19,216,32,22,22,299,34,25,34,041,32,26,47,223,38*7C
$GPGSV,5,3,16,29,29,096,27,31,57,330,36,32,67,111,31*44
$GPGSV,5,4,16,03,11,317,23,10,16,181,20,25,34,041,33,26,47,223,30,8*62
$GPGSV,5,5,16,32,05,,32,8*6F
$GLGSV,3,1,10,67,,157,,68,51,177,,69,68,303,39,70,12,330,18*69
$GLGSV,3,2,10,78,25,034,34,79,57,332,33,80,28,259,29,81,04,116,09*66
$GLGSV,3,3,10,87,01,032,,88,10,075,*68
$BDGSV,3,1,12,201,48,147,,202,35,235,28,203,50,200,26,204,34,123,*6F
$BDGSV,3,2,12,205,14,254,27,206,80,084,33,207,72,225,33,209,65,330,31*61
$BDGSV,3,3,12,210,42,226,30,216,82,057,36,219,60,263,36,228,08,062,19*61
$BDGSV,4,4,13,219,,,,7*4B
$QZGSV,2,1,06,193,05,,25,194,73,045,33,195,29,144,22*57
$QZGSV,2,2,06,193,,,28,194,73,045,34,195,29,144,23,8*4E
$GAGSV,4,1,12,101,14,236,29,107,27,144,12,119,47,314,30,121,56,255,37*6E
$GAGSV,4,2,12,125,05,,,127,59,020,34,131,05,,*65
$GAGSV,4,3,12,101,14,236,29,107,27,144,23,119,47,314,32,121,05,,29,1*4A
$GAGSV,4,4,12,127,05,,29,1*4C
$GPRMC,084124.00,A,3117.111772,N,12129.840156,E,002.5,294.4,081219,,E,A*1F
$GPGGA,084125.00,3117.112092,N,12129.839495,E,1,20,0.7,16.8,M,,M,,*4C
$GNGSA,A,3,3,10,14,16,22,25,26,29,31,32,202,203,1.2,0.7,1.0*13
$GPGSA,A,3,3,10,14,16,22,25,26,29,31,32,,,1.2,0.7,1.0*0C
$GPGSA,A,3,3,10,25,26,32,,,,,,,,1.2,0.7,1.0,8*13
$GLGSA,A,3,69,70,78,79,80,81,,,,,,,1.2,0.7,1.0*23
$BDGSA,A,3,202,203,205,206,207,209,210,216,219,228,,,1.2,0.7,1.0*2E
$BDGSA,A,3,219,,,,,,,,,,,,1.2,0.7,1.0,7*07
$GAGSA,A,3,101,107,119,121,127,,,,,,,,1.2,0.7,1.0*1F
$GAGSA,A,3,101,107,119,121,127,,,,,,,,1.2,0.7,1.0,1*02
$QZGSA,A,3,193,194,195,,,,,,,,,,1.2,0.7,1.0*11
$PJGSA,A,3,193,194,195,,,,,,,,,,1.2,0.7,1.0*00
$GPGSV,5,1,16,03,11,317,25,04,05,,,10,16,181,26,14,73,355,33*42
$GPGSV,5,2,16,16,19,216,27,22,22,299,35,25,34,041,34,26,47,223,38*7F
$GPGSV,5,3,16,29,29,096,25,31,57,330,37,32,67,111,36*40
$GPGSV,5,4,16,03,11,317,25,10,16,181,25,25,34,041,40,26,47,223,38,8*6D
$GPGSV,5,5,16,32,05,,34,8*69
$GLGSV,3,1,10,67,,157,,68,51,177,,69,68,303,37,70,12,330,18*67
$GLGSV,3,2,10,78,25,034,30,79,57,332,34,80,28,259,29,81,04,116,09*65
$GLGSV,3,3,10,87,01,032,,88,10,075,*68
$BDGSV,3,1,12,201,48,147,,202,35,235,29,203,50,200,25,204,34,123,*6D
$BDGSV,3,2,12,205,14,254,27,206,80,084,33,207,72,225,31,209,65,330,35*67
$BDGSV,3,3,12,210,42,226,29,216,82,057,35,219,60,263,36,228,08,062,18*6B
$BDGSV,4,4,13,219,,,,7*4B
$QZGSV,2,1,06,193,05,,22,194,73,045,33,195,29,144,23*51
$QZGSV,2,2,06,193,,,26,194,73,045,34,195,29,144,20,8*43
$GAGSV,4,1,12,101,14,236,31,107,27,144,14,119,47,314,31,121,56,255,39*6E
$GAGSV,4,2,12,125,05,,,127,59,020,30,131,05,,*61
$GAGSV,4,3,12,101,14,236,28,107,27,144,21,119,47,314,34,121,05,,36,1*41
$GAGSV,4,4,12,127,05,,32,1*46
$GPRMC,084125.00,A,3117.112092,N,12129.839495,E,002.2,298.0,081219,,E,A*1F
$GPGGA,084126.00,3117.112434,N,12129.838704,E,1,22,0.7,16.5,M,,M,,*42
$GNGSA,A,3,3,10,14,16,22,25,26,29,31,32,202,203,1.2,0.7,1.0*13
$GPGSA,A,3,3,10,14,16,22,25,26,29,31,32,,,1.2,0.7,1.0*0C
$GPGSA,A,3,3,10,25,26,32,,,,,,,,1.2,0.7,1.0,8*13
$GLGSA,A,3,69,70,78,79,80,81,,,,,,,1.2,0.7,1.0*23
$BDGSA,A,3,202,203,205,206,207,209,210,216,219,228,,,1.2,0.7,1.0*2E
$BDGSA,A,3,219,,,,,,,,,,,,1.2,0.7,1.0,7*07
$GAGSA,A,3,101,107,119,121,127,,,,,,,,1.2,0.7,1.0*1F
$GAGSA,A,3,101,107,119,121,127,,,,,,,,1.2,0.7,1.0,1*02
$QZGSA,A,3,193,194,195,,,,,,,,,,1.2,0.7,1.0*11
$PJGSA,A,3,193,194,195,,,,,,,,,,1.2,0.7,1.0*00
$GPGSV,5,1,16,03,11,317,25,04,05,,,10,16,181,26,14,73,355,36*47
$GPGSV,5,2,16,16,19,216,30,22,22,299,37,25,34,041,34,26,47,223,39*7A
$GPGSV,5,3,16,29,29,096,28,31,57,330,39,32,67,111,36*43
$GPGSV,5,4,16,03,11,317,20,10,16,181,27,25,34,041,37,26,47,223,29,8*6A
$GPGSV,5,5,16,32,05,,33,8*6E
$GLGSV,3,1,10,67,,157,,68,51,177,,69,68,303,42,70,12,330,18*65
$GLGSV,3,2,10,78,25,034,29,79,57,332,38,80,28,259,27,81,04,116,09*6F
$GLGSV,3,3,10,87,01,032,,88,10,075,*68
$BDGSV,3,1,12,201,48,147,,202,35,235,31,203,50,200,24,204,34,123,*65
$BDGSV,3,2,12,205,14,254,25,206,80,084,35,207,72,225,36,209,65,330,33*62
$BDGSV,3,3,12,210,42,226,34,216,82,057,36,219,60,263,38,228,08,062,18*6A
$BDGSV,4,4,13,219,,,,7*4B
$QZGSV,2,1,06,193,05,,24,194,73,045,34,195,29,144,23*50
$QZGSV,2,2,06,193,,,24,194,73,045,30,195,29,144,21,8*44
$GAGSV,4,1,12,101,14,236,34,107,27,144,14,119,47,314,29,121,56,255,38*63
$GAGSV,4,2,12,125,05,,,127,59,020,30,131,05,,*61
$GAGSV,4,3,12,101,14,236,29,107,27,144,20,119,47,314,28,121,05,,32,1*48
$GAGSV,4,4,12,127,05,,29,1*4C
$GPRMC,084126.00,A,3117.112434,N,12129.838704,E,002.3,293.7,081219,,E,A*13
$GPGGA,084127.00,3117.112738,N,12129.837914,E,1,21,0.7,16.1,M,,M,,*4B
$GNGSA,A,3,3,10,14,16,22,25,26,29,31,32,202,203,1.2,0.7,1.0*13
$GPGSA,A,3,3,10,14,16,22,25,26,29,31,32,,,1.2,0.7,1.0*0C
$GPGSA,A,3,3,10,25,26,32,,,,,,,,1.2,0.7,1.0,8*13
$GLGSA,A,3,69,70,78,79,80,,,,,,,,1.2,0.7,1.0*2A
$BDGSA,A,3,202,203,205,206,207,209,210,216,219,228,,,1.2,0.7,1.0*2E
$BDGSA,A,3,228,,,,,,,,,,,,1.2,0.7,1.0,7*05
$GAGSA,A,3,101,107,119,121,127,,,,,,,,1.2,0.7,1.0*1F
$GAGSA,A,3,101,107,119,121,127,,,,,,,,1.2,0.7,1.0,1*02
$QZGSA,A,3,193,194,195,,,,,,,,,,1.2,0.7,1.0*11
$PJGSA,A,3,193,194,195,,,,,,,,,,1.2,0.7,1.0*00
$GPGSV,5,1,16,03,11,317,23,04,05,,,10,16,181,27,14,73,355,32*44
$GPGSV,5,2,16,16,19,216,31,22,22,299,37,25,34,041,28,26,47,223,40*78
$GPGSV,5,3,16,29,29,096,26,31,57,330,33,32,67,111,38*49
$GPGSV,5,4,16,03,11,317,18,10,16,181,29,25,34,041,33,26,47,223,29,8*6B
$GPGSV,5,5,16,32,05,,27,8*6B
$GLGSV,3,1,10,67,,157,,68,51,177,,69,68,303,35,70,12,330,17*6A
$GLGSV,3,2,10,78,25,034,26,79,57,332,32,80,28,259,27,81,04,116,*63
$GLGSV,3,3,10,87,01,032,,88,10,075,*68
$BDGSV,3,1,12,201,48,147,,202,35,235,28,203,50,200,33,204,34,123,*6B
$BDGSV,3,2,12,205,14,254,25,206,80,084,33,207,72,225,33,209,65,330,33*61
$BDGSV,3,3,12,210,42,226,32,216,82,057,33,219,60,263,36,228,08,062,18*67
$BDGSV,4,4,13,228,,,,7*49
$QZGSV,2,1,06,193,05,,28,194,73,045,31,195,29,144,23*59
$QZGSV,2,2,06,193,,,25,194,73,045,31,195,29,144,21,8*44
$GAGSV,4,1,12,101,14,236,24,107,27,144,15,119,47,314,27,121,56,255,32*67
$GAGSV,4,2,12,125,05,,,127,59,020,30,131,05,,*61
$GAGSV,4,3,12,101,14,236,31,107,27,144,16,119,47,314,28,121,05,,34,1*42
$GAGSV,4,4,12,127,05,,25,1*40
$GPRMC,084127.00,A,3117.112738,N,12129.837914,E,002.0,293.8,081219,,E,A*11
$GPGGA,084128.00,3117.113021,N,12129.837322,E,1,21,0.7,15.7,M,,M,,*40
$GNGSA,A,3,3,10,14,16,22,25,26,29,31,32,202,203,1.2,0.7,1.0*13
$GPGSA,A,3,3,10,14,16,22,25,26,29,31,32,,,1.2,0.7,1.0*0C
$GPGSA,A,3,3,10,25,26,32,,,,,,,,1.2,0.7,1.0,8*13
$GLGSA,A,3,69,70,78,79,80,,,,,,,,1.2,0.7,1.0*2A
$BDGSA,A,3,202,203,205,206,207,209,210,216,219,228,,,1.2,0.7,1.0*2E
$BDGSA,A,3,216,,,,,,,,,,,,1.2,0.7,1.0,7*08
$GAGSA,A,3,101,107,119,121,127,,,,,,,,1.2,0.7,1.0*1F
$GAGSA,A,3,101,107,119,121,127,,,,,,,,1.2,0.7,1.0,1*02
$QZGSA,A,3,193,194,195,,,,,,,,,,1.2,0.7,1.0*11
$PJGSA,A,3,193,194,195,,,,,,,,,,1.2,0.7,1.0*00
$GPGSV,5,1,16,03,11,317,26,04,05,,,10,16,181,31,14,73,355,33*47
$GPGSV,5,2,16,16,19,216,32,22,22,299,37,25,34,041,28,26,47,223,39*75
$GPGSV,5,3,16,29,29,096,27,31,57,330,34,32,67,111,41*41
$GPGSV,5,4,16,03,11,317,20,10,16,181,28,25,34,041,34,26,47,223,31,8*6F
$GPGSV,5,5,16,32,05,,33,8*6E
$GLGSV,3,1,10,67,,157,,68,51,177,,69,68,303,33,70,12,330,17*6C
$GLGSV,3,2,10,78,25,034,24,79,57,332,29,80,28,259,32,81,04,116,*6F
$GLGSV,3,3,10,87,01,032,,88,10,075,*68
$BDGSV,3,1,12,201,48,147,,202,35,235,22,203,50,200,35,204,34,123,*67
$BDGSV,3,2,12,205,14,254,26,206,80,084,33,207,72,225,33,209,65,330,32*63
$BDGSV,3,3,12,210,42,226,31,216,82,057,33,219,60,263,39,228,08,062,18*6B
$BDGSV,4,4,13,216,,,,7*44
$QZGSV,2,1,06,193,05,,28,194,73,045,30,195,29,144,21*5A
$QZGSV,2,2,06,193,,,22,194,73,045,32,195,29,144,22,8*43
$GAGSV,4,1,12,101,14,236,29,107,27,144,16,119,47,314,30,121,56,255,34*69
$GAGSV,4,2,12,125,05,,,127,59,020,33,131,05,,*62
$GAGSV,4,3,12,101,14,236,34,107,27,144,17,119,47,314,26,121,05,,27,1*4A
$GAGSV,4,4,12,127,05,,31,1*45
$GPRMC,084128.00,A,3117.113021,N,12129.837322,E,002.0,296.8,081219,,E,A*1A
$GPGGA,084129.00,3117.113469,N,12129.836484,E,1,21,0.7,15.3,M,,M,,*47
$GNGSA,A,3,3,10,14,16,22,25,26,29,31,32,202,203,1.2,0.7,1.0*13
$GPGSA,A,3,3,10,14,16,22,25,26,29,31,32,,,1.2,0.7,1.0*0C
$GPGSA,A,3,3,10,25,26,32,,,,,,,,1.2,0.7,1.0,8*13
$GLGSA,A,3,69,70,78,79,80,,,,,,,,1.2,0.7,1.0*2A
$BDGSA,A,3,202,203,205,206,207,209,210,216,219,228,,,1.2,0.7,1.0*2E
$BDGSA,A,3,207,,,,,,,,,,,,1.2,0.7,1.0,7*08
$GAGSA,A,3,101,107,119,121,127,,,,,,,,1.2,0.7,1.0*1F
$GAGSA,A,3,101,107,119,121,127,,,,,,,,1.2,0.7,1.0,1*02
$QZGSA,A,3,193,194,195,,,,,,,,,,1.2,0.7,1.0*11
$PJGSA,A,3,193,194,195,,,,,,,,,,1.2,0.7,1.0*00
$GPGSV,5,1,16,03,11,317,29,04,05,,,10,16,181,30,14,73,355,31*4B
$GPGSV,5,2,16,16,19,216,34,22,22,299,40,25,34,041,26,26,47,223,40*73
$GPGSV,5,3,16,29,29,096,27,31,57,330,36,32,67,111,40*42
$GPGSV,5,4,16,03,11,317,19,10,16,181,28,25,34,041,32,26,47,223,29,8*6A
$GPGSV,5,5,16,32,05,,36,8*6B
$GLGSV,3,1,10,67,,157,,68,51,177,,69,68,303,34,70,12,330,17*6B
$GLGSV,3,2,10,78,25,034,23,79,57,332,33,80,28,259,29,81,04,116,*69
$GLGSV,3,3,10,87,01,032,,88,10,075,*68
$BDGSV,3,1,12,201,48,147,,202,35,235,30,203,50,200,36,204,34,123,*67
$BDGSV,3,2,12,205,14,254,22,206,80,084,33,207,72,225,33,209,65,330,32*67
$BDGSV,3,3,12,210,42,226,33,216,82,057,31,219,60,263,36,228,08,062,18*64
$BDGSV,4,4,13,207,,,,7*44
$QZGSV,2,1,06,193,05,,31,194,73,045,31,195,29,144,23*51
$QZGSV,2,2,06,193,,,24,194,73,045,35,195,29,144,21,8*41
$GAGSV,4,1,12,101,14,236,29,107,27,144,15,119,47,314,32,121,56,255,33*6F
$GAGSV,4,2,12,125,05,,,127,59,020,32,131,05,,*63
$GAGSV,4,3,12,101,14,236,31,107,27,144,18,119,47,314,23,121,05,,28,1*4A
$GAGSV,4,4,12,127,05,,32,1*46
$GPRMC,084129.00,A,3117.113469,N,12129.836484,E,002.4,306.1,081219,,E,A*1C
$GPGGA,084130.00,3117.113882,N,12129.835628,E,1,21,0.7,14.9,M,,M,,*4A
$GNGSA,A,3,3,10,14,16,22,25,26,29,31,32,202,203,1.2,0.7,1.0*13
$GPGSA,A,3,3,10,14,16,22,25,26,29,31,32,,,1.2,0.7,1.0*0C
$GPGSA,A,3,3,10,25,26,32,,,,,,,,1.2,0.7,1.0,8*13
$GLGSA,A,3,69,70,78,79,80,,,,,,,,1.2,0.7,1.0*2A
$BDGSA,A,3,202,203,205,206,207,209,210,216,219,228,,,1.2,0.7,1.0*2E
$BDGSA,A,3,219,,,,,,,,,,,,1.2,0.7,1.0,7*07
$GAGSA,A,3,101,107,119,121,127,,,,,,,,1.2,0.7,1.0*1F
$GAGSA,A,3,101,107,119,121,127,,,,,,,,1.2,0.7,1.0,1*02
$QZGSA,A,3,193,194,195,,,,,,,,,,1.2,0.7,1.0*11
$PJGSA,A,3,193,194,195,,,,,,,,,,1.2,0.7,1.0*00
$GPGSV,5,1,15,03,11,317,26,10,16,181,29,14,73,355,30,16,19,216,35*73
$GPGSV,5,2,15,22,22,299,39,25,34,041,27,26,47,223,40,29,29,096,28*77
$GPGSV,5,3,15,31,57,330,35,32,67,111,41*79
$GPGSV,5,4,15,03,11,317,25,10,16,181,27,25,34,041,34,26,47,223,28,8*6E
$GPGSV,5,5,15,32,05,,35,8*6B
$GLGSV,3,1,10,67,,157,,68,51,177,,69,68,303,33,70,12,330,16*6D
$GLGSV,3,2,10,78,25,034,28,79,57,332,31,80,28,259,31,81,04,116,*69
$GLGSV,3,3,10,87,01,032,,88,10,075,*68
$BDGSV,3,1,12,201,48,147,,202,35,235,26,203,50,200,37,204,34,123,*61
$BDGSV,3,2,12,205,14,254,24,206,80,084,33,207,72,225,32,209,65,330,32*60
$BDGSV,3,3,12,210,42,226,33,216,82,057,32,219,60,263,38,228,08,062,18*69
$BDGSV,4,4,13,219,,,,7*4B
$QZGSV,2,1,06,193,05,,34,194,73,045,30,195,29,144,22*54
$QZGSV,2,2,06,193,,,26,194,73,045,35,195,29,144,18,8*49
$GAGSV,4,1,12,101,14,236,26,107,27,144,15,119,47,314,31,121,56,255,33*63
$GAGSV,4,2,12,125,05,,,127,59,020,33,131,05,,*62
$GAGSV,4,3,12,101,14,236,30,107,27,144,19,119,47,314,24,121,05,,27,1*42
$GAGSV,4,4,12,127,05,,33,1*47
$GPRMC,084130.00,A,3117.113882,N,12129.835628,E,002.3,308.2,081219,,E,A*10
$GPGGA,084131.00,3117.114392,N,12129.834802,E,1,21,0.7,14.6,M,,M,,*4E
$GNGSA,A,3,3,10,14,16,22,25,26,29,31,32,201,202,1.2,0.7,1.0*11
$GPGSA,A,3,3,10,14,16,22,25,26,29,31,32,,,1.2,0.7,1.0*0C
$GPGSA,A,3,3,10,25,26,32,,,,,,,,1.2,0.7,1.0,8*13
$GLGSA,A,3,69,70,78,79,80,,,,,,,,1.2,0.7,1.0*2A
$BDGSA,A,3,201,202,203,205,206,207,209,210,216,219,228,,1.2,0.7,1.0*1D
$BDGSA,A,3,219,,,,,,,,,,,,1.2,0.7,1.0,7*07
$GAGSA,A,3,101,107,119,121,127,,,,,,,,1.2,0.7,1.0*1F
$GAGSA,A,3,101,107,119,121,127,,,,,,,,1.2,0.7,1.0,1*02
$QZGSA,A,3,193,194,195,,,,,,,,,,1.2,0.7,1.0*11
$PJGSA,A,3,193,194,195,,,,,,,,,,1.2,0.7,1.0*00
$GPGSV,5,1,16,03,11,317,23,04,05,,,10,16,181,27,14,73,355,30*46
$GPGSV,5,2,16,16,19,216,32,22,22,299,39,25,34,041,29,26,47,223,39*7A
$GPGSV,5,3,16,29,29,096,23,31,57,330,36,32,67,111,41*47
$GPGSV,5,4,16,03,11,317,23,10,16,181,26,25,34,041,33,26,47,223,28,8*6D
$GPGSV,5,5,16,32,05,,34,8*69
$GLGSV,3,1,10,67,,157,,68,51,177,,69,68,303,33,70,12,330,15*6E
$GLGSV,3,2,10,78,25,034,28,79,57,332,32,80,28,259,30,81,04,116,*6B
$GLGSV,3,3,10,87,01,032,,88,10,075,*68
$BDGSV,3,1,12,201,48,147,31,202,35,235,17,203,50,200,36,204,34,123,*60
$BDGSV,3,2,12,205,14,254,25,206,80,084,33,207,72,225,32,209,65,330,32*61
$BDGSV,3,3,12,210,42,226,31,216,82,057,32,219,60,263,38,228,08,062,16*65
$BDGSV,4,4,13,219,,,,7*4B
$QZGSV,2,1,06,193,05,,36,194,73,045,31,195,29,144,20*55
$QZGSV,2,2,06,193,,,27,194,73,045,35,195,29,144,19,8*49
$GAGSV,4,1,12,101,14,236,28,107,27,144,14,119,47,314,33,121,56,255,35*68
$GAGSV,4,2,12,125,05,,,127,59,020,36,131,05,,*67
$GAGSV,4,3,12,101,14,236,32,107,27,144,19,119,47,314,25,121,05,,29,1*4F
$GAGSV,4,4,12,127,05,,36,1*42
$GPRMC,084131.00,A,3117.114392,N,12129.834802,E,002.6,296.0,081219,,E,A*1A
$GPGGA,084132.00,3117.114753,N,12129.833827,E,1,22,0.7,14.4,M,,M,,*45
$GNGSA,A,3,3,10,14,16,22,25,26,29,31,32,201,202,1.2,0.7,1.0*11
$GPGSA,A,3,3,10,14,16,22,25,26,29,31,32,,,1.2,0.7,1.0*0C
$GPGSA,A,3,3,10,25,26,32,,,,,,,,1.2,0.7,1.0,8*13
$GLGSA,A,3,69,70,78,79,80,,,,,,,,1.2,0.7,1.0*2A
$BDGSA,A,3,201,202,203,205,206,207,209,210,216,219,228,,1.2,0.7,1.0*1D
$BDGSA,A,3,219,,,,,,,,,,,,1.2,0.7,1.0,7*07
$GAGSA,A,3,101,107,119,121,127,,,,,,,,1.2,0.7,1.0*1F
$GAGSA,A,3,101,107,119,121,127,,,,,,,,1.2,0.7,1.0,1*02
$QZGSA,A,3,193,194,195,,,,,,,,,,1.2,0.7,1.0*11
$PJGSA,A,3,193,194,195,,,,,,,,,,1.2,0.7,1.0*00
$GPGSV,5,1,16,03,11,317,23,04,05,,,10,16,181,26,14,73,355,31*46
$GPGSV,5,2,16,16,19,216,28,22,22,299,40,25,34,041,32,26,47,223,37*7B
$GPGSV,5,3,16,29,29,096,23,31,57,330,34,32,67,111,41*45
$GPGSV,5,4,16,03,11,317,22,10,16,181,27,25,34,041,35,26,47,223,29,8*6A
$GPGSV,5,5,16,32,05,,34,8*69
$GLGSV,3,1,09,67,,157,,69,68,303,32,70,12,330,15,73,05,,*5D
$GLGSV,3,2,09,78,25,034,27,79,57,332,31,80,28,259,29,81,04,116,*67
$GLGSV,3,3,09,87,01,032,*53
$BDGSV,3,1,12,201,48,147,27,202,35,235,19,203,50,200,36,204,34,123,*69
$BDGSV,3,2,12,205,14,254,28,206,80,084,34,207,72,225,33,209,65,330,31*69
$BDGSV,3,3,12,210,42,226,33,216,82,057,33,219,60,263,38,228,08,062,15*65
$BDGSV,4,4,13,219,,,,7*4B
$QZGSV,2,1,06,193,05,,36,194,73,045,33,195,29,144,26*51
$QZGSV,2,2,06,193,,,26,194,73,045,34,195,29,144,21,8*42
$GAGSV,4,1,12,101,14,236,27,107,27,144,14,119,47,314,31,121,56,255,33*63
$GAGSV,4,2,12,125,05,,,127,59,020,36,131,05,,*67
$GAGSV,4,3,12,101,14,236,31,107,27,144,20,119,47,314,28,121,05,,29,1*4B
$GAGSV,4,4,12,127,05,,34,1*40
$GPRMC,084132.00,A,3117.114753,N,12129.833827,E,002.6,288.7,081219,,E,A*18
$GPGGA,084133.00,3117.115158,N,12129.832702,E,1,22,0.7,14.2,M,,M,,*47
$GNGSA,A,3,3,10,14,16,22,25,26,29,31,32,201,202,1.2,0.7,1.0*11
$GPGSA,A,3,3,10,14,16,22,25,26,29,31,32,,,1.2,0.7,1.0*0C
$GPGSA,A,3,3,10,25,26,32,,,,,,,,1.2,0.7,1.0,8*13
$GLGSA,A,3,69,70,78,79,80,,,,,,,,1.2,0.7,1.0*2A
$BDGSA,A,3,201,202,203,205,206,207,209,210,216,219,228,,1.2,0.7,1.0*1D
$BDGSA,A,3,,,,,,,,,,,,,1.2,0.7,1.0,7*3D
$GAGSA,A,3,101,107,119,121,127,,,,,,,,1.2,0.7,1.0*1F
$GAGSA,A,3,101,107,119,121,127,,,,,,,,1.2,0.7,1.0,1*02
$QZGSA,A,3,193,194,195,,,,,,,,,,1.2,0.7,1.0*11
$PJGSA,A,3,193,194,195,,,,,,,,,,1.2,0.7,1.0*00
$GPGSV,5,1,16,03,11,317,25,04,05,,,10,16,181,28,14,73,355,31*4E
$GPGSV,5,2,16,16,19,216,30,22,22,299,41,25,34,041,35,26,47,223,40*74
$GPGSV,5,3,16,29,29,096,24,31,57,330,35,32,67,111,42*40
$GPGSV,5,4,16,03,11,317,19,10,16,181,29,25,34,041,39,26,47,223,30,8*68
$GPGSV,5,5,16,32,05,,34,8*69
$GLGSV,3,1,10,67,,157,,69,68,303,33,70,12,330,13,73,05,,*52
