$PGLOR,1,AGC,G,-15.2,R,-27.7,B,-23.6*55
$GPGGA,121533.50,3116.350698,N,12114.300343,E,1,12,1.6,34.2,M,9.2,M,,*60
$PGLOR,9,STA,121533.50,-1.148,0.500,-328,98,16,0,P,F,L,0,C,2,S,00100002,0,3,R,00000000,TPeF,20,4124,LC,,,*20
$PGLOR,1,UNC,121533.50,500000.024,16.0,14.4,0.23,0.96,11.3,11.3,0.0*14
$PGLOR,2,SAT,6,1,G27,30,17,Q03,21,17,Q02,18,13,G08,29,17,G16,25,17,R09,28,17*29
$PGLOR,2,SAT,6,2,G23,28,17,R16,14,10,G09,34,17,G26,19,13,R18,32,17,G31,16,13*37
$PGLOR,2,SAT,6,3,R07,28,17,G21,23,17,G07,37,17,Q01,20,11,G11,22,17,R19,,10*27
$PGLOR,2,SAT,6,4,B27,,10,R06,,30,B30,,0,E30,,0,B03,,0,B01,,0*24
$PGLOR,2,SAT,6,5,B10,,0,E02,,0,E36,,0,B04,,0,B02,,0,B16,,0*36
$PGLOR,2,SAT,6,6,B06,,0,E07,,0,E08,,0,B08,,0,B29,,0,E15,,0*3B
$PGLOR,1,SVC,GPS,3,1,10,008,FFUS,FFUS,016,FFUS,FFUS,023,FFUS,FFUS,027,FFUS,FFUS*7D
$PGLOR,1,SVC,GPS,3,2,10,009,FFUS,FFUS,021,UNKN,UNKN,026,CLIN,CLIN,031,FFUS,FFUS*79
$PGLOR,1,SVC,GPS,3,3,10,007,FFUS,FFUS,011,FFUS,FFUS*73
$PGLOR,1,SVC,GLO,2,1,06,056,FFUS,FFUS,057,UNKN,UNKN,058,FFUS,FFUS,064,FFUS,FFUS*7E
$PGLOR,1,SVC,GLO,2,2,06,055,CLIN,CLIN,062,CLIN,CLIN*77
$PGLOR,1,SVC,QZS,1,1,03,066,FFUS,FFUS,067,UNKN,UNKN,068,UNKN,UNKN*79
$PGLOR,1,SVC,BDS,3,1,11,081,CLIN,CLIN,083,CLIN,CLIN,107,CLIN,CLIN,110,CLIN,CLIN*62
$PGLOR,1,SVC,BDS,3,2,11,082,CLIN,CLIN,084,CLIN,CLIN,090,CLIN,CLIN,096,CLIN,CLIN*65
$PGLOR,1,SVC,BDS,3,3,11,086,CLIN,CLIN,088,CLIN,CLIN,109,CLIN,CLIN*7E
$PGLOR,1,SVC,GAL,2,1,06,119,CLIN,CLIN,124,CLIN,CLIN,147,CLIN,CLIN,153,CLIN,CLIN*75
$PGLOR,1,SVC,GAL,2,2,06,125,CLIN,CLIN,132,CLIN,CLIN*7B
$PGLOR,2,SIO,TxERR,0,RxERR,0,TxCNT,1302,RxCNT,5525,MLFRMPKT,0,DTMS,1012,DTIN,47,61,DTOUT,14,962,HATMD,72*29
$PGLOR,1,HLA,121533.50,L,,Al,,A,,H,,,M,0,Ac,0,Gr,0,S,,,Sx,,,T,0,Tr,,Mn,,Ap,,Ta,0,,*31
$PGLOR,0,LSQ,121533.50,,,,,,,,,,,,,,,,00*38
$PGLOR,4,PWR,mA,51.6,RFTm,1002,OscTm,1002,MeasTm,1002,UTC,121533.50,GNSSmA,52,CPUTm,222,COPTm,65,SrchTm,577,TrkTm,8,RpcT
$GPGSV,3,1,10,27,83,030,34,08,59,225,30,16,47,038,26,23,41,249,29*79
$GPGSV,3,2,10,09,35,283,35,26,30,065,23,31,15,128,19,21,13,048,28*7E
$GPGSV,3,3,10,07,13,315,41,11,08,201,25*73
$GLGSV,2,1,06,73,45,345,31,80,40,079,14,82,27,033,34,71,15,257,32*69
$GLGSV,2,2,06,83,67,088,,70,01,212,*6E
$QZGSV,1,1,03,03,72,113,25,02,69,076,23,01,08,170,20*54
$BDGSV,3,1,11,227,47,053,,230,67,176,,203,51,200,,201,49,146,*62
$BDGSV,3,2,11,210,49,302,,204,35,123,,202,35,234,,216,34,200,*65
$BDGSV,3,3,11,206,33,195,,208,19,168,,229,17,208,*69
$GAGSV,2,1,06,130,52,331,,102,47,061,,136,37,060,,107,26,270,*6F
$GAGSV,2,2,06,108,21,215,,115,17,186,*6E
$GPGSA,A,3,07,08,09,11,16,21,23,27,,,,,1.4,0.9,1.0*39
$GNGSA,A,3,07,08,09,11,16,21,23,27,,,,,1.4,0.9,1.0*27
$GNGSA,A,3,71,73,82,,,,,,,,,,1.4,0.9,1.0*29
$QZGSA,A,3,03,,,,,,,,,,,,1.4,0.9,1.0*20
$IMGSA,A,3,,,,,,,,,,,,,1.4,0.9,1.0*2C
$BDGSA,A,3,,,,,,,,,,,,,1.4,0.9,1.0*2E
$GAGSA,A,3,,,,,,,,,,,,,1.4,0.9,1.0*2E
$PGLOR,1,FIX,1.0,1.0*20
$GPRMC,121533.50,A,3116.350698,N,12114.300343,E,021.4,,161219,,,A*7D
$PGLOR,1,AGC,G,-16.0,R,-27.8,B,-23.6*5B
$GPGGA,121534.50,3116.350512,N,12114.308283,E,1,12,1.6,33.7,M,9.2,M,,*61
$PGLOR,9,STA,121534.50,-1.137,0.500,-335,98,16,0,P,F,L,0,C,2,S,00100002,0,3,R,00000000,TPeF,20,5124,LC,,,*22
$PGLOR,1,UNC,121534.50,500000.024,16.0,49.4,0.12,0.50,11.3,11.3,0.0*13
$PGLOR,2,SAT,6,1,G27,37,17,Q03,24,17,Q02,28,17,G08,32,17,G16,36,17,R09,38,17*25
$PGLOR,2,SAT,6,2,G23,29,17,R16,22,17,G09,38,17,G26,34,17,R18,34,17,G31,17,13*34
$PGLOR,2,SAT,6,3,R07,30,17,G21,29,13,G07,44,13,Q01,25,13,G11,25,13,R19,,10*24
$PGLOR,2,SAT,6,4,B27,,10,R06,,30,B30,,0,E30,,0,B03,,0,B01,,0*24
$PGLOR,2,SAT,6,5,B10,,0,E02,,0,E36,,0,B04,,0,B02,,0,B16,,0*36
$PGLOR,2,SAT,6,6,B06,,0,E07,,0,E08,,0,B08,,0,B29,,0,E15,,0*3B
$PGLOR,1,SVC,GPS,3,1,10,008,FFUS,FFUS,016,FFUS,FFUS,023,FFUS,FFUS,027,FFUS,FFUS*7D
$PGLOR,1,SVC,GPS,3,2,10,009,FFUS,FFUS,021,UNKN,UNKN,026,UNKN,UNKN,031,FFUS,FFUS*79
$PGLOR,1,SVC,GPS,3,3,10,007,FFUS,FFUS,011,FFUS,FFUS*73
$PGLOR,1,SVC,GLO,2,1,06,056,FFUS,FFUS,057,CLIN,CLIN,058,FFUS,FFUS,064,FFUS,FFUS*7E
$PGLOR,1,SVC,GLO,2,2,06,055,CLIN,CLIN,062,CLIN,CLIN*77
$PGLOR,1,SVC,QZS,1,1,03,066,FFUS,FFUS,067,UNKN,UNKN,068,UNKN,LOME*6C
$PGLOR,1,SVC,BDS,3,1,11,081,CLIN,CLIN,083,CLIN,CLIN,107,CLIN,CLIN,110,CLIN,CLIN*62
$PGLOR,1,SVC,BDS,3,2,11,082,CLIN,CLIN,084,CLIN,CLIN,090,CLIN,CLIN,096,CLIN,CLIN*65
$PGLOR,1,SVC,BDS,3,3,11,086,CLIN,CLIN,088,CLIN,CLIN,109,CLIN,CLIN*7E
$PGLOR,1,SVC,GAL,2,1,06,119,CLIN,CLIN,124,CLIN,CLIN,147,CLIN,CLIN,153,CLIN,CLIN*75
$PGLOR,1,SVC,GAL,2,2,06,125,CLIN,CLIN,132,CLIN,CLIN*7B
$PGLOR,2,SIO,TxERR,0,RxERR,0,TxCNT,537,RxCNT,5169,MLFRMPKT,0,DTMS,1006,DTIN,45,53,DTOUT,14,927,HATMD,78*19
$PGLOR,1,HLA,121534.50,L,,Al,,A,,H,,,M,0,Ac,0,Gr,0,S,,,Sx,,,T,0,Tr,,Mn,,Ap,,Ta,0,,*36
$PGLOR,0,LSQ,121534.50,,,,,,,,,,,,,,,,00*3F
$PGLOR,4,PWR,mA,35.4,RFTm,997,OscTm,997,MeasTm,997,UTC,121534.50,GNSSmA,35,CPUTm,179,COPTm,63,SrchTm,154,TrkTm,8,RpcTm,9
$GPGSV,3,1,10,27,83,030,37,08,59,225,32,16,47,038,36,23,41,249,29*79
$GPGSV,3,2,10,09,35,283,38,26,30,065,34,31,15,128,19,21,13,048,29*74
$GPGSV,3,3,10,07,13,315,44,11,08,201,25*76
$GLGSV,2,1,06,73,45,345,38,80,40,079,22,82,27,033,34,71,15,257,32*65
$GLGSV,2,2,06,83,67,088,,70,01,212,*6E
$QZGSV,1,1,03,03,72,113,25,02,69,076,28,01,08,170,25*5A
$BDGSV,3,1,11,227,47,053,,230,67,176,,203,51,200,,201,49,146,*62
$BDGSV,3,2,11,210,49,302,,204,35,123,,202,35,234,,216,34,200,*65
$BDGSV,3,3,11,206,33,195,,208,19,168,,229,17,208,*69
$GAGSV,2,1,06,130,52,331,,102,47,061,,136,37,060,,107,26,270,*6F
$GAGSV,2,2,06,108,21,215,,115,17,186,*6E
$GPGSA,A,3,08,09,16,23,26,27,,,,,,,2.6,1.3,2.2*32
$GNGSA,A,3,08,09,16,23,26,27,,,,,,,2.6,1.3,2.2*2C
$GNGSA,A,3,71,73,80,82,,,,,,,,,2.6,1.3,2.2*2A
$QZGSA,A,3,02,03,,,,,,,,,,,2.6,1.3,2.2*29
$IMGSA,A,3,,,,,,,,,,,,,2.6,1.3,2.2*27
$BDGSA,A,3,,,,,,,,,,,,,2.6,1.3,2.2*25
$GAGSA,A,3,,,,,,,,,,,,,2.6,1.3,2.2*25
$PGLOR,1,FIX,1.0,1.0*20
$GPRMC,121534.50,A,3116.350512,N,12114.308283,E,023.2,,161219,,,A*7A
$PGLOR,1,AGC,G,-16.3,R,-27.6,B,-24.2*55
$GPGGA,121535.50,3116.349371,N,12114.316165,E,1,12,1.6,30.6,M,9.2,M,,*6D
$PGLOR,9,STA,121535.50,-1.144,0.500,-335,98,16,0,P,F,L,0,C,2,S,00100002,0,3,R,00000000,TPeF,20,6124,LC,,,*24
$PGLOR,1,UNC,121535.50,500000.024,16.0,19.0,0.12,0.46,11.3,11.3,0.0*14
$PGLOR,2,SAT,6,1,G27,34,17,Q03,28,17,Q02,30,17,G08,31,17,G16,38,17,R09,42,17*23
$PGLOR,2,SAT,6,2,G23,29,17,R16,24,17,G09,38,17,G26,33,17,R18,33,17,G31,18,13*3D
$PGLOR,2,SAT,6,3,R07,29,17,G21,36,13,G07,44,13,Q01,25,13,G11,26,13,R19,,10*21
$PGLOR,2,SAT,6,4,B27,,10,R06,,30,B30,,0,E30,,0,B03,,0,B01,,0*24
$PGLOR,2,SAT,6,5,B10,,0,E02,,0,E36,,0,B04,,0,B02,,0,B16,,0*36
$PGLOR,2,SAT,6,6,B06,,0,E07,,0,E08,,0,B08,,0,B29,,0,E15,,0*3B
$PGLOR,1,SVC,GPS,3,1,10,008,FFUS,FFUS,016,FFUS,FFUS,023,FFUS,FFUS,027,FFUS,FFUS*7D
$PGLOR,1,SVC,GPS,3,2,10,009,FFUS,FFUS,021,FFUS,FFUS,026,UNKN,UNKN,031,UNKN,UNKN*79
$PGLOR,1,SVC,GPS,3,3,10,007,UNKN,UNKN,011,UNKN,UNKN*73
$PGLOR,1,SVC,GLO,2,1,06,056,FFUS,FFUS,057,FFUS,FFUS,058,FFUS,FFUS,064,FFUS,FFUS*7E
$PGLOR,1,SVC,GLO,2,2,06,055,CLIN,CLIN,062,CLIN,CLIN*77
$PGLOR,1,SVC,QZS,1,1,03,066,FFUS,FFUS,067,FFUS,FFUS,068,UNKN,UNKN*79
$PGLOR,1,SVC,BDS,3,1,11,081,CLIN,CLIN,083,CLIN,CLIN,107,CLIN,CLIN,110,CLIN,CLIN*62
$PGLOR,1,SVC,BDS,3,2,11,082,CLIN,CLIN,084,CLIN,CLIN,090,CLIN,CLIN,096,CLIN,CLIN*65
$PGLOR,1,SVC,BDS,3,3,11,086,CLIN,CLIN,088,CLIN,CLIN,109,CLIN,CLIN*7E
$PGLOR,1,SVC,GAL,2,1,06,119,CLIN,CLIN,124,CLIN,CLIN,147,CLIN,CLIN,153,CLIN,CLIN*75
$PGLOR,1,SVC,GAL,2,2,06,125,CLIN,CLIN,132,CLIN,CLIN*7B
$PGLOR,2,SIO,TxERR,0,RxERR,0,TxCNT,448,RxCNT,5252,MLFRMPKT,0,DTMS,1015,DTIN,59,69,DTOUT,14,936,HATMD,93*18
$PGLOR,1,HLA,121535.50,L,,Al,,A,,H,,,M,0,Ac,0,Gr,0,S,,,Sx,,,T,0,Tr,,Mn,,Ap,,Ta,0,,*37
$PGLOR,0,LSQ,121535.50,,,,,,,,,,,,,,,,00*3E
$PGLOR,4,PWR,mA,32.2,RFTm,1003,OscTm,1003,MeasTm,1003,UTC,121535.50,GNSSmA,32,CPUTm,177,COPTm,68,SrchTm,66,TrkTm,8,RpcTm
$GPGSV,3,1,10,27,83,030,36,08,59,225,32,16,47,038,38,23,41,249,29*76
$GPGSV,3,2,10,09,35,283,38,26,30,065,34,31,15,128,19,21,13,048,36*7A
$GPGSV,3,3,10,07,13,315,44,11,08,201,26*75
$GLGSV,2,1,06,73,45,345,42,80,40,079,24,82,27,033,34,71,15,257,32*6E
$GLGSV,2,2,06,83,67,088,,70,01,212,*6E
$QZGSV,1,1,03,03,72,113,28,02,69,076,30,01,08,170,25*5E
$BDGSV,3,1,11,227,47,053,,230,67,176,,203,51,200,,201,49,146,*62
$BDGSV,3,2,11,210,49,302,,204,35,123,,202,35,234,,216,34,200,*65
$BDGSV,3,3,11,206,33,195,,208,19,168,,229,17,208,*69
$GAGSV,2,1,06,130,52,331,,102,47,061,,136,37,060,,107,26,270,*6F
$GAGSV,2,2,06,108,21,215,,115,17,186,*6E
$GPGSA,A,3,08,09,16,23,26,27,,,,,,,2.6,1.3,2.2*32
$GNGSA,A,3,08,09,16,23,26,27,,,,,,,2.6,1.3,2.2*2C
$GNGSA,A,3,71,73,80,82,,,,,,,,,2.6,1.3,2.2*2A
$QZGSA,A,3,02,03,,,,,,,,,,,2.6,1.3,2.2*29
$IMGSA,A,3,,,,,,,,,,,,,2.6,1.3,2.2*27
$BDGSA,A,3,,,,,,,,,,,,,2.6,1.3,2.2*25
$GAGSA,A,3,,,,,,,,,,,,,2.6,1.3,2.2*25
$PGLOR,1,FIX,1.0,1.0*20
$GPRMC,121535.50,A,3116.349371,N,12114.316165,E,024.3,,161219,,,A*72
$PGLOR,1,AGC,G,-16.9,R,-27.7,B,-24.0*5C
$GPGGA,121536.50,3116.347569,N,12114.324923,E,1,10,1.6,30.1,M,9.2,M,,*61
$PGLOR,9,STA,121536.50,-1.147,0.001,-335,98,16,0,P,F,L,0,C,3,S,00100002,0,3,R,00000000,TPeF,20,7124,LC,,,*20
$PGLOR,1,UNC,121536.50,1011.000,16.0,49.1,0.10,0.36,11.3,11.3,0.0*14
$PGLOR,2,SAT,6,1,G27,36,17,Q03,28,17,Q02,31,17,G08,33,17,G16,40,17,R09,44,17*2B
$PGLOR,2,SAT,6,2,G23,29,17,R16,24,17,G09,35,17,G26,35,17,R18,33,13,G31,17,13*3D
$PGLOR,2,SAT,6,3,R07,25,13,G21,38,13,G07,41,13,Q01,24,13,G11,25,13,R19,,10*20
$PGLOR,2,SAT,6,4,B27,,10,R06,,30,B30,,0,E30,,0,B03,,0,B01,,0*24
$PGLOR,2,SAT,6,5,B10,,0,E02,,0,E36,,0,B04,,0,B02,,0,B16,,0*36
$PGLOR,2,SAT,6,6,B06,,0,E07,,0,E08,,0,B08,,0,B29,,0,E15,,0*3B
$PGLOR,1,SVC,GPS,3,1,10,008,FFUS,FFUS,016,FFUS,FFUS,023,FFUS,FFUS,027,FFUS,FFUS*7D
$PGLOR,1,SVC,GPS,3,2,10,009,FFUS,FFUS,021,FFUS,FFUS,026,UNKN,UNKN,031,UNKN,UNKN*79
$PGLOR,1,SVC,GPS,3,3,10,007,UNKN,UNKN,011,UNKN,UNKN*73
$PGLOR,1,SVC,GLO,2,1,06,056,FFUS,FFUS,057,FFUS,FFUS,058,FFUS,FFUS,064,FFUS,FFUS*7E
$PGLOR,1,SVC,GLO,2,2,06,055,CLIN,CLIN,062,CLIN,CLIN*77
$PGLOR,1,SVC,QZS,1,1,03,066,FFUS,FFUS,067,FFUS,FFUS,068,UNKN,UNKN*79
$PGLOR,1,SVC,BDS,3,1,11,081,CLIN,CLIN,083,CLIN,CLIN,107,CLIN,CLIN,110,CLIN,CLIN*62
$PGLOR,1,SVC,BDS,3,2,11,082,CLIN,CLIN,084,CLIN,CLIN,090,CLIN,CLIN,096,CLIN,CLIN*65
$PGLOR,1,SVC,BDS,3,3,11,086,CLIN,CLIN,088,CLIN,CLIN,109,CLIN,CLIN*7E
$PGLOR,1,SVC,GAL,2,1,06,119,CLIN,CLIN,124,CLIN,CLIN,147,CLIN,CLIN,153,CLIN,CLIN*75
$PGLOR,1,SVC,GAL,2,2,06,125,CLIN,CLIN,132,CLIN,CLIN*7B
$PGLOR,2,SIO,TxERR,0,RxERR,0,TxCNT,430,RxCNT,5224,MLFRMPKT,0,DTMS,1019,DTIN,75,82,DTOUT,12,914,HATMD,112*2F
$PGLOR,1,HLA,121536.50,L,,Al,,A,,H,,,M,0,Ac,0,Gr,0,S,,,Sx,,,T,0,Tr,,Mn,,Ap,,Ta,0,,*34
$PGLOR,0,LSQ,121536.50,,,,,,,,,,,,,,,,00*3D
$PGLOR,4,PWR,mA,32.2,RFTm,998,OscTm,998,MeasTm,998,UTC,121536.50,GNSSmA,32,CPUTm,181,COPTm,67,SrchTm,66,TrkTm,7,RpcTm,98
$GPGSV,3,1,10,27,83,030,36,08,59,225,33,16,47,038,40,23,41,249,29*78
$GPGSV,3,2,10,09,35,283,38,26,30,065,35,31,15,128,19,21,13,048,38*75
$GPGSV,3,3,10,07,13,315,44,11,08,201,26*75
$GLGSV,2,1,06,73,45,345,44,80,40,079,24,82,27,033,34,71,15,257,31*6B
$GLGSV,2,2,06,83,67,088,,70,01,212,*6E
$QZGSV,1,1,03,03,72,113,28,02,69,076,31,01,08,170,25*5F
$BDGSV,3,1,11,227,47,053,,230,67,176,,203,51,200,,201,49,146,*62
$BDGSV,3,2,11,210,49,302,,204,35,123,,202,35,234,,216,34,200,*65
$BDGSV,3,3,11,206,33,195,,208,19,168,,229,17,208,*69
$GAGSV,2,1,06,130,52,331,,102,47,061,,136,37,060,,107,26,270,*6F
$GAGSV,2,2,06,108,21,215,,115,17,186,*6E
$GPGSA,A,3,08,09,16,23,26,27,,,,,,,2.5,1.3,2.1*32
$GNGSA,A,3,08,09,16,23,26,27,,,,,,,2.5,1.3,2.1*2C
$GNGSA,A,3,73,80,,,,,,,,,,,2.5,1.3,2.1*26
$QZGSA,A,3,02,03,,,,,,,,,,,2.5,1.3,2.1*29
$IMGSA,A,3,,,,,,,,,,,,,2.5,1.3,2.1*27
$BDGSA,A,3,,,,,,,,,,,,,2.5,1.3,2.1*25
$GAGSA,A,3,,,,,,,,,,,,,2.5,1.3,2.1*25
$PGLOR,1,FIX,1.0,1.0*20
$GPRMC,121536.50,A,3116.347569,N,12114.324923,E,024.6,,161219,,,A*7E
$PGLOR,1,AGC,G,-16.8,R,-27.7,B,-24.2*5F
$GPGGA,121537.50,3116.343024,N,12114.337095,E,1,17,1.6,17.0,M,9.2,M,,*6D
$PGLOR,9,STA,121537.50,-1.147,0.000,-335,98,16,0,P,F,L,0,C,3,S,00100002,0,4,R,000833F4,TPeF,20,8124,LC,,3,*61
$PGLOR,1,UNC,121537.50,0.048,16.0,56.0,0.19,1.00,11.3,11.3,0.0*2A
$PGLOR,2,SAT,6,1,G27,33,1F,Q03,28,1F,Q02,30,1F,G08,37,17,G16,37,1F,R09,40,1F*5E
$PGLOR,2,SAT,6,2,G23,30,1F,R16,24,1F,G09,32,17,G26,35,1F,R18,34,1F,G31,17,13*31
$PGLOR,2,SAT,6,3,R07,22,13,G21,38,1B,G07,42,1F,Q01,20,13,G11,21,13,R19,,10*20
$PGLOR,2,SAT,6,4,B27,,10,R06,,30,B30,,0,E30,,0,B03,,0,B01,,0*24
$PGLOR,2,SAT,6,5,B10,,0,E02,,0,E36,,0,B04,,0,B02,,0,B16,,0*36
$PGLOR,2,SAT,6,6,B06,,0,E07,,0,E08,,0,B08,,0,B29,,0,E15,,0*3B
$PGLOR,1,SVC,GPS,3,1,10,008,FFUS,FFUS,016,FFUS,FFUS,023,FFUS,FFUS,027,FFUS,FFUS*7D
$PGLOR,1,SVC,GPS,3,2,10,009,FFUS,FFUS,021,FFUS,FFUS,026,UNKN,UNKN,031,UNKN,UNKN*79
$PGLOR,1,SVC,GPS,3,3,10,007,UNKN,UNKN,011,UNKN,UNKN*73
$PGLOR,1,SVC,GLO,2,1,06,056,FFUS,FFUS,057,FFUS,FFUS,058,UNKN,UNKN,064,UNKN,UNKN*7E
$PGLOR,1,SVC,GLO,2,2,06,055,CLIN,CLIN,062,CLIN,CLIN*77
$PGLOR,1,SVC,QZS,1,1,03,066,FFUS,FFUS,067,FFUS,FFUS,068,UNKN,UNKN*79
$PGLOR,1,SVC,BDS,3,1,11,081,CLIN,CLIN,083,CLIN,CLIN,107,CLIN,CLIN,110,CLIN,CLIN*62
$PGLOR,1,SVC,BDS,3,2,11,082,CLIN,CLIN,084,CLIN,CLIN,090,CLIN,CLIN,096,CLIN,CLIN*65
$PGLOR,1,SVC,BDS,3,3,11,086,CLIN,CLIN,088,CLIN,CLIN,109,CLIN,CLIN*7E
$PGLOR,1,SVC,GAL,2,1,06,119,CLIN,CLIN,124,CLIN,CLIN,147,CLIN,CLIN,153,CLIN,CLIN*75
$PGLOR,1,SVC,GAL,2,2,06,125,CLIN,CLIN,132,CLIN,CLIN*7B
$PGLOR,2,SIO,TxERR,0,RxERR,0,TxCNT,939,RxCNT,5396,MLFRMPKT,0,DTMS,942,DTIN,102,117,DTOUT,15,884,HATMD,54*25
$PGLOR,1,HLA,121537.50,L,,Al,,A,,H,,,M,0,Ac,0,Gr,0,S,,,Sx,,,T,0,Tr,,Mn,,Ap,,Ta,0,,*35
$PGLOR,2,CTX,121537.50,E,1,0,,,V,0,1,S,,,*7F
$PGLOR,4,PWR,mA,31.9,RFTm,1000,OscTm,1000,MeasTm,1000,UTC,121537.50,GNSSmA,32,CPUTm,174,COPTm,65,SrchTm,55,TrkTm,10,RpcT
$PGLOR,2,PFM,HAL,-,0,0,0,0,RF,-,-180,40.0,0,RTC,,P,STO,P,LTO,P,SW,P,,,OSC,,,*41
$GPGSV,3,1,10,27,83,030,36,08,59,226,37,16,47,038,40,23,41,249,30*77
$GPGSV,3,2,10,09,35,283,37,26,30,065,35,31,15,128,19,21,13,048,38*7A
$GPGSV,3,3,10,07,13,315,44,11,08,201,26*75
$GLGSV,2,1,06,73,45,345,43,80,40,079,24,82,27,033,34,71,15,257,30*6D
$GLGSV,2,2,06,83,67,088,,70,01,212,*6E
$QZGSV,1,1,03,03,72,113,28,02,69,076,31,01,08,170,24*5E
$BDGSV,3,1,11,227,47,053,,230,67,176,,203,51,200,,201,49,146,*62
$BDGSV,3,2,11,210,49,302,,204,35,123,,202,35,234,,216,34,200,*65
$BDGSV,3,3,11,206,33,195,,208,19,168,,229,17,208,*69
$GAGSV,2,1,06,130,52,331,,102,47,061,,136,37,060,,107,26,270,*6F
$GAGSV,2,2,06,108,21,215,,115,17,186,*6E
$GPGSA,A,3,07,08,09,11,16,21,23,26,27,31,,,2.2,1.2,1.8*38
$GNGSA,A,3,07,08,09,11,16,21,23,26,27,31,,,2.2,1.2,1.8*26
$GNGSA,A,3,71,73,80,82,,,,,,,,,2.2,1.2,1.8*26
$QZGSA,A,3,01,02,03,,,,,,,,,,2.2,1.2,1.8*24
$IMGSA,A,3,,,,,,,,,,,,,2.2,1.2,1.8*2B
$BDGSA,A,3,,,,,,,,,,,,,2.2,1.2,1.8*29
$GAGSA,A,3,,,,,,,,,,,,,2.2,1.2,1.8*29
$PGLOR,1,FIX,1.0,1.0*20
$GPRMC,121537.50,A,3116.343024,N,12114.337095,E,024.6,,161219,,,A*71
$PGLOR,1,AGC,G,-16.8,R,-27.6,B,-24.0*5C
$GPGGA,121538.50,3116.343661,N,12114.343702,E,1,18,1.6,15.4,M,9.2,M,,*66
$PGLOR,9,STA,121538.50,-1.147,0.000,-286,2,16,0,P,F,L,0,C,3,S,00100002,10,5,R,000833F4,TPeF,20,9124,LC,,,*56
$PGLOR,1,UNC,121538.50,0.038,16.0,43.3,0.32,1.00,11.3,11.3,0.0*2C
$PGLOR,2,SAT,6,1,G27,33,1F,Q03,29,1F,Q02,28,1F,R19,19,10,G08,37,17,G16,33,1F*29
$PGLOR,2,SAT,6,2,R09,35,1F,G23,29,17,R16,28,1F,G09,32,17,G26,31,1F,R18,36,1B*2D
$PGLOR,2,SAT,6,3,G31,16,1B,R07,20,13,G21,34,1F,G07,42,1F,Q01,18,13,G11,19,13*40
$PGLOR,2,SAT,6,4,B27,,10,R06,,30,B30,,0,E30,,0,B03,,0,B01,,0*24
$PGLOR,2,SAT,6,5,B10,,0,E02,,0,E36,,0,B04,,0,B02,,0,B16,,0*36
$PGLOR,2,SAT,6,6,B06,,0,E07,,0,E08,,0,B08,,0,B29,,0,E15,,0*3B
$PGLOR,1,SVC,GPS,3,1,10,008,UNKN,UNKN,016,UNKN,UNKN,023,UNKN,UNKN,027,UNKN,UNKN*7D
$PGLOR,1,SVC,GPS,3,2,10,009,UNKN,UNKN,021,UNKN,UNKN,026,UNKN,UNKN,031,UNKN,UNKN*79
$PGLOR,1,SVC,GPS,3,3,10,007,UNKN,UNKN,011,UNKN,UNKN*73
$PGLOR,1,SVC,GLO,2,1,06,056,UNKN,UNKN,057,UNKN,UNKN,058,UNKN,UNKN,062,UNKN,UNKN*78
$PGLOR,1,SVC,GLO,2,2,06,055,UNKN,UNKN,064,CLIN,CLIN*71
$PGLOR,1,SVC,QZS,1,1,03,066,UNKN,UNKN,067,UNKN,UNKN,068,UNKN,UNKN*79
$PGLOR,1,SVC,BDS,3,1,11,081,CLIN,CLIN,083,CLIN,CLIN,107,CLIN,CLIN,110,CLIN,CLIN*62
$PGLOR,1,SVC,BDS,3,2,11,082,CLIN,CLIN,084,CLIN,CLIN,090,CLIN,CLIN,096,CLIN,CLIN*65
$PGLOR,1,SVC,BDS,3,3,11,086,CLIN,CLIN,088,CLIN,CLIN,109,CLIN,CLIN*7E
$PGLOR,1,SVC,GAL,2,1,06,119,CLIN,CLIN,124,CLIN,CLIN,147,CLIN,CLIN,153,CLIN,CLIN*75
$PGLOR,1,SVC,GAL,2,2,06,125,CLIN,CLIN,132,CLIN,CLIN*7B
$PGLOR,2,SIO,TxERR,0,RxERR,0,TxCNT,1444,RxCNT,5674,MLFRMPKT,0,DTMS,1002,DTIN,44,54,DTOUT,12,950,HATMD,56*2E
$PGLOR,1,HLA,121538.50,L,,Al,,A,,H,,,M,0,Ac,0,Gr,0,S,,,Sx,,,T,0,Tr,,Mn,,Ap,,Ta,0,,*3A
$PGLOR,2,CTX,121538.50,E,1,0,,,V,0,1,S,,,*70
$PGLOR,4,PWR,mA,57.0,RFTm,1001,OscTm,1001,MeasTm,1001,UTC,121538.50,GNSSmA,57,CPUTm,229,COPTm,71,SrchTm,713,TrkTm,10,Rpc
$PGLOR,2,PFM,HAL,-,0,0,0,0,RF,-,-180,18.7,0,RTC,,P,STO,P,LTO,P,SW,P,,,OSC,,,*4B
$GPGSV,3,1,10,27,83,030,36,08,59,226,37,16,47,038,39,23,41,249,30*79
$GPGSV,3,2,10,09,35,283,37,26,30,065,35,31,15,128,18,21,13,048,38*7B
$GPGSV,3,3,10,07,13,315,44,11,08,201,25*76
$GLGSV,2,1,06,83,67,088,19,73,45,345,42,80,40,079,28,82,27,033,36*61
$GLGSV,2,2,06,71,15,257,29,70,01,212,*6D
$QZGSV,1,1,03,03,72,113,29,02,69,076,30,01,08,170,23*59
$BDGSV,3,1,11,227,47,053,,230,67,176,,203,51,200,,201,49,146,*62
$BDGSV,3,2,11,210,49,302,,204,35,123,,202,35,234,,216,34,200,*65
$BDGSV,3,3,11,206,33,195,,208,19,168,,229,17,208,*69
$GAGSV,2,1,06,130,52,331,,102,47,061,,136,37,060,,107,26,270,*6F
$GAGSV,2,2,06,108,21,215,,115,17,186,*6E
$GPGSA,A,3,07,08,09,11,16,21,23,26,27,31,,,2.0,1.2,1.6*34
$GNGSA,A,3,07,08,09,11,16,21,23,26,27,31,,,2.0,1.2,1.6*2A
$GNGSA,A,3,71,73,80,82,83,,,,,,,,2.0,1.2,1.6*21
$QZGSA,A,3,01,02,03,,,,,,,,,,2.0,1.2,1.6*28
$IMGSA,A,3,,,,,,,,,,,,,2.0,1.2,1.6*27
$BDGSA,A,3,,,,,,,,,,,,,2.0,1.2,1.6*25
$GAGSA,A,3,,,,,,,,,,,,,2.0,1.2,1.6*25
$PGLOR,1,FIX,1.0,1.0*20
$GPRMC,121538.50,A,3116.343661,N,12114.343702,E,024.4,,161219,,,A*71
$PGLOR,0,ASN,21,16,1,1,-9999,0035020000C0054D90000E1C510A07D4999036B907E3AD71074DEC42005D00027241650C21163CF6EB1B748B160
$PGLOR,0,ASN,21,16,1,1,-9999,001C020000C0054D90000E1C510A07D4999036B907E3AD71074DEC50*08
$PGLOR,1,AGC,G,-16.7,R,-27.6,B,-24.0*53
$GPGGA,121540.00,3116.340749,N,12114.354893,E,1,18,1.2,17.6,M,9.2,M,,*61
$PGLOR,9,STA,121540.00,-1.147,0.000,-336,1,12,0,P,F,L,0,C,3,S,00100002,29,5,R,000833F4,TPeF,20,10626,LC,,,*66
$PGLOR,1,UNC,121540.00,0.030,12.0,21.8,0.30,1.78,8.5,8.5,0.0*28
$PGLOR,2,SAT,6,1,G27,35,1F,Q03,36,1F,Q02,22,17,R19,15,13,G08,33,1F,G16,33,1F*20
$PGLOR,2,SAT,6,2,R09,40,1F,G23,29,17,R16,30,1F,G09,31,17,G26,33,1F,R18,37,1F*22
$PGLOR,2,SAT,6,3,G31,16,13,R07,21,13,G21,32,1B,G07,39,17,Q01,21,1B,G11,23,1B*4C
$PGLOR,2,SAT,6,4,B27,,10,R06,,30,B30,,0,E30,,0,B03,,0,B01,,0*24
$PGLOR,2,SAT,6,5,B10,,0,E02,,0,E36,,0,B04,,0,B02,,0,B16,,0*36
$PGLOR,2,SAT,6,6,B06,,0,E07,,0,E08,,0,B08,,0,B29,,0,E15,,0*3B
$PGLOR,1,SVC,GPS,3,1,10,008,UNKN,UNKN,016,UNKN,UNKN,023,UNKN,UNKN,027,UNKN,UNKN*7D
$PGLOR,1,SVC,GPS,3,2,10,009,UNKN,UNKN,021,UNKN,UNKN,026,UNKN,UNKN,031,UNKN,UNKN*79
$PGLOR,1,SVC,GPS,3,3,10,007,UNKN,UNKN,011,UNKN,UNKN*73
$PGLOR,1,SVC,GLO,2,1,06,056,CLIN,CLIN,057,UNKN,UNKN,058,UNKN,UNKN,062,UNKN,UNKN*78
$PGLOR,1,SVC,GLO,2,2,06,055,UNKN,UNKN,064,CLIN,CLIN*71
$PGLOR,1,SVC,QZS,1,1,03,066,UNKN,UNKN,067,UNKN,UNKN,068,UNKN,UNKN*79
$PGLOR,1,SVC,BDS,3,1,11,081,CLIN,CLIN,083,CLIN,CLIN,107,CLIN,CLIN,110,CLIN,CLIN*62
$PGLOR,1,SVC,BDS,3,2,11,082,CLIN,CLIN,084,CLIN,CLIN,090,CLIN,CLIN,096,CLIN,CLIN*65
$PGLOR,1,SVC,BDS,3,3,11,086,CLIN,CLIN,088,CLIN,CLIN,109,CLIN,CLIN*7E
$PGLOR,1,SVC,GAL,2,1,06,119,CLIN,CLIN,124,CLIN,CLIN,147,CLIN,CLIN,153,CLIN,CLIN*75
$PGLOR,1,SVC,GAL,2,2,06,125,CLIN,CLIN,132,CLIN,CLIN*7B
$PGLOR,2,SIO,TxERR,0,RxERR,0,TxCNT,1056,RxCNT,5579,MLFRMPKT,0,DTMS,953,DTIN,33,50,DTOUT,13,906,HATMD,46*1C
$PGLOR,1,HLA,121540.00,L,,Al,,A,,H,,,M,0,Ac,0,Gr,0,S,,,Sx,,,T,0,Tr,,Mn,,Ap,,Ta,0,,*30
$PGLOR,2,CTX,121540.00,E,1,0,,,V,0,1,S,,,*7A
$PGLOR,4,PWR,mA,64.9,RFTm,961,OscTm,961,MeasTm,961,UTC,121540.00,GNSSmA,65,CPUTm,246,COPTm,74,SrchTm,881,TrkTm,7,RpcTm,1
$GPGSV,3,1,10,27,83,030,36,08,59,226,37,16,47,038,38,23,41,249,30*78
$GPGSV,3,2,10,09,35,283,36,26,30,065,34,31,15,129,18,21,13,048,37*75
$GPGSV,3,3,10,07,13,315,43,11,08,201,24*70
$GLGSV,2,1,06,83,67,088,18,73,45,345,42,80,40,079,31,82,27,033,38*66
$GLGSV,2,2,06,71,15,257,28,70,01,212,*6C
$QZGSV,1,1,03,03,72,113,34,02,69,076,29,01,08,170,23*5D
$BDGSV,3,1,11,227,47,053,,230,67,176,,203,51,200,,201,49,146,*62
$BDGSV,3,2,11,210,49,302,,204,35,123,,202,35,234,,216,34,200,*65
$BDGSV,3,3,11,206,33,195,,208,19,168,,229,17,208,*69
$GAGSV,2,1,06,130,52,331,,102,47,061,,136,37,060,,107,26,270,*6F
$GAGSV,2,2,06,108,21,215,,115,17,186,*6E
$GPGSA,A,3,07,08,09,11,16,21,23,26,27,31,,,2.2,1.2,1.8*38
$GNGSA,A,3,07,08,09,11,16,21,23,26,27,31,,,2.2,1.2,1.8*26
$GNGSA,A,3,71,73,80,82,83,,,,,,,,2.2,1.2,1.8*2D
$QZGSA,A,3,01,02,03,,,,,,,,,,2.2,1.2,1.8*24
$IMGSA,A,3,,,,,,,,,,,,,2.2,1.2,1.8*2B
$BDGSA,A,3,,,,,,,,,,,,,2.2,1.2,1.8*29
$GAGSA,A,3,,,,,,,,,,,,,2.2,1.2,1.8*29
$PGLOR,1,FIX,1.5,1.5*20
$GPRMC,121540.00,A,3116.340749,N,12114.354893,E,025.2,,161219,,,A*75
$PGLOR,1,AGC,G,-16.4,R,-27.6,B,-24.0*50
$GPGGA,121541.00,3116.338728,N,12114.362655,E,1,18,0.8,17.1,M,9.2,M,,*65
$PGLOR,9,STA,121541.00,-1.147,0.000,-334,1,8,0,P,F,L,0,C,3,S,00100002,41,5,R,000833F4,TPeF,20,11626,LC,,,*51
$PGLOR,1,UNC,121541.00,0.027,8.0,18.3,0.20,1.73,5.7,5.7,0.0*1F
$PGLOR,2,SAT,6,1,G27,36,1F,Q03,35,1F,Q02,20,17,R19,16,1F,G08,32,1F,G16,36,1F*50
$PGLOR,2,SAT,6,2,R09,41,1F,G23,29,1F,R16,30,1F,G09,32,13,G26,33,1F,R18,37,13*20
$PGLOR,2,SAT,6,3,G31,16,13,R07,22,13,G21,32,13,G07,38,1F,Q01,18,1B,G11,28,17*3A
$PGLOR,2,SAT,6,4,B27,,10,R06,,30,B30,,0,E30,,0,B03,,0,B01,,0*24
$PGLOR,2,SAT,6,5,B10,,0,E02,,0,E36,,0,B04,,0,B02,,0,B16,,0*36
$PGLOR,2,SAT,6,6,B06,,0,E07,,0,E08,,0,B08,,0,B29,,0,E15,,0*3B
$PGLOR,1,SVC,GPS,3,1,10,008,UNKN,UNKN,016,UNKN,UNKN,023,UNKN,UNKN,027,UNKN,UNKN*7D
$PGLOR,1,SVC,GPS,3,2,10,009,UNKN,UNKN,021,UNKN,UNKN,026,UNKN,UNKN,031,UNKN,UNKN*79
$PGLOR,1,SVC,GPS,3,3,10,007,UNKN,UNKN,011,UNKN,UNKN*73
$PGLOR,1,SVC,GLO,2,1,06,056,UNKN,UNKN,057,UNKN,UNKN,058,UNKN,UNKN,062,UNKN,UNKN*78
$PGLOR,1,SVC,GLO,2,2,06,055,UNKN,UNKN,064,CLIN,CLIN*71
$PGLOR,1,SVC,QZS,1,1,03,066,UNKN,UNKN,067,UNKN,UNKN,068,UNKN,UNKN*79
$PGLOR,1,SVC,BDS,3,1,11,081,CLIN,CLIN,083,CLIN,CLIN,107,CLIN,CLIN,110,CLIN,CLIN*62
$PGLOR,1,SVC,BDS,3,2,11,082,CLIN,CLIN,084,CLIN,CLIN,090,CLIN,CLIN,096,CLIN,CLIN*65
$PGLOR,1,SVC,BDS,3,3,11,086,CLIN,CLIN,088,CLIN,CLIN,109,CLIN,CLIN*7E
$PGLOR,1,SVC,GAL,2,1,06,119,CLIN,CLIN,124,CLIN,CLIN,147,CLIN,CLIN,153,CLIN,CLIN*75
$PGLOR,1,SVC,GAL,2,2,06,125,CLIN,CLIN,132,CLIN,CLIN*7B
$PGLOR,2,SIO,TxERR,0,RxERR,0,TxCNT,563,RxCNT,5595,MLFRMPKT,0,DTMS,1011,DTIN,27,43,DTOUT,14,965,HATMD,57*17
$PGLOR,1,HLA,121541.00,L,,Al,,A,,H,,,M,0,Ac,0,Gr,0,S,,,Sx,,,T,0,Tr,,Mn,,Ap,,Ta,0,,*31
$PGLOR,2,CTX,121541.00,E,1,0,,,V,0,1,S,,,*7B
$PGLOR,4,PWR,mA,63.0,RFTm,1002,OscTm,1002,MeasTm,1002,UTC,121541.00,GNSSmA,63,CPUTm,205,COPTm,70,SrchTm,881,TrkTm,8,RpcT
$GPGSV,3,1,10,27,83,030,36,08,59,226,36,16,47,038,38,23,41,249,30*79
$GPGSV,3,2,10,09,35,283,36,26,30,065,34,31,15,129,18,21,13,048,36*74
$GPGSV,3,3,10,07,13,315,43,11,08,201,28*7C
$GLGSV,2,1,06,83,67,088,18,73,45,345,41,80,40,079,31,82,27,033,38*65
$GLGSV,2,2,06,71,15,257,27,70,01,212,*63
$QZGSV,1,1,03,03,72,113,35,02,69,076,28,01,08,170,22*5C
$BDGSV,3,1,11,227,47,053,,230,67,176,,203,51,200,,201,49,146,*62
$BDGSV,3,2,11,210,49,302,,204,35,123,,202,35,234,,216,34,200,*65
$BDGSV,3,3,11,206,33,195,,208,19,168,,229,17,208,*69
$GAGSV,2,1,06,130,52,331,,102,47,061,,136,37,060,,107,26,270,*6F
$GAGSV,2,2,06,108,21,215,,115,17,186,*6E
$GPGSA,A,3,07,08,09,11,16,21,23,26,27,31,,,1.5,0.9,1.2*3C
$GNGSA,A,3,07,08,09,11,16,21,23,26,27,31,,,1.5,0.9,1.2*22
$GNGSA,A,3,71,73,80,82,83,,,,,,,,1.5,0.9,1.2*29
$QZGSA,A,3,01,02,03,,,,,,,,,,1.5,0.9,1.2*20
$IMGSA,A,3,,,,,,,,,,,,,1.5,0.9,1.2*2F
$BDGSA,A,3,,,,,,,,,,,,,1.5,0.9,1.2*2D
$GAGSA,A,3,,,,,,,,,,,,,1.5,0.9,1.2*2D
$PGLOR,1,FIX,1.0,1.0*20
$GPRMC,121541.00,A,3116.338728,N,12114.362655,E,025.1,112.6,161219,,,A*54
$PGLOR,1,AGC,G,-16.1,R,-27.5,B,-24.2*54
$GPGGA,121542.00,3116.335824,N,12114.369937,E,1,18,0.8,15.8,M,9.2,M,,*63
$PGLOR,9,STA,121542.00,-1.147,0.000,-336,1,8,0,P,F,L,0,C,3,S,00100002,54,5,R,000833F4,TPeF,20,12626,LC,,,*57
$PGLOR,1,UNC,121542.00,0.024,8.0,15.8,0.19,1.00,5.7,5.7,0.0*17
$PGLOR,2,SAT,6,1,G27,36,1F,Q03,33,1F,Q02,24,1F,R19,22,1B,G08,36,17,G16,34,1F*57
$PGLOR,2,SAT,6,2,R09,38,1F,G23,27,1F,R16,29,1F,G09,32,1F,G26,37,1F,R18,39,13*57
$PGLOR,2,SAT,6,3,G31,16,13,R07,23,17,G21,32,13,G07,37,1F,Q01,16,13,G11,24,13*47
$PGLOR,2,SAT,6,4,B27,,10,R06,,30,B30,,0,E30,,0,B03,,0,B01,,0*24
$PGLOR,2,SAT,6,5,B10,,0,E02,,0,E36,,0,B04,,0,B02,,0,B16,,0*36
$PGLOR,2,SAT,6,6,B06,,0,E07,,0,E08,,0,B08,,0,B29,,0,E15,,0*3B
$PGLOR,1,SVC,GPS,3,1,10,008,UNKN,UNKN,016,UNKN,UNKN,023,UNKN,UNKN,027,UNKN,UNKN*7D
$PGLOR,1,SVC,GPS,3,2,10,009,UNKN,UNKN,021,UNKN,UNKN,026,UNKN,UNKN,031,UNKN,UNKN*79
$PGLOR,1,SVC,GPS,3,3,10,007,UNKN,UNKN,011,UNKN,UNKN*73
$PGLOR,1,SVC,GLO,2,1,06,056,UNKN,UNKN,057,UNKN,UNKN,058,UNKN,UNKN,062,UNKN,UNKN*78
$PGLOR,1,SVC,GLO,2,2,06,055,UNKN,UNKN,064,CLIN,CLIN*71
$PGLOR,1,SVC,QZS,1,1,03,066,UNKN,UNKN,067,UNKN,UNKN,068,UNKN,UNKN*79
$PGLOR,1,SVC,BDS,3,1,11,081,CLIN,CLIN,083,CLIN,CLIN,107,CLIN,CLIN,110,CLIN,CLIN*62
$PGLOR,1,SVC,BDS,3,2,11,082,CLIN,CLIN,084,CLIN,CLIN,090,CLIN,CLIN,096,CLIN,CLIN*65
$PGLOR,1,SVC,BDS,3,3,11,086,CLIN,CLIN,088,CLIN,CLIN,109,CLIN,CLIN*7E
$PGLOR,1,SVC,GAL,2,1,06,119,CLIN,CLIN,124,CLIN,CLIN,147,CLIN,CLIN,153,CLIN,CLIN*75
$PGLOR,1,SVC,GAL,2,2,06,125,CLIN,CLIN,132,CLIN,CLIN*7B
$PGLOR,2,SIO,TxERR,0,RxERR,0,TxCNT,514,RxCNT,5568,MLFRMPKT,0,DTMS,1001,DTIN,31,52,DTOUT,14,947,HATMD,58*1C
$PGLOR,1,HLA,121542.00,L,,Al,,A,,H,,,M,0,Ac,0,Gr,0,S,,,Sx,,,T,0,Tr,,Mn,,Ap,,Ta,0,,*32
$PGLOR,2,CTX,121542.00,E,1,0,,,V,4,1,S,,,*7C
$PGLOR,4,PWR,mA,63.0,RFTm,1000,OscTm,1001,MeasTm,1001,UTC,121542.00,GNSSmA,63,CPUTm,199,COPTm,72,SrchTm,881,TrkTm,9,RpcT
$GPGSV,3,1,10,27,82,030,36,08,59,226,36,16,47,038,37,23,41,249,30*77
$GPGSV,3,2,10,09,35,283,35,26,30,065,37,31,15,129,18,21,13,048,36*74
$GPGSV,3,3,10,07,13,315,42,11,08,201,28*7D
$GLGSV,2,1,06,83,67,088,22,73,45,345,41,80,40,079,31,82,27,033,39*6D
$GLGSV,2,2,06,71,15,257,27,70,01,212,*63
$QZGSV,1,1,03,03,72,113,35,02,69,076,28,01,08,170,22*5C
$BDGSV,3,1,11,227,47,053,,230,67,176,,203,51,200,,201,49,146,*62
$BDGSV,3,2,11,210,49,302,,204,35,123,,202,35,234,,216,34,200,*65
$BDGSV,3,3,11,206,33,195,,208,19,168,,229,17,208,*69
$GAGSV,2,1,06,130,52,331,,102,47,061,,136,37,060,,107,26,270,*6F
$GAGSV,2,2,06,108,21,215,,115,17,186,*6E
$GPGSA,A,3,07,08,09,11,16,21,23,26,27,31,,,1.9,1.1,1.5*3E
$GNGSA,A,3,07,08,09,11,16,21,23,26,27,31,,,1.9,1.1,1.5*20
$GNGSA,A,3,71,73,80,82,83,,,,,,,,1.9,1.1,1.5*2B
$QZGSA,A,3,01,02,03,,,,,,,,,,1.9,1.1,1.5*22
$IMGSA,A,3,,,,,,,,,,,,,1.9,1.1,1.5*2D
$BDGSA,A,3,,,,,,,,,,,,,1.9,1.1,1.5*2F
$GAGSA,A,3,,,,,,,,,,,,,1.9,1.1,1.5*2F
$PGLOR,1,FIX,1.0,1.0*20
$GPRMC,121542.00,A,3116.335824,N,12114.369937,E,024.8,116.4,161219,,,A*57
$PGLOR,1,AGC,G,-16.5,R,-27.6,B,-24.0*51
$GPGGA,121543.00,3116.332380,N,12114.377026,E,1,18,0.8,14.6,M,9.2,M,,*69
$PGLOR,9,STA,121543.00,-1.147,0.000,-335,1,8,0,P,F,L,0,C,3,S,00100002,67,5,R,000833F4,TPeF,20,13626,LC,,,*54
$PGLOR,1,UNC,121543.00,0.022,8.0,14.3,0.18,1.00,5.7,5.7,0.0*1B
$PGLOR,2,SAT,6,1,G27,36,1F,Q03,31,1F,Q02,28,1F,R19,22,13,G08,40,1F,G16,35,17*28
$PGLOR,2,SAT,6,2,R09,34,17,G23,26,1F,R16,29,1F,G09,33,1F,G26,35,1F,R18,38,13*29
$PGLOR,2,SAT,6,3,G31,15,13,R07,25,17,G21,32,1B,G07,35,1F,Q01,14,13,G11,21,1B*47
$PGLOR,2,SAT,6,4,B27,,10,R06,,30,B30,,0,E30,,0,B03,,0,B01,,0*24
$PGLOR,2,SAT,6,5,B10,,0,E02,,0,E36,,0,B04,,0,B02,,0,B16,,0*36
$PGLOR,2,SAT,6,6,B06,,0,E07,,0,E08,,0,B08,,0,B29,,0,E15,,0*3B
$PGLOR,1,SVC,GPS,3,1,10,008,UNKN,UNKN,016,UNKN,UNKN,023,UNKN,UNKN,027,UNKN,UNKN*7D
$PGLOR,1,SVC,GPS,3,2,10,009,UNKN,UNKN,021,UNKN,UNKN,026,UNKN,UNKN,031,UNKN,UNKN*79
$PGLOR,1,SVC,GPS,3,3,10,007,UNKN,UNKN,011,UNKN,UNKN*73
$PGLOR,1,SVC,GLO,2,1,06,056,UNKN,UNKN,057,UNKN,UNKN,058,UNKN,UNKN,062,UNKN,UNKN*78
$PGLOR,1,SVC,GLO,2,2,06,055,UNKN,UNKN,064,CLIN,CLIN*71
$PGLOR,1,SVC,QZS,1,1,03,066,UNKN,UNKN,067,UNKN,UNKN,068,UNKN,UNKN*79
$PGLOR,1,SVC,BDS,3,1,11,081,CLIN,CLIN,083,CLIN,CLIN,107,CLIN,CLIN,110,CLIN,CLIN*62
$PGLOR,1,SVC,BDS,3,2,11,082,CLIN,CLIN,084,CLIN,CLIN,090,CLIN,CLIN,096,CLIN,CLIN*65
$PGLOR,1,SVC,BDS,3,3,11,086,CLIN,CLIN,088,CLIN,CLIN,109,CLIN,CLIN*7E
$PGLOR,1,SVC,GAL,2,1,06,119,CLIN,CLIN,124,CLIN,CLIN,147,CLIN,CLIN,153,CLIN,CLIN*75
$PGLOR,1,SVC,GAL,2,2,06,125,CLIN,CLIN,132,CLIN,CLIN*7B
$PGLOR,2,SIO,TxERR,0,RxERR,0,TxCNT,489,RxCNT,5578,MLFRMPKT,0,DTMS,992,DTIN,33,44,DTOUT,17,953,HATMD,50*21
$PGLOR,1,HLA,121543.00,L,,Al,,A,,H,,,M,0,Ac,0,Gr,0,S,,,Sx,,,T,0,Tr,,Mn,,Ap,,Ta,0,,*33
$PGLOR,2,CTX,121543.00,E,1,0,,,V,4,1,S,,,*7D
$PGLOR,4,PWR,mA,54.9,RFTm,1001,OscTm,1001,MeasTm,1001,UTC,121543.00,GNSSmA,55,CPUTm,197,COPTm,64,SrchTm,671,TrkTm,10,Rpc
$GPGSV,3,1,10,27,82,030,36,08,59,226,40,16,47,038,37,23,41,249,29*7E
$GPGSV,3,2,10,09,35,283,35,26,30,065,37,31,15,129,17,21,13,048,36*7B
$GPGSV,3,3,10,07,13,315,41,11,08,201,27*71
$GLGSV,2,1,06,83,67,088,22,73,45,345,40,80,40,079,30,82,27,033,39*6D
$GLGSV,2,2,06,71,15,257,27,70,01,212,*63
$QZGSV,1,1,03,03,72,113,34,02,69,076,28,01,08,170,21*5E
$BDGSV,3,1,11,227,47,053,,230,67,175,,203,51,200,,201,49,146,*61
$BDGSV,3,2,11,210,49,302,,204,35,123,,202,35,234,,216,34,200,*65
$BDGSV,3,3,11,206,33,195,,208,19,168,,229,17,208,*69
$GAGSV,2,1,06,130,52,331,,102,47,061,,136,37,060,,107,26,270,*6F
$GAGSV,2,2,06,108,21,215,,115,17,186,*6E
$GPGSA,A,3,07,08,09,11,16,21,23,26,27,31,,,1.9,1.1,1.5*3E
$GNGSA,A,3,07,08,09,11,16,21,23,26,27,31,,,1.9,1.1,1.5*20
$GNGSA,A,3,71,73,80,82,83,,,,,,,,1.9,1.1,1.5*2B
$QZGSA,A,3,01,02,03,,,,,,,,,,1.9,1.1,1.5*22
$IMGSA,A,3,,,,,,,,,,,,,1.9,1.1,1.5*2D
$BDGSA,A,3,,,,,,,,,,,,,1.9,1.1,1.5*2F
$GAGSA,A,3,,,,,,,,,,,,,1.9,1.1,1.5*2F
$PGLOR,1,FIX,1.0,1.0*20
$GPRMC,121543.00,A,3116.332380,N,12114.377026,E,025.4,120.5,161219,,,A*5B
$PGLOR,1,AGC,G,-16.7,R,-27.6,B,-24.0*53
$GPGGA,121544.00,3116.328694,N,12114.383840,E,1,18,0.8,14.0,M,9.2,M,,*60
$PGLOR,9,STA,121544.00,-1.147,0.000,-336,1,8,0,P,F,L,0,C,3,S,00100002,80,5,R,000833F4,TPeF,20,14626,LC,,,*5E
$PGLOR,1,UNC,121544.00,0.021,8.0,13.2,0.14,1.00,5.7,5.7,0.0*15
$PGLOR,2,SAT,6,1,G27,36,1F,Q03,28,1F,Q02,28,1F,R19,21,13,G08,37,1F,G16,33,1F*54
$PGLOR,2,SAT,6,2,R09,35,1F,G23,27,1F,R16,29,1F,G09,31,17,G26,33,17,R18,38,13*5C
$PGLOR,2,SAT,6,3,G31,14,11,R07,28,1F,G21,29,13,G07,36,1B,Q01,13,13,G11,19,1F*4C
$PGLOR,2,SAT,6,4,B27,,10,R06,,30,B30,,0,E30,,0,B03,,0,B01,,0*24
$PGLOR,2,SAT,6,5,B10,,0,E02,,0,E36,,0,B04,,0,B02,,0,B16,,0*36
$PGLOR,2,SAT,6,6,B06,,0,E07,,0,E08,,0,B08,,0,B29,,0,E15,,0*3B
$PGLOR,1,SVC,GPS,3,1,10,008,UNKN,UNKN,016,UNKN,UNKN,023,UNKN,UNKN,027,UNKN,UNKN*7D
$PGLOR,1,SVC,GPS,3,2,10,009,UNKN,UNKN,021,UNKN,UNKN,026,UNKN,UNKN,031,UNKN,UNKN*79
$PGLOR,1,SVC,GPS,3,3,10,007,UNKN,UNKN,011,UNKN,UNKN*73
$PGLOR,1,SVC,GLO,2,1,06,056,UNKN,UNKN,057,UNKN,UNKN,058,UNKN,UNKN,062,UNKN,UNKN*78
$PGLOR,1,SVC,GLO,2,2,06,055,UNKN,UNKN,064,CLIN,CLIN*71
$PGLOR,1,SVC,QZS,1,1,03,066,UNKN,UNKN,067,UNKN,UNKN,068,UNKN,UNKN*79
$PGLOR,1,SVC,BDS,3,1,11,081,CLIN,CLIN,083,CLIN,CLIN,107,CLIN,CLIN,110,CLIN,CLIN*62
$PGLOR,1,SVC,BDS,3,2,11,082,CLIN,CLIN,084,CLIN,CLIN,090,CLIN,CLIN,096,CLIN,CLIN*65
$PGLOR,1,SVC,BDS,3,3,11,086,CLIN,CLIN,088,CLIN,CLIN,109,CLIN,CLIN*7E
$PGLOR,1,SVC,GAL,2,1,06,119,CLIN,CLIN,124,CLIN,CLIN,147,CLIN,CLIN,153,CLIN,CLIN*75
$PGLOR,1,SVC,GAL,2,2,06,125,CLIN,CLIN,132,CLIN,CLIN*7B
$PGLOR,2,SIO,TxERR,0,RxERR,0,TxCNT,513,RxCNT,5509,MLFRMPKT,0,DTMS,1009,DTIN,31,42,DTOUT,14,958,HATMD,59*1A
$PGLOR,1,HLA,121544.00,L,,Al,,A,,H,,,M,0,Ac,0,Gr,0,S,,,Sx,,,T,0,Tr,,Mn,,Ap,,Ta,0,,*34
$PGLOR,2,CTX,121544.00,E,1,0,,,V,4,1,S,,,*7A
$PGLOR,4,PWR,mA,53.9,RFTm,999,OscTm,999,MeasTm,999,UTC,121544.00,GNSSmA,54,CPUTm,188,COPTm,76,SrchTm,634,TrkTm,8,RpcTm,1
$GPGSV,3,1,10,27,82,030,36,08,59,226,40,16,47,038,37,23,41,249,29*7E
$GPGSV,3,2,10,09,35,283,35,26,30,065,37,31,15,129,17,21,13,048,35*78
$GPGSV,3,3,10,07,13,315,41,11,08,201,26*70
$GLGSV,2,1,06,83,67,088,22,73,45,345,40,80,40,079,30,82,27,033,39*6D
$GLGSV,2,2,06,71,15,257,28,70,01,212,*6C
$QZGSV,1,1,03,03,72,113,34,02,69,076,28,01,08,170,20*5F
$BDGSV,3,1,11,227,47,053,,230,67,175,,203,51,200,,201,49,146,*61
$BDGSV,3,2,11,210,49,302,,204,35,123,,202,35,234,,216,34,200,*65
$BDGSV,3,3,11,206,33,195,,208,19,168,,229,17,208,*69
$GAGSV,2,1,06,130,52,331,,102,47,061,,136,37,060,,107,26,270,*6F
$GAGSV,2,2,06,108,21,215,,115,17,186,*6E
$GPGSA,A,3,07,08,09,11,16,21,23,26,27,31,,,1.6,1.0,1.3*36
$GNGSA,A,3,07,08,09,11,16,21,23,26,27,31,,,1.6,1.0,1.3*28
$GNGSA,A,3,71,73,80,82,83,,,,,,,,1.6,1.0,1.3*23
$QZGSA,A,3,01,02,03,,,,,,,,,,1.6,1.0,1.3*2A
$IMGSA,A,3,,,,,,,,,,,,,1.6,1.0,1.3*25
$BDGSA,A,3,,,,,,,,,,,,,1.6,1.0,1.3*27
$GAGSA,A,3,,,,,,,,,,,,,1.6,1.0,1.3*27
$PGLOR,1,FIX,1.0,1.0*20
$GPRMC,121544.00,A,3116.328694,N,12114.383840,E,025.0,123.9,161219,,,A*5F
$PGLOR,1,AGC,G,-16.3,R,-27.6,B,-24.2*55
$GPGGA,121545.00,3116.324593,N,12114.390226,E,1,18,0.6,14.4,M,9.2,M,,*6B
$PGLOR,9,STA,121545.00,-1.147,0.000,-335,1,6,0,P,F,L,0,C,3,S,00100002,92,5,R,000833F4,TPeF,20,15626,LC,,,*50
$PGLOR,1,UNC,121545.00,0.020,6.0,12.1,0.21,1.00,4.2,4.2,0.0*1F
$PGLOR,2,SAT,6,1,G27,34,1F,Q03,28,1F,Q02,31,1F,R19,20,13,G08,39,1F,G16,34,1F*56
$PGLOR,2,SAT,6,2,R09,33,1F,G23,28,1F,R16,32,1F,G09,28,17,G26,30,13,R18,34,17*58
$PGLOR,2,SAT,6,3,G31,25,13,R07,26,1F,G21,30,13,G07,36,1F,Q01,13,13,G11,20,1B*40
$PGLOR,2,SAT,6,4,B27,,10,R06,,30,B30,,0,E30,,0,B03,,0,B01,,0*24
$PGLOR,2,SAT,6,5,B10,,0,E02,,0,E36,,0,B04,,0,B02,,0,B16,,0*36
$PGLOR,2,SAT,6,6,B06,,0,E07,,0,E08,,0,B08,,0,B29,,0,E15,,0*3B
$PGLOR,1,SVC,GPS,3,1,10,008,UNKN,UNKN,016,UNKN,UNKN,023,UNKN,UNKN,027,UNKN,UNKN*7D
$PGLOR,1,SVC,GPS,3,2,10,009,UNKN,UNKN,021,UNKN,UNKN,026,LOCM,LOME,031,UNKN,UNKN*7F
$PGLOR,1,SVC,GPS,3,3,10,007,UNKN,UNKN,011,UNKN,UNKN*73
$PGLOR,1,SVC,GLO,2,1,06,056,UNKN,UNKN,057,UNKN,UNKN,058,UNKN,UNKN,062,UNKN,UNKN*78
$PGLOR,1,SVC,GLO,2,2,06,055,UNKN,UNKN,064,CLIN,CLIN*71
$PGLOR,1,SVC,QZS,1,1,03,066,UNKN,UNKN,067,UNKN,UNKN,068,UNKN,UNKN*79
$PGLOR,1,SVC,BDS,3,1,11,081,CLIN,CLIN,083,CLIN,CLIN,107,CLIN,CLIN,110,CLIN,CLIN*62
$PGLOR,1,SVC,BDS,3,2,11,082,CLIN,CLIN,084,CLIN,CLIN,090,CLIN,CLIN,096,CLIN,CLIN*65
$PGLOR,1,SVC,BDS,3,3,11,086,CLIN,CLIN,088,CLIN,CLIN,109,CLIN,CLIN*7E
$PGLOR,1,SVC,GAL,2,1,06,119,CLIN,CLIN,124,CLIN,CLIN,147,CLIN,CLIN,153,CLIN,CLIN*75
$PGLOR,1,SVC,GAL,2,2,06,125,CLIN,CLIN,132,CLIN,CLIN*7B
$PGLOR,2,SIO,TxERR,0,RxERR,0,TxCNT,447,RxCNT,5641,MLFRMPKT,0,DTMS,994,DTIN,42,53,DTOUT,14,945,HATMD,53*2B
$PGLOR,1,HLA,121545.00,L,,Al,,A,,H,,,M,0,Ac,0,Gr,0,S,,,Sx,,,T,0,Tr,,Mn,,Ap,,Ta,0,,*35
$PGLOR,2,CTX,121545.00,E,1,0,,,V,4,1,S,,,*7B
$PGLOR,4,PWR,mA,53.7,RFTm,999,OscTm,999,MeasTm,999,UTC,121545.00,GNSSmA,54,CPUTm,206,COPTm,72,SrchTm,629,TrkTm,10,RpcTm,
$GPGSV,3,1,10,27,82,030,36,08,59,226,40,16,47,038,36,23,41,249,29*7F
$GPGSV,3,2,10,09,35,283,34,26,30,065,36,31,15,129,25,21,13,048,34*78
$GPGSV,3,3,10,07,13,315,40,11,08,201,26*71
$GLGSV,2,1,06,83,67,088,22,73,45,345,39,80,40,079,32,82,27,033,38*60
$GLGSV,2,2,06,71,15,257,28,70,01,212,*6C
$QZGSV,1,1,03,03,72,113,33,02,69,076,31,01,08,170,19*5A
$BDGSV,3,1,11,227,47,053,,230,67,175,,203,51,200,,201,49,146,*61
$BDGSV,3,2,11,210,49,302,,204,35,123,,202,35,234,,216,34,200,*65
$BDGSV,3,3,11,206,33,195,,208,19,168,,229,17,208,*69
$GAGSV,2,1,06,130,52,331,,102,47,061,,136,37,060,,107,26,270,*6F
$GAGSV,2,2,06,108,21,215,,115,17,186,*6E
$GPGSA,A,3,07,08,09,11,16,21,23,26,27,31,,,2.0,1.2,1.6*34
$GNGSA,A,3,07,08,09,11,16,21,23,26,27,31,,,2.0,1.2,1.6*2A
$GNGSA,A,3,71,73,80,82,83,,,,,,,,2.0,1.2,1.6*21
$QZGSA,A,3,01,02,03,,,,,,,,,,2.0,1.2,1.6*28
$IMGSA,A,3,,,,,,,,,,,,,2.0,1.2,1.6*27
$BDGSA,A,3,,,,,,,,,,,,,2.0,1.2,1.6*25
$GAGSA,A,3,,,,,,,,,,,,,2.0,1.2,1.6*25
$PGLOR,1,FIX,1.0,1.0*20
$GPRMC,121545.00,A,3116.324593,N,12114.390226,E,025.6,126.0,161219,,,A*54
$PGLOR,1,AGC,G,-16.4,R,-27.5,B,-24.2*51
$GPGGA,121546.00,3116.319932,N,12114.396851,E,1,18,0.6,14.9,M,9.2,M,,*60
$PGLOR,9,STA,121546.00,-1.147,0.000,-335,1,6,0,P,F,L,0,C,2,S,00100002,106,5,R,000833F4,TPeF,20,16626,LC,,,*6D
$PGLOR,1,UNC,121546.00,0.019,6.0,11.4,0.34,2.09,4.2,4.2,0.0*1E
$PGLOR,2,SAT,6,1,G27,33,17,Q03,29,1F,Q02,35,1F,R19,19,1B,G08,37,1F,G16,35,1F*51
$PGLOR,2,SAT,6,2,R09,29,13,G23,26,1F,R16,36,1F,G09,32,1F,G26,30,1B,R18,38,17*2B
$PGLOR,2,SAT,6,3,G31,24,1B,R07,26,1F,G21,36,17,G07,31,13,Q01,14,13,G11,22,17*30
$PGLOR,2,SAT,6,4,B27,,10,R06,,30,B30,,0,E30,,0,B03,,0,B01,,0*24
$PGLOR,2,SAT,6,5,B10,,0,E02,,0,E36,,0,B04,,0,B02,,0,B16,,0*36
$PGLOR,2,SAT,6,6,B06,,0,E07,,0,E08,,0,B08,,0,B29,,0,E15,,0*3B
$PGLOR,1,SVC,GPS,3,1,10,008,UNKN,UNKN,016,UNKN,UNKN,023,UNKN,UNKN,027,UNKN,UNKN*7D
$PGLOR,1,SVC,GPS,3,2,10,009,UNKN,UNKN,021,UNKN,UNKN,026,UNKN,UNKN,031,UNKN,UNKN*79
$PGLOR,1,SVC,GPS,3,3,10,007,UNKN,UNKN,011,UNKN,UNKN*73
$PGLOR,1,SVC,GLO,2,1,06,056,UNKN,UNKN,057,UNKN,UNKN,058,UNKN,UNKN,062,UNKN,UNKN*78
$PGLOR,1,SVC,GLO,2,2,06,055,UNKN,UNKN,064,CLIN,CLIN*71
$PGLOR,1,SVC,QZS,1,1,03,066,UNKN,UNKN,067,UNKN,UNKN,068,UNKN,UNKN*79
$PGLOR,1,SVC,BDS,3,1,11,081,CLIN,CLIN,083,CLIN,CLIN,107,CLIN,CLIN,110,CLIN,CLIN*62
$PGLOR,1,SVC,BDS,3,2,11,082,CLIN,CLIN,084,CLIN,CLIN,090,CLIN,CLIN,096,CLIN,CLIN*65
$PGLOR,1,SVC,BDS,3,3,11,086,CLIN,CLIN,088,CLIN,CLIN,109,CLIN,CLIN*7E
$PGLOR,1,SVC,GAL,2,1,06,119,CLIN,CLIN,124,CLIN,CLIN,147,CLIN,CLIN,153,CLIN,CLIN*75
$PGLOR,1,SVC,GAL,2,2,06,125,CLIN,CLIN,132,CLIN,CLIN*7B
$PGLOR,2,SIO,TxERR,0,RxERR,0,TxCNT,513,RxCNT,5510,MLFRMPKT,0,DTMS,995,DTIN,38,47,DTOUT,21,950,HATMD,48*2D
$PGLOR,1,HLA,121546.00,L,,Al,,A,,H,,,M,0,Ac,0,Gr,0,S,,,Sx,,,T,0,Tr,,Mn,,Ap,,Ta,0,,*36
$PGLOR,2,CTX,121546.00,E,1,0,,,V,4,1,S,,,*78
$PGLOR,4,PWR,mA,53.7,RFTm,1001,OscTm,1001,MeasTm,1001,UTC,121546.00,GNSSmA,54,CPUTm,185,COPTm,71,SrchTm,634,TrkTm,8,RpcT
$GPGSV,3,1,10,27,82,030,36,08,59,226,39,16,47,038,36,23,41,249,29*71
$GPGSV,3,2,10,09,35,283,34,26,30,065,35,31,15,129,25,21,13,048,36*79
$GPGSV,3,3,10,07,13,315,39,11,08,201,25*7C
$GLGSV,2,1,06,83,67,088,22,73,45,345,38,80,40,079,36,82,27,033,38*65
$GLGSV,2,2,06,71,15,257,28,70,01,212,*6C
$QZGSV,1,1,03,03,72,113,33,02,69,076,35,01,08,170,19*5E
$BDGSV,3,1,11,227,47,053,,230,67,175,,203,51,200,,201,49,146,*61
$BDGSV,3,2,11,210,49,302,,204,35,123,,202,35,234,,216,34,200,*65
$BDGSV,3,3,11,206,33,195,,208,19,168,,229,17,208,*69
$GAGSV,2,1,06,130,52,331,,102,47,061,,136,37,060,,107,26,270,*6F
$GAGSV,2,2,06,108,21,215,,115,17,186,*6E
$GPGSA,A,3,07,08,09,11,16,21,23,26,27,31,,,1.5,1.0,1.0*36
$GNGSA,A,3,07,08,09,11,16,21,23,26,27,31,,,1.5,1.0,1.0*28
$GNGSA,A,3,71,73,80,82,83,,,,,,,,1.5,1.0,1.0*23
$QZGSA,A,3,01,02,03,,,,,,,,,,1.5,1.0,1.0*2A
$IMGSA,A,3,,,,,,,,,,,,,1.5,1.0,1.0*25
$BDGSA,A,3,,,,,,,,,,,,,1.5,1.0,1.0*27
$GAGSA,A,3,,,,,,,,,,,,,1.5,1.0,1.0*27
$PGLOR,1,FIX,1.0,1.0*20
$GPRMC,121546.00,A,3116.319932,N,12114.396851,E,026.9,130.4,161219,,,A*5D
$PGLOR,1,AGC,G,-16.7,R,-27.7,B,-24.0*52
$GPGGA,121547.00,3116.314879,N,12114.403289,E,1,18,0.6,15.6,M,9.2,M,,*68
$PGLOR,9,STA,121547.00,-1.147,0.000,-334,1,6,0,P,F,L,0,C,2,S,00100002,120,5,R,000833F4,TPeF,20,17626,LC,,,*68
$PGLOR,1,UNC,121547.00,0.018,6.0,10.9,0.23,1.00,4.2,4.2,0.0*1E
$PGLOR,2,SAT,6,1,G27,31,17,Q03,28,1F,Q02,38,1F,R19,18,1B,G08,33,1F,G16,33,1F*5C
$PGLOR,2,SAT,6,2,R09,36,1F,G23,25,1F,R16,36,1F,G09,31,1F,G26,33,13,R18,38,1F*53
$PGLOR,2,SAT,6,3,G31,29,1B,R07,28,17,G21,38,17,G07,26,13,Q01,14,13,G11,21,13*4D
$PGLOR,2,SAT,6,4,B27,,10,R06,,30,B30,,0,E30,,0,B03,,0,B01,,0*24
$PGLOR,2,SAT,6,5,B10,,0,E02,,0,E36,,0,B04,,0,B02,,0,B16,,0*36
$PGLOR,2,SAT,6,6,B06,,0,E07,,0,E08,,0,B08,,0,B29,,0,E15,,0*3B
$PGLOR,1,SVC,GPS,3,1,10,008,UNKN,UNKN,016,UNKN,UNKN,023,UNKN,UNKN,027,UNKN,UNKN*7D
$PGLOR,1,SVC,GPS,3,2,10,009,UNKN,UNKN,021,UNKN,UNKN,026,UNKN,UNKN,031,UNKN,UNKN*79
$PGLOR,1,SVC,GPS,3,3,10,007,UNKN,UNKN,011,UNKN,UNKN*73
$PGLOR,1,SVC,GLO,2,1,06,056,UNKN,UNKN,057,UNKN,UNKN,058,UNKN,UNKN,062,UNKN,UNKN*78
$PGLOR,1,SVC,GLO,2,2,06,055,UNKN,UNKN,064,CLIN,CLIN*71
$PGLOR,1,SVC,QZS,1,1,03,066,UNKN,UNKN,067,UNKN,UNKN,068,UNKN,UNKN*79
$PGLOR,1,SVC,BDS,3,1,11,081,CLIN,CLIN,083,CLIN,CLIN,107,CLIN,CLIN,110,CLIN,CLIN*62
$PGLOR,1,SVC,BDS,3,2,11,082,CLIN,CLIN,084,CLIN,CLIN,090,CLIN,CLIN,096,CLIN,CLIN*65
$PGLOR,1,SVC,BDS,3,3,11,086,CLIN,CLIN,088,CLIN,CLIN,109,CLIN,CLIN*7E
$PGLOR,1,SVC,GAL,2,1,06,119,CLIN,CLIN,124,CLIN,CLIN,147,CLIN,CLIN,153,CLIN,CLIN*75
$PGLOR,1,SVC,GAL,2,2,06,125,CLIN,CLIN,132,CLIN,CLIN*7B
$PGLOR,2,SIO,TxERR,0,RxERR,0,TxCNT,448,RxCNT,5496,MLFRMPKT,0,DTMS,1002,DTIN,31,39,DTOUT,13,963,HATMD,50*13
$PGLOR,1,HLA,121547.00,L,,Al,,A,,H,,,M,0,Ac,0,Gr,0,S,,,Sx,,,T,0,Tr,,Mn,,Ap,,Ta,0,,*37
$PGLOR,2,CTX,121547.00,E,1,0,,,V,4,1,S,,,*79
$PGLOR,4,PWR,mA,53.8,RFTm,999,OscTm,999,MeasTm,999,UTC,121547.00,GNSSmA,54,CPUTm,183,COPTm,71,SrchTm,634,TrkTm,9,RpcTm,1
$PGLOR,2,PFM,HAL,-,0,0,0,0,RF,-,-180,24.4,0,RTC,,P,STO,P,LTO,P,SW,P,,,OSC,F,*2D
$GPGSV,3,1,10,27,82,030,35,08,59,226,39,16,47,038,36,23,41,249,28*73
$GPGSV,3,2,10,09,35,283,34,26,30,065,35,31,15,129,29,21,13,048,38*7B
$GPGSV,3,3,10,07,13,315,38,11,08,201,25*7D
$GLGSV,2,1,06,83,67,088,21,73,45,345,38,80,40,079,36,82,27,033,38*66
$GLGSV,2,2,06,71,15,257,28,70,01,212,*6C
$QZGSV,1,1,03,03,72,113,32,02,69,076,38,01,08,170,18*53
$BDGSV,3,1,11,227,47,053,,230,67,175,,203,51,200,,201,49,146,*61
$BDGSV,3,2,11,210,49,302,,204,35,123,,202,35,234,,216,34,200,*65
$BDGSV,3,3,11,206,33,195,,208,19,168,,229,17,208,*69
$GAGSV,2,1,06,130,52,331,,102,47,061,,136,37,060,,107,26,270,*6F
$GAGSV,2,2,06,108,21,215,,115,17,186,*6E
$GPGSA,A,3,07,08,09,11,16,21,23,26,27,31,,,1.8,1.2,1.3*3A
$GNGSA,A,3,07,08,09,11,16,21,23,26,27,31,,,1.8,1.2,1.3*24
$GNGSA,A,3,71,73,80,82,83,,,,,,,,1.8,1.2,1.3*2F
$QZGSA,A,3,01,02,03,,,,,,,,,,1.8,1.2,1.3*26
$IMGSA,A,3,,,,,,,,,,,,,1.8,1.2,1.3*29
$BDGSA,A,3,,,,,,,,,,,,,1.8,1.2,1.3*2B
$GAGSA,A,3,,,,,,,,,,,,,1.8,1.2,1.3*2B
$PGLOR,1,FIX,1.0,1.0*20
$GPRMC,121547.00,A,3116.314879,N,12114.403289,E,026.5,133.0,161219,,,A*50
$PGLOR,1,AGC,G,-16.7,R,-27.7,B,-24.3*51
$GPGGA,121548.00,3116.309543,N,12114.409462,E,1,18,0.6,15.6,M,9.2,M,,*66
$PGLOR,9,STA,121548.00,-1.147,0.000,-333,1,6,0,P,F,L,0,C,3,S,00100002,134,5,R,000833F4,TPeF,20,18626,LC,,,*6B
$PGLOR,1,UNC,121548.00,0.017,6.0,10.2,0.34,1.72,4.2,4.2,0.0*16
$PGLOR,2,SAT,6,1,G27,37,1F,Q03,28,1F,Q02,36,1F,R19,15,13,G08,31,1F,G16,38,1F*50
$PGLOR,2,SAT,6,2,R09,35,13,G23,26,1F,R16,32,1F,G09,30,17,G26,32,13,R18,35,17*2F
$PGLOR,2,SAT,6,3,G31,28,1F,R07,26,1F,G21,39,13,G07,28,1B,Q01,15,13,G11,21,1F*39
$PGLOR,2,SAT,6,4,B27,,10,R06,,30,B30,,0,E30,,0,B03,,0,B01,,0*24
$PGLOR,2,SAT,6,5,B10,,0,E02,,0,E36,,0,B04,,0,B02,,0,B16,,0*36
$PGLOR,2,SAT,6,6,B06,,0,E07,,0,E08,,0,B08,,0,B29,,0,E15,,0*3B
$PGLOR,1,SVC,GPS,3,1,10,008,UNKN,UNKN,016,UNKN,UNKN,023,UNKN,UNKN,027,UNKN,UNKN*7D
$PGLOR,1,SVC,GPS,3,2,10,009,UNKN,UNKN,021,UNKN,UNKN,026,UNKN,UNKN,031,UNKN,UNKN*79
$PGLOR,1,SVC,GPS,3,3,10,007,UNKN,UNKN,011,UNKN,UNKN*73
$PGLOR,1,SVC,GLO,2,1,06,056,UNKN,UNKN,057,UNKN,UNKN,058,UNKN,UNKN,062,UNKN,UNKN*78
$PGLOR,1,SVC,GLO,2,2,06,055,UNKN,UNKN,064,CLIN,CLIN*71
$PGLOR,1,SVC,QZS,1,1,03,066,UNKN,UNKN,067,UNKN,UNKN,068,UNKN,UNKN*79
$PGLOR,1,SVC,BDS,3,1,11,081,CLIN,CLIN,083,CLIN,CLIN,107,CLIN,CLIN,110,CLIN,CLIN*62
$PGLOR,1,SVC,BDS,3,2,11,082,CLIN,CLIN,084,CLIN,CLIN,090,CLIN,CLIN,096,CLIN,CLIN*65
$PGLOR,1,SVC,BDS,3,3,11,086,CLIN,CLIN,088,CLIN,CLIN,109,CLIN,CLIN*7E
$PGLOR,1,SVC,GAL,2,1,06,119,CLIN,CLIN,124,CLIN,CLIN,147,CLIN,CLIN,153,CLIN,CLIN*75
$PGLOR,1,SVC,GAL,2,2,06,125,CLIN,CLIN,132,CLIN,CLIN*7B
$PGLOR,2,SIO,TxERR,0,RxERR,0,TxCNT,448,RxCNT,5567,MLFRMPKT,0,DTMS,1009,DTIN,30,39,DTOUT,11,964,HATMD,59*1A
$PGLOR,1,HLA,121548.00,L,,Al,,A,,H,,,M,0,Ac,0,Gr,0,S,,,Sx,,,T,0,Tr,,Mn,,Ap,,Ta,0,,*38
$PGLOR,2,CTX,121548.00,E,1,0,,,V,4,1,S,,,*76
$PGLOR,4,PWR,mA,53.7,RFTm,1000,OscTm,1000,MeasTm,1000,UTC,121548.00,GNSSmA,54,CPUTm,199,COPTm,70,SrchTm,634,TrkTm,8,RpcT
$GPGSV,3,1,10,27,82,030,37,08,59,226,38,16,47,038,38,23,41,249,28*7E
$GPGSV,3,2,10,09,35,283,33,26,30,065,35,31,15,129,29,21,13,048,39*7D
$GPGSV,3,3,10,07,13,315,37,11,08,201,25*72
$GLGSV,2,1,06,83,67,088,21,73,45,345,38,80,40,079,36,82,27,033,38*66
$GLGSV,2,2,06,71,15,257,28,70,01,212,*6C
$QZGSV,1,1,03,03,72,113,32,02,69,076,38,01,08,170,18*53
$BDGSV,3,1,11,227,47,053,,230,67,175,,203,51,200,,201,49,146,*61
$BDGSV,3,2,11,210,49,302,,204,35,123,,202,35,234,,216,34,200,*65
$BDGSV,3,3,11,206,33,195,,208,19,168,,229,17,208,*69
$GAGSV,2,1,06,130,52,331,,102,47,061,,136,37,060,,107,26,270,*6F
$GAGSV,2,2,06,108,21,215,,115,17,186,*6E
$GPGSA,A,3,07,08,09,11,16,21,23,26,27,31,,,1.4,0.9,1.1*3E
$GNGSA,A,3,07,08,09,11,16,21,23,26,27,31,,,1.4,0.9,1.1*20
$GNGSA,A,3,71,73,80,82,83,,,,,,,,1.4,0.9,1.1*2B
$QZGSA,A,3,01,02,03,,,,,,,,,,1.4,0.9,1.1*22
$IMGSA,A,3,,,,,,,,,,,,,1.4,0.9,1.1*2D
$BDGSA,A,3,,,,,,,,,,,,,1.4,0.9,1.1*2F
$GAGSA,A,3,,,,,,,,,,,,,1.4,0.9,1.1*2F
$PGLOR,1,FIX,1.0,1.0*20
$GPRMC,121548.00,A,3116.309543,N,12114.409462,E,027.1,136.7,161219,,,A*59
$PGLOR,1,AGC,G,-16.3,R,-27.5,B,-24.2*56
$GPGGA,121549.00,3116.303942,N,12114.415098,E,1,17,0.6,15.8,M,9.2,M,,*6D
$PGLOR,9,STA,121549.00,-1.147,0.000,-333,1,6,0,P,F,L,0,C,3,S,00100002,147,5,R,000833F4,TPeF,20,19626,LC,,,*6F
$PGLOR,1,UNC,121549.00,0.015,6.0,9.4,0.26,1.81,4.2,4.2,0.0*24
$PGLOR,2,SAT,6,1,G27,34,1F,Q03,28,1F,Q02,33,1F,R19,11,13,G08,31,1F,G16,38,1F*52
$PGLOR,2,SAT,6,2,R09,33,1B,G23,25,17,R16,36,1F,G09,34,1F,G26,38,17,R18,37,17*57
$PGLOR,2,SAT,6,3,G31,31,1F,R07,27,1F,G21,38,13,G07,31,1B,Q01,14,13,G11,22,13*4E
$PGLOR,2,SAT,6,4,B27,,10,R06,,30,B30,,0,E30,,0,B03,,0,B01,,0*24
$PGLOR,2,SAT,6,5,B10,,0,E02,,0,E36,,0,B04,,0,B02,,0,B16,,0*36
$PGLOR,2,SAT,6,6,B06,,0,E07,,0,E08,,0,B08,,0,B29,,0,E15,,0*3B
$PGLOR,1,SVC,GPS,3,1,10,008,UNKN,UNKN,016,UNKN,UNKN,023,UNKN,UNKN,027,UNKN,UNKN*7D
$PGLOR,1,SVC,GPS,3,2,10,009,UNKN,UNKN,021,UNKN,UNKN,026,UNKN,UNKN,031,UNKN,UNKN*79
$PGLOR,1,SVC,GPS,3,3,10,007,UNKN,UNKN,011,UNKN,UNKN*73
$PGLOR,1,SVC,GLO,2,1,06,056,UNKN,UNKN,057,UNKN,UNKN,058,UNKN,UNKN,062,UNKN,UNKN*78
$PGLOR,1,SVC,GLO,2,2,06,055,UNKN,UNKN,064,CLIN,CLIN*71
$PGLOR,1,SVC,QZS,1,1,03,066,UNKN,UNKN,067,UNKN,UNKN,068,UNKN,UNKN*79
$PGLOR,1,SVC,BDS,3,1,11,081,CLIN,CLIN,083,CLIN,CLIN,107,CLIN,CLIN,110,CLIN,CLIN*62
$PGLOR,1,SVC,BDS,3,2,11,082,CLIN,CLIN,084,CLIN,CLIN,090,CLIN,CLIN,096,CLIN,CLIN*65
$PGLOR,1,SVC,BDS,3,3,11,086,CLIN,CLIN,088,CLIN,CLIN,109,CLIN,CLIN*7E
$PGLOR,1,SVC,GAL,2,1,06,119,CLIN,CLIN,124,CLIN,CLIN,147,CLIN,CLIN,153,CLIN,CLIN*75
$PGLOR,1,SVC,GAL,2,2,06,125,CLIN,CLIN,132,CLIN,CLIN*7B
$PGLOR,2,SIO,TxERR,0,RxERR,0,TxCNT,513,RxCNT,5509,MLFRMPKT,0,DTMS,1006,DTIN,38,43,DTOUT,13,962,HATMD,65*1C
$PGLOR,1,HLA,121549.00,L,,Al,,A,,H,,,M,0,Ac,0,Gr,0,S,,,Sx,,,T,0,Tr,,Mn,,Ap,,Ta,0,,*39
$PGLOR,2,CTX,121549.00,E,1,0,,,V,4,1,S,,,*77
$PGLOR,4,PWR,mA,53.7,RFTm,1001,OscTm,1001,MeasTm,1001,UTC,121549.00,GNSSmA,54,CPUTm,186,COPTm,71,SrchTm,634,TrkTm,9,RpcT
$GPGSV,3,1,10,27,82,030,37,08,59,226,37,16,47,038,38,23,41,249,28*71
$GPGSV,3,2,10,09,35,283,34,26,30,065,38,31,15,129,31,21,13,048,39*7E
$GPGSV,3,3,10,07,13,315,36,11,08,201,24*72
$GLGSV,2,1,06,83,67,088,20,73,45,345,37,80,40,079,36,82,27,033,38*68
$GLGSV,2,2,06,71,15,257,28,70,01,212,*6C
$QZGSV,1,1,03,03,72,113,31,02,69,076,37,01,08,169,18*57
$BDGSV,3,1,11,227,47,053,,230,67,175,,203,51,200,,201,49,146,*61
$BDGSV,3,2,11,210,49,302,,204,35,123,,202,35,234,,216,34,200,*65
$BDGSV,3,3,11,206,33,195,,208,19,168,,229,17,208,*69
$GAGSV,2,1,06,130,52,331,,102,47,061,,136,37,060,,107,26,270,*6F
$GAGSV,2,2,06,108,21,215,,115,17,186,*6E
$GPGSA,A,3,07,08,09,11,16,21,23,26,27,31,,,1.5,1.0,1.2*34
$GNGSA,A,3,07,08,09,11,16,21,23,26,27,31,,,1.5,1.0,1.2*2A
$GNGSA,A,3,71,73,80,82,,,,,,,,,1.5,1.0,1.2*2A
$QZGSA,A,3,01,02,03,,,,,,,,,,1.5,1.0,1.2*28
$IMGSA,A,3,,,,,,,,,,,,,1.5,1.0,1.2*27
$BDGSA,A,3,,,,,,,,,,,,,1.5,1.0,1.2*25
$GAGSA,A,3,,,,,,,,,,,,,1.5,1.0,1.2*25
$PGLOR,1,FIX,1.0,1.0*20
$GPRMC,121549.00,A,3116.303942,N,12114.415098,E,026.5,139.8,161219,,,A*56
$PGLOR,1,AGC,G,-16.7,R,-27.5,B,-24.2*52
$GPGGA,121550.00,3116.298110,N,12114.420546,E,1,18,0.6,15.6,M,9.2,M,,*68
$PGLOR,9,STA,121550.00,-1.147,0.000,-333,1,6,0,P,F,L,0,C,3,S,00100002,161,5,R,000833F4,TPeF,20,20626,LC,,,*69
$PGLOR,1,UNC,121550.00,0.013,6.0,8.5,0.21,1.45,4.2,4.2,0.0*25
$PGLOR,2,SAT,6,1,G27,33,1F,Q03,26,1F,Q02,31,1F,R19,12,13,G08,29,1F,G16,38,17*22
$PGLOR,2,SAT,6,2,R09,31,1F,G23,25,1F,R16,36,1F,G09,33,1F,G26,36,17,R18,32,13*28
$PGLOR,2,SAT,6,3,G31,36,1F,R07,27,1F,G21,36,13,G07,29,1B,Q01,14,13,G11,19,13*46
$PGLOR,2,SAT,6,4,B27,,10,R06,,30,B30,,0,E30,,0,B03,,0,B01,,0*24
$PGLOR,2,SAT,6,5,B10,,0,E02,,0,E36,,0,B04,,0,B02,,0,B16,,0*36
$PGLOR,2,SAT,6,6,B06,,0,E07,,0,E08,,0,B08,,0,B29,,0,E15,,0*3B
$PGLOR,1,SVC,GPS,3,1,10,008,UNKN,UNKN,016,UNKN,UNKN,023,UNKN,UNKN,027,UNKN,UNKN*7D
$PGLOR,1,SVC,GPS,3,2,10,009,UNKN,UNKN,021,UNKN,UNKN,026,UNKN,UNKN,031,UNKN,UNKN*79
$PGLOR,1,SVC,GPS,3,3,10,007,UNKN,UNKN,011,UNKN,UNKN*73
$PGLOR,1,SVC,GLO,2,1,06,056,UNKN,UNKN,057,UNKN,UNKN,058,UNKN,UNKN,062,UNKN,UNKN*78
$PGLOR,1,SVC,GLO,2,2,06,055,UNKN,UNKN,064,CLIN,CLIN*71
$PGLOR,1,SVC,QZS,1,1,03,066,UNKN,UNKN,067,UNKN,UNKN,068,UNKN,UNKN*79
$PGLOR,1,SVC,BDS,3,1,11,081,CLIN,CLIN,083,CLIN,CLIN,107,CLIN,CLIN,110,CLIN,CLIN*62
$PGLOR,1,SVC,BDS,3,2,11,082,CLIN,CLIN,084,CLIN,CLIN,090,CLIN,CLIN,096,CLIN,CLIN*65
$PGLOR,1,SVC,BDS,3,3,11,086,CLIN,CLIN,088,CLIN,CLIN,109,CLIN,CLIN*7E
$PGLOR,1,SVC,GAL,2,1,06,119,CLIN,CLIN,124,CLIN,CLIN,147,CLIN,CLIN,153,CLIN,CLIN*75
$PGLOR,1,SVC,GAL,2,2,06,125,CLIN,CLIN,132,CLIN,CLIN*7B
$PGLOR,2,SIO,TxERR,0,RxERR,0,TxCNT,448,RxCNT,5526,MLFRMPKT,0,DTMS,990,DTIN,35,40,DTOUT,12,956,HATMD,55*22
$PGLOR,1,HLA,121550.00,L,,Al,,A,,H,,,M,0,Ac,0,Gr,0,S,,,Sx,,,T,0,Tr,,Mn,,Ap,,Ta,0,,*31
$PGLOR,2,CTX,121550.00,E,1,0,,,V,4,1,S,,,*7F
$PGLOR,4,PWR,mA,53.9,RFTm,999,OscTm,999,MeasTm,999,UTC,121550.00,GNSSmA,54,CPUTm,184,COPTm,75,SrchTm,634,TrkTm,8,RpcTm,1
$GPGSV,3,1,10,27,82,030,36,08,59,226,36,16,47,038,38,23,41,249,27*7E
$GPGSV,3,2,10,09,35,283,34,26,30,065,38,31,15,129,36,21,13,048,39*79
$GPGSV,3,3,10,07,13,315,36,11,08,201,24*72
$GLGSV,2,1,06,83,67,088,19,73,45,345,37,80,40,079,36,82,27,033,37*6D
$GLGSV,2,2,06,71,15,257,28,70,01,212,*6C
$QZGSV,1,1,03,03,72,113,31,02,69,076,36,01,08,169,17*59
$BDGSV,3,1,11,227,47,053,,230,67,175,,203,51,200,,201,49,146,*61
$BDGSV,3,2,11,210,49,302,,204,35,123,,202,35,234,,216,34,200,*65
$BDGSV,3,3,11,206,33,195,,208,19,168,,229,17,208,*69
$GAGSV,2,1,06,130,52,331,,102,47,061,,136,37,060,,107,26,270,*6F
$GAGSV,2,2,06,108,21,215,,115,17,186,*6E
$GPGSA,A,3,07,08,09,11,16,21,23,26,27,31,,,1.6,1.0,1.3*36
$GNGSA,A,3,07,08,09,11,16,21,23,26,27,31,,,1.6,1.0,1.3*28
$GNGSA,A,3,71,73,80,82,83,,,,,,,,1.6,1.0,1.3*23
$QZGSA,A,3,01,02,03,,,,,,,,,,1.6,1.0,1.3*2A
$IMGSA,A,3,,,,,,,,,,,,,1.6,1.0,1.3*25
$BDGSA,A,3,,,,,,,,,,,,,1.6,1.0,1.3*27
$GAGSA,A,3,,,,,,,,,,,,,1.6,1.0,1.3*27
$PGLOR,1,FIX,1.0,1.0*20
$GPRMC,121550.00,A,3116.298110,N,12114.420546,E,026.4,142.7,161219,,,A*50
$PGLOR,1,AGC,G,-16.1,R,-27.6,B,-24.2*57
$GPGGA,121551.00,3116.292129,N,12114.425746,E,1,18,0.6,15.7,M,9.2,M,,*6F
$PGLOR,9,STA,121551.00,-1.147,0.000,-332,1,6,0,P,F,L,0,C,3,S,00100002,175,5,R,000833F4,TPeF,20,21626,LC,,,*6D
$PGLOR,1,UNC,121551.00,0.012,6.0,7.7,0.15,1.00,4.2,4.2,0.0*2E
$PGLOR,2,SAT,6,1,G27,36,1F,Q03,22,1F,Q02,35,1F,R19,14,13,G08,29,1F,G16,37,1F*5F
$PGLOR,2,SAT,6,2,R09,29,17,G23,26,1F,R16,36,1F,G09,32,1B,G26,32,17,R18,29,13*58
$PGLOR,2,SAT,6,3,G31,38,1F,R07,28,1F,G21,35,13,G07,30,1F,Q01,13,13,G11,14,13*42
$PGLOR,2,SAT,6,4,B27,,10,R06,,30,B30,,0,E30,,0,B03,,0,B01,,0*24
$PGLOR,2,SAT,6,5,B10,,0,E02,,0,E36,,0,B04,,0,B02,,0,B16,,0*36
$PGLOR,2,SAT,6,6,B06,,0,E07,,0,E08,,0,B08,,0,B29,,0,E15,,0*3B
$PGLOR,1,SVC,GPS,3,1,10,008,UNKN,UNKN,016,UNKN,UNKN,023,UNKN,UNKN,027,UNKN,UNKN*7D
$PGLOR,1,SVC,GPS,3,2,10,009,UNKN,UNKN,021,UNKN,UNKN,026,UNKN,UNKN,031,UNKN,UNKN*79
$PGLOR,1,SVC,GPS,3,3,10,007,UNKN,UNKN,011,UNKN,UNKN*73
$PGLOR,1,SVC,GLO,2,1,06,056,UNKN,UNKN,057,UNKN,UNKN,058,UNKN,UNKN,062,UNKN,UNKN*78
$PGLOR,1,SVC,GLO,2,2,06,055,UNKN,UNKN,064,CLIN,CLIN*71
$PGLOR,1,SVC,QZS,1,1,03,066,UNKN,UNKN,067,UNKN,UNKN,068,UNKN,UNKN*79
$PGLOR,1,SVC,BDS,3,1,11,081,CLIN,CLIN,083,CLIN,CLIN,107,CLIN,CLIN,110,CLIN,CLIN*62
$PGLOR,1,SVC,BDS,3,2,11,082,CLIN,CLIN,084,CLIN,CLIN,090,CLIN,CLIN,096,CLIN,CLIN*65
$PGLOR,1,SVC,BDS,3,3,11,086,CLIN,CLIN,088,CLIN,CLIN,109,CLIN,CLIN*7E
$PGLOR,1,SVC,GAL,2,1,06,119,CLIN,CLIN,124,CLIN,CLIN,147,CLIN,CLIN,153,CLIN,CLIN*75
$PGLOR,1,SVC,GAL,2,2,06,125,CLIN,CLIN,132,CLIN,CLIN*7B
$PGLOR,2,SIO,TxERR,0,RxERR,0,TxCNT,446,RxCNT,5579,MLFRMPKT,0,DTMS,996,DTIN,33,43,DTOUT,13,957,HATMD,51*21
$PGLOR,1,HLA,121551.00,L,,Al,,A,,H,,,M,0,Ac,0,Gr,0,S,,,Sx,,,T,0,Tr,,Mn,,Ap,,Ta,0,,*30
$PGLOR,2,CTX,121551.00,E,1,0,,,V,4,1,S,,,*7E
$PGLOR,4,PWR,mA,53.8,RFTm,1001,OscTm,1001,MeasTm,1001,UTC,121551.00,GNSSmA,54,CPUTm,189,COPTm,74,SrchTm,634,TrkTm,7,RpcT
$GPGSV,3,1,10,27,82,030,36,08,59,226,36,16,47,038,38,23,41,249,27*7E
$GPGSV,3,2,10,09,35,283,34,26,30,065,38,31,15,129,38,21,13,047,38*79
$GPGSV,3,3,10,07,13,315,35,11,08,201,23*76
$GLGSV,2,1,06,83,67,088,19,73,45,345,36,80,40,079,36,82,27,033,36*6D
$GLGSV,2,2,06,71,15,257,28,70,01,212,*6C
$QZGSV,1,1,03,03,72,113,30,02,69,076,36,01,08,169,17*58
$BDGSV,3,1,11,227,47,053,,230,67,175,,203,51,200,,201,49,146,*61
$BDGSV,3,2,11,210,49,302,,204,35,123,,202,35,234,,216,34,200,*65
$BDGSV,3,3,11,206,33,195,,208,19,168,,229,17,208,*69
$GAGSV,2,1,06,130,52,331,,102,47,061,,136,37,060,,107,26,270,*6F
$GAGSV,2,2,06,108,21,215,,115,17,186,*6E
$GPGSA,A,3,07,08,09,11,16,21,23,26,27,31,,,1.4,0.9,1.1*3E
$GNGSA,A,3,07,08,09,11,16,21,23,26,27,31,,,1.4,0.9,1.1*20
$GNGSA,A,3,71,73,80,82,83,,,,,,,,1.4,0.9,1.1*2B
$QZGSA,A,3,01,02,03,,,,,,,,,,1.4,0.9,1.1*22
$IMGSA,A,3,,,,,,,,,,,,,1.4,0.9,1.1*2D
$BDGSA,A,3,,,,,,,,,,,,,1.4,0.9,1.1*2F
$GAGSA,A,3,,,,,,,,,,,,,1.4,0.9,1.1*2F
$PGLOR,1,FIX,1.0,1.0*20
$GPRMC,121551.00,A,3116.292129,N,12114.425746,E,026.7,147.1,161219,,,A*56
$PGLOR,1,AGC,G,-16.3,R,-27.4,B,-24.2*57
$GPGGA,121552.00,3116.285746,N,12114.430360,E,1,16,0.6,15.5,M,9.2,M,,*6D
$PGLOR,9,STA,121552.00,-1.147,0.000,-332,1,6,0,P,F,L,0,C,3,S,00100002,189,5,R,000833F4,TPeF,20,22626,LC,,,*6E
$PGLOR,1,UNC,121552.00,0.012,6.0,7.2,0.21,1.76,4.2,4.2,0.0*2E
$PGLOR,2,SAT,6,1,G27,33,1F,Q03,24,1F,Q02,37,1F,R19,19,1B,G08,28,1F,G16,35,1F*21
$PGLOR,2,SAT,6,2,R09,28,1F,G23,27,17,R16,35,1F,G09,32,17,G26,31,1F,R18,34,13*50
$PGLOR,2,SAT,6,3,G31,37,1F,R07,26,13,G21,35,13,G07,31,1F,Q01,12,10,G11,10,10*32
$PGLOR,2,SAT,6,4,B27,,10,R06,,30,B30,,0,E30,,0,B03,,0,B01,,0*24
$PGLOR,2,SAT,6,5,B10,,0,E02,,0,E36,,0,B04,,0,B02,,0,B16,,0*36
$PGLOR,2,SAT,6,6,B06,,0,E07,,0,E08,,0,B08,,0,B29,,0,E15,,0*3B
$PGLOR,1,SVC,GPS,3,1,10,008,UNKN,UNKN,016,UNKN,UNKN,023,UNKN,UNKN,027,UNKN,UNKN*7D
$PGLOR,1,SVC,GPS,3,2,10,009,UNKN,UNKN,021,UNKN,UNKN,026,UNKN,UNKN,031,UNKN,UNKN*79
$PGLOR,1,SVC,GPS,3,3,10,007,UNKN,UNKN,011,UNKN,UNKN*73
$PGLOR,1,SVC,GLO,2,1,06,056,UNKN,UNKN,057,UNKN,UNKN,058,UNKN,UNKN,062,UNKN,UNKN*78
$PGLOR,1,SVC,GLO,2,2,06,055,UNKN,UNKN,064,CLIN,CLIN*71
$PGLOR,1,SVC,QZS,1,1,03,066,UNKN,UNKN,067,UNKN,UNKN,068,UNKN,UNKN*79
$PGLOR,1,SVC,BDS,3,1,11,081,CLIN,CLIN,083,CLIN,CLIN,107,CLIN,CLIN,110,CLIN,CLIN*62
$PGLOR,1,SVC,BDS,3,2,11,082,CLIN,CLIN,084,CLIN,CLIN,090,CLIN,CLIN,096,CLIN,CLIN*65
$PGLOR,1,SVC,BDS,3,3,11,086,CLIN,CLIN,088,CLIN,CLIN,109,CLIN,CLIN*7E
$PGLOR,1,SVC,GAL,2,1,06,119,CLIN,CLIN,124,CLIN,CLIN,147,CLIN,CLIN,153,CLIN,CLIN*75
$PGLOR,1,SVC,GAL,2,2,06,125,CLIN,CLIN,132,CLIN,CLIN*7B
$PGLOR,2,SIO,TxERR,0,RxERR,0,TxCNT,487,RxCNT,5557,MLFRMPKT,0,DTMS,1014,DTIN,26,37,DTOUT,11,966,HATMD,65*12
$PGLOR,1,HLA,121552.00,L,,Al,,A,,H,,,M,0,Ac,0,Gr,0,S,,,Sx,,,T,0,Tr,,Mn,,Ap,,Ta,0,,*33
$PGLOR,2,CTX,121552.00,E,1,0,,,V,4,1,S,,,*7D
$PGLOR,4,PWR,mA,53.8,RFTm,999,OscTm,999,MeasTm,999,UTC,121552.00,GNSSmA,54,CPUTm,195,COPTm,72,SrchTm,634,TrkTm,9,RpcTm,1
$GPGSV,3,1,10,27,82,030,36,08,59,226,35,16,47,038,38,23,41,249,27*7D
$GPGSV,3,2,10,09,35,283,33,26,30,065,37,31,15,129,38,21,13,047,38*71
$GPGSV,3,3,10,07,13,315,35,11,08,201,22*77
$GLGSV,2,1,06,83,67,088,19,73,45,345,35,80,40,079,36,82,27,033,36*6E
$GLGSV,2,2,06,71,15,257,28,70,01,212,*6C
$QZGSV,1,1,03,03,72,113,29,02,69,076,37,01,08,169,16*50
$BDGSV,3,1,11,227,47,053,,230,67,175,,203,51,200,,201,49,146,*61
$BDGSV,3,2,11,210,49,302,,204,35,123,,202,35,234,,216,34,200,*65
$BDGSV,3,3,11,206,33,195,,208,19,168,,229,17,208,*69
$GAGSV,2,1,06,130,52,331,,102,47,061,,136,37,060,,107,26,270,*6F
$GAGSV,2,2,06,108,21,215,,115,17,186,*6E
$GPGSA,A,3,07,08,09,16,21,23,26,27,31,,,,1.5,0.9,1.2*3C
$GNGSA,A,3,07,08,09,16,21,23,26,27,31,,,,1.5,0.9,1.2*22
$GNGSA,A,3,71,73,80,82,83,,,,,,,,1.5,0.9,1.2*29
$QZGSA,A,3,02,03,,,,,,,,,,,1.5,0.9,1.2*21
$IMGSA,A,3,,,,,,,,,,,,,1.5,0.9,1.2*2F
$BDGSA,A,3,,,,,,,,,,,,,1.5,0.9,1.2*2D
$GAGSA,A,3,,,,,,,,,,,,,1.5,0.9,1.2*2D
$PGLOR,1,FIX,1.0,1.0*20
$GPRMC,121552.00,A,3116.285746,N,12114.430360,E,026.4,149.0,161219,,,A*54
$PGLOR,1,AGC,G,-16.5,R,-27.4,B,-24.0*53
$GPGGA,121553.00,3116.279272,N,12114.434688,E,1,16,0.4,15.4,M,9.2,M,,*69
$PGLOR,9,STA,121553.00,-1.147,0.000,-332,1,4,0,P,F,L,0,C,3,S,00100002,203,5,R,000833F4,TPeF,20,23626,LC,,,*6D
$PGLOR,1,UNC,121553.00,0.011,4.0,6.8,0.23,1.88,2.8,2.8,0.0*26
$PGLOR,2,SAT,6,1,G27,33,1F,Q03,26,1F,Q02,35,1F,R19,15,13,G08,27,1F,G16,32,17*25
$PGLOR,2,SAT,6,2,R09,29,1F,G23,26,17,R16,34,1F,G09,31,1B,G26,27,1F,R18,38,13*2C
$PGLOR,2,SAT,6,3,G31,37,1F,R07,27,1F,G21,32,13,G07,29,1F,Q01,11,10,G11,09,10*43
$PGLOR,2,SAT,6,4,B27,,10,R06,,30,B30,,0,E30,,0,B03,,0,B01,,0*24
$PGLOR,2,SAT,6,5,B10,,0,E02,,0,E36,,0,B04,,0,B02,,0,B16,,0*36
$PGLOR,2,SAT,6,6,B06,,0,E07,,0,E08,,0,B08,,0,B29,,0,E15,,0*3B
$PGLOR,1,SVC,GPS,3,1,10,008,UNKN,UNKN,016,UNKN,UNKN,023,UNKN,UNKN,027,UNKN,UNKN*7D
$PGLOR,1,SVC,GPS,3,2,10,009,UNKN,UNKN,021,UNKN,UNKN,026,UNKN,UNKN,031,UNKN,UNKN*79
$PGLOR,1,SVC,GPS,3,3,10,007,UNKN,UNKN,011,CLIN,CLIN*73
$PGLOR,1,SVC,GLO,2,1,06,056,UNKN,UNKN,057,UNKN,UNKN,058,UNKN,UNKN,062,UNKN,UNKN*78
$PGLOR,1,SVC,GLO,2,2,06,055,UNKN,UNKN,064,CLIN,CLIN*71
$PGLOR,1,SVC,QZS,1,1,03,066,UNKN,UNKN,067,UNKN,UNKN,068,CLIN,CLIN*79
$PGLOR,1,SVC,BDS,3,1,11,081,CLIN,CLIN,083,CLIN,CLIN,107,CLIN,CLIN,110,CLIN,CLIN*62
$PGLOR,1,SVC,BDS,3,2,11,082,CLIN,CLIN,084,CLIN,CLIN,090,CLIN,CLIN,096,CLIN,CLIN*65
$PGLOR,1,SVC,BDS,3,3,11,086,CLIN,CLIN,088,CLIN,CLIN,109,CLIN,CLIN*7E
$PGLOR,1,SVC,GAL,2,1,06,119,CLIN,CLIN,124,CLIN,CLIN,147,CLIN,CLIN,153,CLIN,CLIN*75
$PGLOR,1,SVC,GAL,2,2,06,125,CLIN,CLIN,132,CLIN,CLIN*7B
$PGLOR,2,SIO,TxERR,0,RxERR,0,TxCNT,487,RxCNT,5570,MLFRMPKT,0,DTMS,995,DTIN,43,53,DTOUT,14,943,HATMD,60*20
$PGLOR,1,HLA,121553.00,L,,Al,,A,,H,,,M,0,Ac,0,Gr,0,S,,,Sx,,,T,0,Tr,,Mn,,Ap,,Ta,0,,*32
$PGLOR,2,CTX,121553.00,E,1,0,,,V,4,1,S,,,*7C
$PGLOR,4,PWR,mA,52.1,RFTm,1000,OscTm,1000,MeasTm,1000,UTC,121553.00,GNSSmA,52,CPUTm,193,COPTm,82,SrchTm,581,TrkTm,9,RpcT
$GPGSV,3,1,10,27,82,030,36,08,59,226,34,16,47,038,37,23,41,249,27*73
$GPGSV,3,2,10,09,35,283,33,26,30,065,36,31,15,129,38,21,13,047,38*70
$GPGSV,3,3,10,07,13,315,34,11,08,201,20*74
$GLGSV,2,1,06,83,67,088,18,73,45,345,35,80,40,079,36,82,27,033,38*61
$GLGSV,2,2,06,71,15,257,28,70,01,212,*6C
$QZGSV,1,1,03,03,72,113,29,02,69,076,37,01,08,169,16*50
$BDGSV,3,1,11,227,47,053,,230,67,175,,203,51,200,,201,49,146,*61
$BDGSV,3,2,11,210,49,302,,204,35,123,,202,35,234,,216,34,200,*65
$BDGSV,3,3,11,206,33,195,,208,19,168,,229,17,208,*69
$GAGSV,2,1,06,130,52,331,,102,47,061,,136,37,060,,107,26,270,*6F
$GAGSV,2,2,06,108,21,215,,115,17,186,*6E
$GPGSA,A,3,07,08,09,16,21,23,26,27,31,,,,1.4,0.9,1.1*3E
$GNGSA,A,3,07,08,09,16,21,23,26,27,31,,,,1.4,0.9,1.1*20
$GNGSA,A,3,71,73,80,82,83,,,,,,,,1.4,0.9,1.1*2B
$QZGSA,A,3,02,03,,,,,,,,,,,1.4,0.9,1.1*23
$IMGSA,A,3,,,,,,,,,,,,,1.4,0.9,1.1*2D
$BDGSA,A,3,,,,,,,,,,,,,1.4,0.9,1.1*2F
$GAGSA,A,3,,,,,,,,,,,,,1.4,0.9,1.1*2F
$PGLOR,1,FIX,1.0,1.0*20
$GPRMC,121553.00,A,3116.279272,N,12114.434688,E,026.6,153.5,161219,,,A*5F
$PGLOR,1,AGC,G,-16.5,R,-27.6,B,-23.9*5F
$GPGGA,121554.00,3116.272346,N,12114.438532,E,1,17,0.4,15.9,M,9.2,M,,*61
$PGLOR,9,STA,121554.00,-1.147,0.000,-332,1,4,0,P,F,L,0,C,3,S,00100002,217,5,R,000833F4,TPeF,20,24626,LC,,,*68
$PGLOR,1,UNC,121554.00,0.011,4.0,6.4,0.14,1.00,2.8,2.8,0.0*29
$PGLOR,2,SAT,6,1,G27,36,1F,Q03,26,1F,Q02,36,1F,R19,15,13,G08,35,1F,G16,34,17*26
$PGLOR,2,SAT,6,2,R09,32,1F,G23,29,1F,R16,35,1F,G09,30,1F,G26,28,17,R18,38,13*22
$PGLOR,2,SAT,6,3,G31,40,1F,R07,26,1B,G21,30,13,G07,28,1F,Q01,13,13,G11,10,10*4C
$PGLOR,2,SAT,6,4,B27,,10,R06,,30,B30,,0,E30,,0,B03,,0,B01,,0*24
$PGLOR,2,SAT,6,5,B10,,0,E02,,0,E36,,0,B04,,0,B02,,0,B16,,0*36
$PGLOR,2,SAT,6,6,B06,,0,E07,,0,E08,,0,B08,,0,B29,,0,E15,,0*3B
$PGLOR,1,SVC,GPS,3,1,10,008,UNKN,UNKN,016,UNKN,UNKN,023,UNKN,UNKN,027,UNKN,UNKN*7D
$PGLOR,1,SVC,GPS,3,2,10,009,UNKN,UNKN,021,UNKN,UNKN,026,UNKN,UNKN,031,UNKN,UNKN*79
$PGLOR,1,SVC,GPS,3,3,10,007,UNKN,UNKN,011,CLIN,CLIN*73
$PGLOR,1,SVC,GLO,2,1,06,056,UNKN,UNKN,057,UNKN,UNKN,058,UNKN,UNKN,062,UNKN,UNKN*78
$PGLOR,1,SVC,GLO,2,2,06,055,UNKN,UNKN,064,CLIN,CLIN*71
